{
  "data": {
    "distrito": "Vila Real",
    "concelho": "Peso da Régua",
    "freguesia": "União das freguesias de Poiares e Canelas",
    "OBJECTID": 443,
    "BGRI2021": "17081600218",
    "DT21": "17",
    "DTMN21": "1708",
    "DTMNFR21": "170816",
    "DTMNFRSEC21": "170816002",
    "SECNUM21": "002",
    "SSNUM21": "18",
    "SECSSNUM21": "00218",
    "OBJECTID_1": 184382,
    "DT": "17",
    "CC": "08",
    "fr": "16",
    "SEC": "002",
    "SS": "18"
  },
  "addresses": [
    {
      "id": "pt.ine.add.PTCONT.5292838",
      "street": "R TAPADOS",
      "house": "4156",
      "postcode": "5050-343",
      "city": "POIARES PRG",
      "lon": "-7.71024039952395",
      "lat": "41.20065370191522"
    },
    {
      "id": "pt.ine.add.PTCONT.5322840",
      "street": "",
      "house": "",
      "postcode": "5050-343",
      "city": "POIARES PRG",
      "lon": "-7.707436797157091",
      "lat": "41.200958523485326"
    },
    {
      "id": "pt.ine.add.PTCONT.5379686",
      "street": "SIT VILA SECA",
      "house": "130",
      "postcode": "5050-343",
      "city": "POIARES PRG",
      "lon": "-7.710649032149139",
      "lat": "41.200141957164924"
    },
    {
      "id": "pt.ine.add.PTCONT.5381617",
      "street": "SIT VILA SECA",
      "house": "377",
      "postcode": "5050-343",
      "city": "POIARES PRG",
      "lon": "-7.708395181097568",
      "lat": "41.20024171881867"
    },
    {
      "id": "pt.ine.add.PTCONT.5393607",
      "street": "",
      "house": "",
      "postcode": "5050-343",
      "city": "POIARES PRG",
      "lon": "-7.710467198357917",
      "lat": "41.200609513018414"
    },
    {
      "id": "pt.ine.add.PTCONT.5399665",
      "street": "R PENDAO",
      "house": "297",
      "postcode": "5050-343",
      "city": "POIARES PRG",
      "lon": "-7.707404883248045",
      "lat": "41.2003641225257"
    },
    {
      "id": "pt.ine.add.PTCONT.5406182",
      "street": "R PENDÃO",
      "house": "325",
      "postcode": "5050-343",
      "city": "POIARES PRG",
      "lon": "-7.707881567621191",
      "lat": "41.200392896445834"
    },
    {
      "id": "pt.ine.add.PTCONT.5410604",
      "street": "SIT VILA SECA",
      "house": "239",
      "postcode": "5050-343",
      "city": "POIARES PRG",
      "lon": "-7.707238858054459",
      "lat": "41.200228444376286"
    },
    {
      "id": "pt.ine.add.PTCONT.5420455",
      "street": "",
      "house": "",
      "postcode": "5050-343",
      "city": "POIARES PRG",
      "lon": "-7.706542444293416",
      "lat": "41.20099123146626"
    }
  ]
}