{
  "data": {
    "distrito": "Viseu",
    "concelho": "Viseu",
    "freguesia": "Bodiosa",
    "OBJECTID": 1179,
    "BGRI2021": "18230400201",
    "DT21": "18",
    "DTMN21": "1823",
    "DTMNFR21": "182304",
    "DTMNFRSEC21": "182304002",
    "SECNUM21": "002",
    "SSNUM21": "01",
    "SECSSNUM21": "00201",
    "OBJECTID_1": 202492,
    "DT": "18",
    "CC": "23",
    "fr": "04",
    "SEC": "002",
    "SS": "01"
  },
  "addresses": [
    {
      "id": "pt.ine.add.PTCONT.5429457",
      "street": "ESTR S MARINHA",
      "house": "",
      "postcode": "3515-512",
      "city": "BODIOSA",
      "lon": "-8.000380316837388",
      "lat": "40.71536103035924"
    },
    {
      "id": "pt.ine.add.PTCONT.5433997",
      "street": "R PRINCIPAL",
      "house": "",
      "postcode": "3515-585",
      "city": "BODIOSA",
      "lon": "-8.001545767572265",
      "lat": "40.7124987489485"
    },
    {
      "id": "pt.ine.add.PTCONT.5458734",
      "street": "ESTR S MARINHA",
      "house": "227",
      "postcode": "3515-512",
      "city": "BODIOSA",
      "lon": "-8.001305973478814",
      "lat": "40.71407436464143"
    },
    {
      "id": "pt.ine.add.PTCONT.5488554",
      "street": "ESTR S MARINHA",
      "house": "",
      "postcode": "3515-512",
      "city": "BODIOSA",
      "lon": "-8.000951309165385",
      "lat": "40.713884852474436"
    },
    {
      "id": "pt.ine.add.PTCONT.5563021",
      "street": "R CAVADINHA",
      "house": "5",
      "postcode": "3515-570",
      "city": "BODIOSA",
      "lon": "-8.001299395338386",
      "lat": "40.711408852815104"
    },
    {
      "id": "pt.ine.add.PTCONT.5566089",
      "street": "ESTR S MARINHA",
      "house": "225",
      "postcode": "3515-512",
      "city": "BODIOSA",
      "lon": "-8.001293854717527",
      "lat": "40.71421843208339"
    },
    {
      "id": "pt.ine.add.PTCONT.5569713",
      "street": "TV CAVADINHA",
      "house": "5",
      "postcode": "3515-570",
      "city": "BODIOSA",
      "lon": "-8.001130641467924",
      "lat": "40.71296653936975"
    },
    {
      "id": "pt.ine.add.PTCONT.5631160",
      "street": "ESTR S MARINHA",
      "house": "",
      "postcode": "3515-512",
      "city": "BODIOSA",
      "lon": "-8.000845492970083",
      "lat": "40.71353353314154"
    }
  ]
}