{
  "data": {
    "distrito": "Évora",
    "concelho": "Évora",
    "freguesia": "União das freguesias de Bacelo e Senhora da Saúde",
    "OBJECTID": 624,
    "BGRI2021": "07052200513",
    "DT21": "07",
    "DTMN21": "0705",
    "DTMNFR21": "070522",
    "DTMNFRSEC21": "070522005",
    "SECNUM21": "005",
    "SSNUM21": "13",
    "SECSSNUM21": "00513",
    "OBJECTID_1": 60576,
    "DT": "07",
    "CC": "05",
    "fr": "22",
    "SEC": "005",
    "SS": "13"
  },
  "addresses": [
    {
      "id": "pt.ine.add.PTCONT.1400980",
      "street": "AV FERNANDO PESSOA",
      "house": "73",
      "postcode": "7005-152",
      "city": "ÉVORA",
      "lon": "-7.9081877783034",
      "lat": "38.590118734297306"
    },
    {
      "id": "pt.ine.add.PTCONT.1414494",
      "street": "R JUVENTUDE",
      "house": "98",
      "postcode": "7005-364",
      "city": "ÉVORA",
      "lon": "-7.908202010835637",
      "lat": "38.58975817907571"
    },
    {
      "id": "pt.ine.add.PTCONT.1415226",
      "street": "AV FERNANDO PESSOA",
      "house": "75",
      "postcode": "7005-152",
      "city": "ÉVORA",
      "lon": "-7.908332449064341",
      "lat": "38.59014924342262"
    },
    {
      "id": "pt.ine.add.PTCONT.1431439",
      "street": "AV FERNANDO PESSOA",
      "house": "71",
      "postcode": "7005-152",
      "city": "ÉVORA",
      "lon": "-7.908061382701619",
      "lat": "38.590099266562305"
    },
    {
      "id": "pt.ine.add.PTCONT.1438383",
      "street": "AV FERNANDO PESSOA",
      "house": "69",
      "postcode": "7005-152",
      "city": "ÉVORA",
      "lon": "-7.907901342283417",
      "lat": "38.59007312091089"
    },
    {
      "id": "pt.ine.add.PTCONT.1441306",
      "street": "R JUVENTUDE",
      "house": "52",
      "postcode": "7005-364",
      "city": "ÉVORA",
      "lon": "-7.908428904653202",
      "lat": "38.589815918014416"
    },
    {
      "id": "pt.ine.add.PTCONT.1443895",
      "street": "R JUVENTUDE",
      "house": "40",
      "postcode": "7005-364",
      "city": "ÉVORA",
      "lon": "-7.908318325024748",
      "lat": "38.589780921658345"
    },
    {
      "id": "pt.ine.add.PTCONT.1445447",
      "street": "R JUVENTUDE",
      "house": "44",
      "postcode": "7005-364",
      "city": "ÉVORA",
      "lon": "-7.907936392943668",
      "lat": "38.589693649460976"
    },
    {
      "id": "pt.ine.add.PTCONT.1445982",
      "street": "R JUVENTUDE",
      "house": "44",
      "postcode": "7005-364",
      "city": "ÉVORA",
      "lon": "-7.907936392943668",
      "lat": "38.589693649460976"
    },
    {
      "id": "pt.ine.add.PTCONT.1459952",
      "street": "R DOS ALTOS",
      "house": "15",
      "postcode": "7005-456",
      "city": "ÉVORA",
      "lon": "-7.907792724484491",
      "lat": "38.590040934842925"
    },
    {
      "id": "pt.ine.add.PTCONT.1459953",
      "street": "R DOS ALTOS",
      "house": "15",
      "postcode": "7005-456",
      "city": "ÉVORA",
      "lon": "-7.907792724484491",
      "lat": "38.590040934842925"
    },
    {
      "id": "pt.ine.add.PTCONT.1465395",
      "street": "R DA JUVENTUDE",
      "house": "46",
      "postcode": "7005-364",
      "city": "ÉVORA",
      "lon": "-7.908055019889435",
      "lat": "38.58973472338554"
    }
  ]
}