{
  "data": {
    "distrito": "Braga",
    "concelho": "Guimarães",
    "freguesia": "União das freguesias de Briteiros Santo Estêvão e Donim",
    "OBJECTID": 156,
    "BGRI2021": "03087900210",
    "DT21": "03",
    "DTMN21": "0308",
    "DTMNFR21": "030879",
    "DTMNFRSEC21": "030879002",
    "SECNUM21": "002",
    "SSNUM21": "10",
    "SECSSNUM21": "00210",
    "OBJECTID_1": 27920,
    "DT": "03",
    "CC": "08",
    "fr": "79",
    "SEC": "002",
    "SS": "10"
  },
  "addresses": [
    {
      "id": "pt.ine.add.PTCONT.463188",
      "street": "R ESCOLA",
      "house": "",
      "postcode": "4805-180",
      "city": "DONIM",
      "lon": "-8.298642572619867",
      "lat": "41.530454387688074"
    },
    {
      "id": "pt.ine.add.PTCONT.475252",
      "street": "R SANTO AMARO",
      "house": "216",
      "postcode": "4805-180",
      "city": "DONIM",
      "lon": "-8.300632819331584",
      "lat": "41.530919703224725"
    },
    {
      "id": "pt.ine.add.PTCONT.489957",
      "street": "R PACO",
      "house": "403",
      "postcode": "4805-595",
      "city": "DONIM",
      "lon": "-8.299265138207438",
      "lat": "41.53025540630653"
    },
    {
      "id": "pt.ine.add.PTCONT.491081",
      "street": "R PACO",
      "house": "403",
      "postcode": "4805-595",
      "city": "DONIM",
      "lon": "-8.299265138207438",
      "lat": "41.53025540630653"
    },
    {
      "id": "pt.ine.add.PTCONT.531750",
      "street": "R SANTO AMARO",
      "house": "118",
      "postcode": "4805-180",
      "city": "DONIM",
      "lon": "-8.301266969072397",
      "lat": "41.53056762957514"
    },
    {
      "id": "pt.ine.add.PTCONT.535753",
      "street": "R SANTO AMARO",
      "house": "434",
      "postcode": "4805-180",
      "city": "DONIM",
      "lon": "-8.299661726114264",
      "lat": "41.53071402636378"
    },
    {
      "id": "pt.ine.add.PTCONT.537686",
      "street": "R PACO",
      "house": "33",
      "postcode": "4805-595",
      "city": "DONIM",
      "lon": "-8.301011804596568",
      "lat": "41.529199424859634"
    },
    {
      "id": "pt.ine.add.PTCONT.537687",
      "street": "R PACO",
      "house": "33",
      "postcode": "4805-595",
      "city": "DONIM",
      "lon": "-8.301011804596568",
      "lat": "41.529199424859634"
    },
    {
      "id": "pt.ine.add.PTCONT.558488",
      "street": "R SANTO AMARO",
      "house": "198",
      "postcode": "4805-180",
      "city": "DONIM",
      "lon": "-8.300728537857012",
      "lat": "41.530865540962935"
    },
    {
      "id": "pt.ine.add.PTCONT.569815",
      "street": "R OLIVEIRAS",
      "house": "152",
      "postcode": "4805-182",
      "city": "DONIM",
      "lon": "-8.300023067078577",
      "lat": "41.531442810100025"
    },
    {
      "id": "pt.ine.add.PTCONT.578574",
      "street": "R PACO",
      "house": "",
      "postcode": "4805-595",
      "city": "DONIM",
      "lon": "-8.300676891401874",
      "lat": "41.529425008355254"
    },
    {
      "id": "pt.ine.add.PTCONT.591311",
      "street": "R DO PACO",
      "house": "",
      "postcode": "4805-678",
      "city": "SANTO ESTEVÃO BRITEIROS",
      "lon": "-8.300748736742712",
      "lat": "41.52940689604764"
    },
    {
      "id": "pt.ine.add.PTCONT.627459",
      "street": "R PACO",
      "house": "173",
      "postcode": "4805-595",
      "city": "DONIM",
      "lon": "-8.30019823805561",
      "lat": "41.52966880740034"
    },
    {
      "id": "pt.ine.add.PTCONT.654710",
      "street": "R ESCOLA",
      "house": "876",
      "postcode": "4805-180",
      "city": "DONIM",
      "lon": "-8.298870348625613",
      "lat": "41.53049907859622"
    },
    {
      "id": "pt.ine.add.PTCONT.662552",
      "street": "R PACO",
      "house": "",
      "postcode": "4805-595",
      "city": "DONIM",
      "lon": "-8.300317594543106",
      "lat": "41.52948855792068"
    },
    {
      "id": "pt.ine.add.PTCONT.750134",
      "street": "LG DEVESA",
      "house": "9",
      "postcode": "4805-589",
      "city": "DONIM",
      "lon": "-8.299303043317837",
      "lat": "41.53102067440785"
    },
    {
      "id": "pt.ine.add.PTCONT.750137",
      "street": "LG DEVESA",
      "house": "16",
      "postcode": "4805-589",
      "city": "DONIM",
      "lon": "-8.2991706166835",
      "lat": "41.53077776315829"
    },
    {
      "id": "pt.ine.add.PTCONT.754091",
      "street": "R PAÇO",
      "house": "233",
      "postcode": "4805-595",
      "city": "DONIM",
      "lon": "-8.299814767289796",
      "lat": "41.52965135631338"
    },
    {
      "id": "pt.ine.add.PTCONT.756058",
      "street": "R SANTO AMARO",
      "house": "245",
      "postcode": "4805-180",
      "city": "DONIM",
      "lon": "-8.300453712128089",
      "lat": "41.531163066532784"
    },
    {
      "id": "pt.ine.add.PTCONT.764962",
      "street": "R BOUCA DA DEVESA",
      "house": "",
      "postcode": "4805-585",
      "city": "DONIM",
      "lon": "-8.299099805108561",
      "lat": "41.53120104389232"
    },
    {
      "id": "pt.ine.add.PTCONT.774055",
      "street": "R SANTO AMARO",
      "house": "22",
      "postcode": "4805-180",
      "city": "DONIM",
      "lon": "-8.301722104938554",
      "lat": "41.530494932778005"
    },
    {
      "id": "pt.ine.add.PTCONT.777016",
      "street": "AV JOAQUIM DE NOVAIS",
      "house": "1096",
      "postcode": "4805-179",
      "city": "DONIM",
      "lon": "-8.301673872421473",
      "lat": "41.53037795410224"
    },
    {
      "id": "pt.ine.add.PTCONT.785974",
      "street": "R SANTO AMARO",
      "house": "60",
      "postcode": "4805-180",
      "city": "DONIM",
      "lon": "-8.301542582605958",
      "lat": "41.53057623003609"
    },
    {
      "id": "pt.ine.add.PTCONT.810411",
      "street": "R JOAQUIM NOVAIS",
      "house": "812",
      "postcode": "4805-179",
      "city": "DONIM",
      "lon": "-8.30102397277829",
      "lat": "41.529271437498466"
    },
    {
      "id": "pt.ine.add.PTCONT.843550",
      "street": "LG DEVESA",
      "house": "46",
      "postcode": "4805-589",
      "city": "DONIM",
      "lon": "-8.29887062443387",
      "lat": "41.53060712378266"
    }
  ]
}