{
  "data": {
    "distrito": "Castelo Branco",
    "concelho": "Castelo Branco",
    "freguesia": "Castelo Branco",
    "OBJECTID": 520,
    "BGRI2021": "05020502407",
    "DT21": "05",
    "DTMN21": "0502",
    "DTMNFR21": "050205",
    "DTMNFRSEC21": "050205024",
    "SECNUM21": "024",
    "SSNUM21": "07",
    "SECSSNUM21": "02407",
    "OBJECTID_1": 40680,
    "DT": "05",
    "CC": "02",
    "fr": "05",
    "SEC": "024",
    "SS": "07"
  },
  "addresses": [
    {
      "id": "pt.ine.add.PTCONT.976250",
      "street": "R JOSE ANTONIO MORAO",
      "house": "24",
      "postcode": "6000-237",
      "city": "CASTELO BRANCO",
      "lon": "-7.488753499418006",
      "lat": "39.82545345079711"
    },
    {
      "id": "pt.ine.add.PTCONT.978482",
      "street": "R QUINTA NOVA",
      "house": "1",
      "postcode": "6000-270",
      "city": "CASTELO BRANCO",
      "lon": "-7.488528296876326",
      "lat": "39.825803448160606"
    },
    {
      "id": "pt.ine.add.PTCONT.978483",
      "street": "R QUINTA NOVA",
      "house": "1",
      "postcode": "6000-270",
      "city": "CASTELO BRANCO",
      "lon": "-7.488528296876326",
      "lat": "39.825803448160606"
    },
    {
      "id": "pt.ine.add.PTCONT.978484",
      "street": "R QUINTA NOVA",
      "house": "1",
      "postcode": "6000-270",
      "city": "CASTELO BRANCO",
      "lon": "-7.488528296876326",
      "lat": "39.825803448160606"
    },
    {
      "id": "pt.ine.add.PTCONT.978485",
      "street": "R QUINTA NOVA",
      "house": "1",
      "postcode": "6000-270",
      "city": "CASTELO BRANCO",
      "lon": "-7.488528296876326",
      "lat": "39.825803448160606"
    },
    {
      "id": "pt.ine.add.PTCONT.978486",
      "street": "R QUINTA NOVA",
      "house": "1",
      "postcode": "6000-270",
      "city": "CASTELO BRANCO",
      "lon": "-7.488528296876326",
      "lat": "39.825803448160606"
    },
    {
      "id": "pt.ine.add.PTCONT.978487",
      "street": "R QUINTA NOVA",
      "house": "1",
      "postcode": "6000-270",
      "city": "CASTELO BRANCO",
      "lon": "-7.488528296876326",
      "lat": "39.825803448160606"
    },
    {
      "id": "pt.ine.add.PTCONT.989964",
      "street": "R JOSE ANTÓNIO MORAO",
      "house": "22",
      "postcode": "6000-237",
      "city": "CASTELO BRANCO",
      "lon": "-7.488566619149363",
      "lat": "39.82545241275053"
    },
    {
      "id": "pt.ine.add.PTCONT.989965",
      "street": "R JOSE ANTÓNIO MORAO",
      "house": "22",
      "postcode": "6000-237",
      "city": "CASTELO BRANCO",
      "lon": "-7.488566619149363",
      "lat": "39.82545241275053"
    },
    {
      "id": "pt.ine.add.PTCONT.989966",
      "street": "R JOSE ANTÓNIO MORAO",
      "house": "22",
      "postcode": "6000-237",
      "city": "CASTELO BRANCO",
      "lon": "-7.488566619149363",
      "lat": "39.82545241275053"
    },
    {
      "id": "pt.ine.add.PTCONT.989967",
      "street": "R JOSE ANTÓNIO MORAO",
      "house": "22",
      "postcode": "6000-237",
      "city": "CASTELO BRANCO",
      "lon": "-7.488566619149363",
      "lat": "39.82545241275053"
    },
    {
      "id": "pt.ine.add.PTCONT.1023675",
      "street": "R ANTÓNIO RODRIGUES CARDOSO",
      "house": "17",
      "postcode": "6000-151",
      "city": "CASTELO BRANCO",
      "lon": "-7.488471664016099",
      "lat": "39.82561399980471"
    },
    {
      "id": "pt.ine.add.PTCONT.1023676",
      "street": "R ANTÓNIO RODRIGUES CARDOSO",
      "house": "17",
      "postcode": "6000-151",
      "city": "CASTELO BRANCO",
      "lon": "-7.488471664016099",
      "lat": "39.82561399980471"
    },
    {
      "id": "pt.ine.add.PTCONT.1023677",
      "street": "R ANTÓNIO RODRIGUES CARDOSO",
      "house": "17",
      "postcode": "6000-151",
      "city": "CASTELO BRANCO",
      "lon": "-7.488471664016099",
      "lat": "39.82561399980471"
    },
    {
      "id": "pt.ine.add.PTCONT.1023678",
      "street": "R ANTÓNIO RODRIGUES CARDOSO",
      "house": "17",
      "postcode": "6000-151",
      "city": "CASTELO BRANCO",
      "lon": "-7.488471664016099",
      "lat": "39.82561399980471"
    },
    {
      "id": "pt.ine.add.PTCONT.1023893",
      "street": "R ANTÓNIO RODRIGUES CARDOSO",
      "house": "17",
      "postcode": "6000-151",
      "city": "CASTELO BRANCO",
      "lon": "-7.488471664016099",
      "lat": "39.82561399980471"
    },
    {
      "id": "pt.ine.add.PTCONT.1024021",
      "street": "R ANTÓNIO RODRIGUES CARDOSO",
      "house": "17",
      "postcode": "6000-151",
      "city": "CASTELO BRANCO",
      "lon": "-7.488471664016099",
      "lat": "39.82561399980471"
    },
    {
      "id": "pt.ine.add.PTCONT.1080531",
      "street": "R QUINTA NOVA",
      "house": "I7",
      "postcode": "6000-270",
      "city": "CASTELO BRANCO",
      "lon": "-7.489030876551108",
      "lat": "39.825770213814245"
    }
  ]
}