{
  "data": {
    "distrito": "Viseu",
    "concelho": "Viseu",
    "freguesia": "São João de Lourosa",
    "OBJECTID": 39,
    "BGRI2021": "18232700314",
    "DT21": "18",
    "DTMN21": "1823",
    "DTMNFR21": "182327",
    "DTMNFRSEC21": "182327003",
    "SECNUM21": "003",
    "SSNUM21": "14",
    "SECSSNUM21": "00314",
    "OBJECTID_1": 201400,
    "DT": "18",
    "CC": "23",
    "fr": "27",
    "SEC": "003",
    "SS": "14"
  },
  "addresses": [
    {
      "id": "pt.ine.add.PTCONT.5446833",
      "street": "AV ALMINHAS",
      "house": "11",
      "postcode": "3500-886",
      "city": "VISEU",
      "lon": "-7.872456595800764",
      "lat": "40.62443430392506"
    },
    {
      "id": "pt.ine.add.PTCONT.5447608",
      "street": "R PINHAIS",
      "house": "1",
      "postcode": "3500-886",
      "city": "VISEU",
      "lon": "-7.872611323218002",
      "lat": "40.62415549151954"
    },
    {
      "id": "pt.ine.add.PTCONT.5468433",
      "street": "R PINHEIRO",
      "house": "2",
      "postcode": "3500-886",
      "city": "VISEU",
      "lon": "-7.871843778914603",
      "lat": "40.623982658754045"
    },
    {
      "id": "pt.ine.add.PTCONT.5525449",
      "street": "R HORTA FONTE",
      "house": "37",
      "postcode": "3500-886",
      "city": "VISEU",
      "lon": "-7.876264902282731",
      "lat": "40.62374042960611"
    },
    {
      "id": "pt.ine.add.PTCONT.5544373",
      "street": "R S DOMINGOS",
      "house": "35",
      "postcode": "3500-886",
      "city": "VISEU",
      "lon": "-7.876513815763939",
      "lat": "40.62355187346015"
    },
    {
      "id": "pt.ine.add.PTCONT.5565036",
      "street": "R HORTA DA FONTE",
      "house": "41",
      "postcode": "3500-886",
      "city": "VISEU",
      "lon": "-7.876242369086927",
      "lat": "40.62345221273201"
    },
    {
      "id": "pt.ine.add.PTCONT.5566898",
      "street": "R HORTA DA FONTE",
      "house": "39",
      "postcode": "3500-886",
      "city": "VISEU",
      "lon": "-7.876124218494755",
      "lat": "40.623442944682786"
    },
    {
      "id": "pt.ine.add.PTCONT.5568832",
      "street": "",
      "house": "",
      "postcode": "3500-886",
      "city": "VISEU",
      "lon": "-7.873318208077856",
      "lat": "40.62473341717632"
    },
    {
      "id": "pt.ine.add.PTCONT.5570956",
      "street": "R PINHEIRO",
      "house": "",
      "postcode": "3500-886",
      "city": "VISEU",
      "lon": "-7.872486288606225",
      "lat": "40.622876469473034"
    },
    {
      "id": "pt.ine.add.PTCONT.5600123",
      "street": "R HORTA DA FONTE",
      "house": "33",
      "postcode": "3500-886",
      "city": "VISEU",
      "lon": "-7.875605103275896",
      "lat": "40.62320765292508"
    },
    {
      "id": "pt.ine.add.PTCONT.5614458",
      "street": "AV ALMINHAS",
      "house": "11",
      "postcode": "3500-886",
      "city": "VISEU",
      "lon": "-7.872291659717783",
      "lat": "40.624298853422"
    }
  ]
}