{
  "data": {
    "distrito": "Santarém",
    "concelho": "Almeirim",
    "freguesia": "Almeirim",
    "OBJECTID": 50,
    "BGRI2021": "14030100210",
    "DT21": "14",
    "DTMN21": "1403",
    "DTMNFR21": "140301",
    "DTMNFRSEC21": "140301002",
    "SECNUM21": "002",
    "SSNUM21": "10",
    "SECSSNUM21": "00210",
    "OBJECTID_1": 148439,
    "DT": "14",
    "CC": "03",
    "fr": "01",
    "SEC": "002",
    "SS": "10"
  },
  "addresses": [
    {
      "id": "pt.ine.add.PTCONT.4401693",
      "street": "R CONDESSA DA JUNQUEIRA",
      "house": "12",
      "postcode": "2080-069",
      "city": "ALMEIRIM",
      "lon": "-8.625555381080567",
      "lat": "39.206082442709295"
    },
    {
      "id": "pt.ine.add.PTCONT.4401702",
      "street": "R CONDESSA DA JUNQUEIRA",
      "house": "12",
      "postcode": "2080-069",
      "city": "ALMEIRIM",
      "lon": "-8.625555381080567",
      "lat": "39.206082442709295"
    },
    {
      "id": "pt.ine.add.PTCONT.4420271",
      "street": "R CABO VERDE",
      "house": "10",
      "postcode": "2080-093",
      "city": "ALMEIRIM",
      "lon": "-8.62571362184012",
      "lat": "39.20553232438933"
    },
    {
      "id": "pt.ine.add.PTCONT.4422315",
      "street": "R CONDESSA DA JUNQUEIRA",
      "house": "10",
      "postcode": "2080-069",
      "city": "ALMEIRIM",
      "lon": "-8.625648626625692",
      "lat": "39.20617212218337"
    },
    {
      "id": "pt.ine.add.PTCONT.4431407",
      "street": "R CABO VERDE",
      "house": "12",
      "postcode": "2080-093",
      "city": "ALMEIRIM",
      "lon": "-8.625875321715537",
      "lat": "39.205477596361575"
    },
    {
      "id": "pt.ine.add.PTCONT.4449115",
      "street": "R DR ANTÓNIO TORRÃO SANTOS",
      "house": "1",
      "postcode": "2080-123",
      "city": "ALMEIRIM",
      "lon": "-8.626634379449333",
      "lat": "39.20641114934107"
    },
    {
      "id": "pt.ine.add.PTCONT.4449116",
      "street": "R DR ANTÓNIO TORRÃO SANTOS",
      "house": "1",
      "postcode": "2080-123",
      "city": "ALMEIRIM",
      "lon": "-8.626634379449333",
      "lat": "39.20641114934107"
    },
    {
      "id": "pt.ine.add.PTCONT.4449117",
      "street": "R DR ANTÓNIO TORRÃO SANTOS",
      "house": "1",
      "postcode": "2080-123",
      "city": "ALMEIRIM",
      "lon": "-8.626634379449333",
      "lat": "39.20641114934107"
    },
    {
      "id": "pt.ine.add.PTCONT.4449118",
      "street": "R DR ANTÓNIO TORRÃO SANTOS",
      "house": "1",
      "postcode": "2080-123",
      "city": "ALMEIRIM",
      "lon": "-8.626634379449333",
      "lat": "39.20641114934107"
    },
    {
      "id": "pt.ine.add.PTCONT.4449119",
      "street": "R DR ANTÓNIO TORRÃO SANTOS",
      "house": "1",
      "postcode": "2080-123",
      "city": "ALMEIRIM",
      "lon": "-8.626634379449333",
      "lat": "39.20641114934107"
    },
    {
      "id": "pt.ine.add.PTCONT.4449120",
      "street": "R DR ANTÓNIO TORRÃO SANTOS",
      "house": "1",
      "postcode": "2080-123",
      "city": "ALMEIRIM",
      "lon": "-8.626634379449333",
      "lat": "39.20641114934107"
    },
    {
      "id": "pt.ine.add.PTCONT.4449121",
      "street": "R DR ANTÓNIO TORRÃO SANTOS",
      "house": "1",
      "postcode": "2080-123",
      "city": "ALMEIRIM",
      "lon": "-8.626634379449333",
      "lat": "39.20641114934107"
    },
    {
      "id": "pt.ine.add.PTCONT.4450650",
      "street": "R DR ANTÓNIO TORRÃO SANTOS",
      "house": "1",
      "postcode": "2080-123",
      "city": "ALMEIRIM",
      "lon": "-8.626634379449333",
      "lat": "39.20641114934107"
    },
    {
      "id": "pt.ine.add.PTCONT.4457570",
      "street": "R D GONÇALO DA SILVEIRA",
      "house": "14",
      "postcode": "2080-114",
      "city": "ALMEIRIM",
      "lon": "-8.626347345775264",
      "lat": "39.20675464479063"
    },
    {
      "id": "pt.ine.add.PTCONT.4457571",
      "street": "R D GONÇALO DA SILVEIRA",
      "house": "14",
      "postcode": "2080-114",
      "city": "ALMEIRIM",
      "lon": "-8.626347345775264",
      "lat": "39.20675464479063"
    },
    {
      "id": "pt.ine.add.PTCONT.4461530",
      "street": "R DR ANTÓNIO TORRAO SANTOS",
      "house": "7",
      "postcode": "2080-123",
      "city": "ALMEIRIM",
      "lon": "-8.626459399531603",
      "lat": "39.20622273579716"
    },
    {
      "id": "pt.ine.add.PTCONT.4461531",
      "street": "R DR ANTÓNIO TORRAO SANTOS",
      "house": "7",
      "postcode": "2080-123",
      "city": "ALMEIRIM",
      "lon": "-8.626459399531603",
      "lat": "39.20622273579716"
    },
    {
      "id": "pt.ine.add.PTCONT.4461532",
      "street": "R DR ANTÓNIO TORRAO SANTOS",
      "house": "7",
      "postcode": "2080-123",
      "city": "ALMEIRIM",
      "lon": "-8.626459399531603",
      "lat": "39.20622273579716"
    },
    {
      "id": "pt.ine.add.PTCONT.4461533",
      "street": "R DR ANTÓNIO TORRAO SANTOS",
      "house": "7",
      "postcode": "2080-123",
      "city": "ALMEIRIM",
      "lon": "-8.626459399531603",
      "lat": "39.20622273579716"
    },
    {
      "id": "pt.ine.add.PTCONT.4487655",
      "street": "R CONDESSA DA JUNQUEIRA",
      "house": "18",
      "postcode": "2080-069",
      "city": "ALMEIRIM",
      "lon": "-8.625334159624394",
      "lat": "39.20590323027455"
    },
    {
      "id": "pt.ine.add.PTCONT.4487656",
      "street": "R CABO VERDE",
      "house": "4",
      "postcode": "2080-093",
      "city": "ALMEIRIM",
      "lon": "-8.625334159624394",
      "lat": "39.20590323027455"
    },
    {
      "id": "pt.ine.add.PTCONT.4616983",
      "street": "R D GONÇALO DA SILVEIRA",
      "house": "10 A",
      "postcode": "2080-114",
      "city": "ALMEIRIM",
      "lon": "-8.626600971815847",
      "lat": "39.206600445520166"
    },
    {
      "id": "pt.ine.add.PTCONT.4616984",
      "street": "R D GONÇALO DA SILVEIRA",
      "house": "10 B",
      "postcode": "2080-114",
      "city": "ALMEIRIM",
      "lon": "-8.626600971815847",
      "lat": "39.206600445520166"
    },
    {
      "id": "pt.ine.add.PTCONT.4642021",
      "street": "R DR ANTÓNIO TORRAO SANTOS",
      "house": "",
      "postcode": "2080-123",
      "city": "ALMEIRIM",
      "lon": "-8.626202247573563",
      "lat": "39.205872537221374"
    }
  ]
}