{
  "data": {
    "distrito": "Portalegre",
    "concelho": "Sousel",
    "freguesia": "Santo Amaro",
    "OBJECTID": 122,
    "BGRI2021": "12150300123",
    "DT21": "12",
    "DTMN21": "1215",
    "DTMNFR21": "121503",
    "DTMNFRSEC21": "121503001",
    "SECNUM21": "001",
    "SSNUM21": "23",
    "SECSSNUM21": "00123",
    "OBJECTID_1": 124964,
    "DT": "12",
    "CC": "15",
    "fr": "03",
    "SEC": "001",
    "SS": "23"
  },
  "addresses": [
    {
      "id": "pt.ine.add.PTCONT.3466683",
      "street": "MTE FORTE",
      "house": "",
      "postcode": "7470-155",
      "city": "SANTO AMARO SSL",
      "lon": "-7.597415218368073",
      "lat": "38.97291178532688"
    },
    {
      "id": "pt.ine.add.PTCONT.3477847",
      "street": "MTE BARRINHO",
      "house": "",
      "postcode": "7470-155",
      "city": "SANTO AMARO SSL",
      "lon": "-7.600818649418011",
      "lat": "38.9837906503106"
    },
    {
      "id": "pt.ine.add.PTCONT.3490258",
      "street": "MTE TORRINHA",
      "house": "",
      "postcode": "7470-155",
      "city": "SANTO AMARO SSL",
      "lon": "-7.609681227864637",
      "lat": "38.966680059052486"
    },
    {
      "id": "pt.ine.add.PTCONT.3510189",
      "street": "MTE PIGORRAS",
      "house": "",
      "postcode": "7470-155",
      "city": "SANTO AMARO SSL",
      "lon": "-7.611038467216908",
      "lat": "38.9609752380447"
    },
    {
      "id": "pt.ine.add.PTCONT.3525030",
      "street": "MTE MALHADA DO ARNEIRO",
      "house": "",
      "postcode": "7470-155",
      "city": "SANTO AMARO SSL",
      "lon": "-7.607958938624383",
      "lat": "38.987408066262866"
    },
    {
      "id": "pt.ine.add.PTCONT.3525031",
      "street": "MTE DA CARAPALHA",
      "house": "",
      "postcode": "7470-155",
      "city": "SANTO AMARO SSL",
      "lon": "-7.600450494740261",
      "lat": "38.98363583949593"
    },
    {
      "id": "pt.ine.add.PTCONT.3528286",
      "street": "MTE TANGANHO",
      "house": "",
      "postcode": "7470-155",
      "city": "SANTO AMARO SSL",
      "lon": "-7.5856530524810415",
      "lat": "38.973379645515934"
    }
  ]
}