{
  "data": {
    "distrito": "Lisboa",
    "concelho": "Vila Franca de Xira",
    "freguesia": "União das freguesias de Alhandra, São João dos Montes e Calhandriz",
    "OBJECTID": 398,
    "BGRI2021": "11141201007",
    "DT21": "11",
    "DTMN21": "1114",
    "DTMNFR21": "111412",
    "DTMNFRSEC21": "111412010",
    "SECNUM21": "010",
    "SSNUM21": "07",
    "SECSSNUM21": "01007",
    "OBJECTID_1": 118002,
    "DT": "11",
    "CC": "14",
    "fr": "12",
    "SEC": "010",
    "SS": "07"
  },
  "addresses": [
    {
      "id": "pt.ine.add.PTCONT.2564655",
      "street": "R GEN HUMBERTO DELGADO",
      "house": "",
      "postcode": "2600-782",
      "city": "SÃO JOÃO DOS MONTES",
      "lon": "-9.018581443027838",
      "lat": "38.93975972743647"
    },
    {
      "id": "pt.ine.add.PTCONT.2610117",
      "street": "R GEN HUMBERTO DELGADO",
      "house": "6",
      "postcode": "2600-782",
      "city": "SÃO JOÃO DOS MONTES",
      "lon": "-9.01882407731587",
      "lat": "38.93979391694023"
    },
    {
      "id": "pt.ine.add.PTCONT.2610474",
      "street": "AV DA LIBERDADE",
      "house": "",
      "postcode": "2600-844",
      "city": "S4O JOHO DOS MONTES",
      "lon": "-9.019194019719064",
      "lat": "38.93986317000084"
    },
    {
      "id": "pt.ine.add.PTCONT.2662717",
      "street": "R LIBERDADE",
      "house": "",
      "postcode": "2600-782",
      "city": "SÃO JOÃO DOS MONTES",
      "lon": "-9.018989345462861",
      "lat": "38.94009892167225"
    },
    {
      "id": "pt.ine.add.PTCONT.2662718",
      "street": "R LIBERDADE",
      "house": "",
      "postcode": "2600-782",
      "city": "SÃO JOÃO DOS MONTES",
      "lon": "-9.018989345462861",
      "lat": "38.94009892167225"
    },
    {
      "id": "pt.ine.add.PTCONT.2758959",
      "street": "R 5 DE OUTUBRO",
      "house": "1",
      "postcode": "2600-782",
      "city": "SÃO JOÃO DOS MONTES",
      "lon": "-9.018374190967165",
      "lat": "38.93978832239594"
    },
    {
      "id": "pt.ine.add.PTCONT.2759070",
      "street": "CAM CAEIRA",
      "house": "2",
      "postcode": "2600-782",
      "city": "SÃO JOÃO DOS MONTES",
      "lon": "-9.021358427740301",
      "lat": "38.94139602829615"
    },
    {
      "id": "pt.ine.add.PTCONT.2840776",
      "street": "R 5 DE OUTUBRO",
      "house": "",
      "postcode": "2600-782",
      "city": "SÃO JOÃO DOS MONTES",
      "lon": "-9.018699906922372",
      "lat": "38.940011041948395"
    },
    {
      "id": "pt.ine.add.PTCONT.2840777",
      "street": "R 5 OUTUBRO",
      "house": "11",
      "postcode": "2600-782",
      "city": "SÃO JOÃO DOS MONTES",
      "lon": "-9.018699906922372",
      "lat": "38.940011041948395"
    },
    {
      "id": "pt.ine.add.PTCONT.2840778",
      "street": "R 5 OUTUBRO",
      "house": "9",
      "postcode": "2600-782",
      "city": "SÃO JOÃO DOS MONTES",
      "lon": "-9.018699906922372",
      "lat": "38.940011041948395"
    },
    {
      "id": "pt.ine.add.PTCONT.2868161",
      "street": "R GEN HUMBERTO DELGADO",
      "house": "",
      "postcode": "2600-782",
      "city": "SÃO JOÃO DOS MONTES",
      "lon": "-9.018384939623266",
      "lat": "38.939725187548014"
    },
    {
      "id": "pt.ine.add.PTCONT.2884763",
      "street": "ESTR BOM NOME",
      "house": "",
      "postcode": "2600-782",
      "city": "SÃO JOÃO DOS MONTES",
      "lon": "-9.020479374279965",
      "lat": "38.94212332388807"
    },
    {
      "id": "pt.ine.add.PTCONT.2995635",
      "street": "R 5 DE OUTUBRO",
      "house": "5",
      "postcode": "2600-782",
      "city": "SÃO JOÃO DOS MONTES",
      "lon": "-9.018559721987085",
      "lat": "38.93986798362742"
    },
    {
      "id": "pt.ine.add.PTCONT.2995636",
      "street": "R 5 OUTUBRO",
      "house": "7",
      "postcode": "2600-782",
      "city": "SÃO JOÃO DOS MONTES",
      "lon": "-9.018559721987085",
      "lat": "38.93986798362742"
    },
    {
      "id": "pt.ine.add.PTCONT.3191331",
      "street": "R GEN HUMBERTO DELGADO",
      "house": "",
      "postcode": "2600-782",
      "city": "SÃO JOÃO DOS MONTES",
      "lon": "-9.018627349640056",
      "lat": "38.93974136392794"
    },
    {
      "id": "pt.ine.add.PTCONT.3438434",
      "street": "R LIBERDADE",
      "house": "",
      "postcode": "2600-782",
      "city": "SÃO JOÃO DOS MONTES",
      "lon": "-9.018989345462861",
      "lat": "38.94009892167225"
    },
    {
      "id": "pt.ine.add.PTCONT.3448618",
      "street": "R LIBERDADE CASAL DA TASCA",
      "house": "",
      "postcode": "2600-843",
      "city": "SÃO JOÃO DOS MONTES",
      "lon": "-9.020076477052667",
      "lat": "38.941261655400595"
    }
  ]
}