{
  "data": {
    "distrito": "Santarém",
    "concelho": "Vila Nova da Barquinha",
    "freguesia": "Vila Nova da Barquinha",
    "OBJECTID": 96,
    "BGRI2021": "14200600109",
    "DT21": "14",
    "DTMN21": "1420",
    "DTMNFR21": "142006",
    "DTMNFRSEC21": "142006001",
    "SECNUM21": "001",
    "SSNUM21": "09",
    "SECSSNUM21": "00109",
    "OBJECTID_1": 158181,
    "DT": "14",
    "CC": "20",
    "fr": "06",
    "SEC": "001",
    "SS": "09"
  },
  "addresses": [
    {
      "id": "pt.ine.add.PTCONT.4419708",
      "street": "R D MARIA II",
      "house": "",
      "postcode": "2260-434",
      "city": "VILA NOVA DA BARQUINHA",
      "lon": "-8.442368186546148",
      "lat": "39.46200404669122"
    },
    {
      "id": "pt.ine.add.PTCONT.4419729",
      "street": "R D MARIA II",
      "house": "",
      "postcode": "2260-434",
      "city": "VILA NOVA DA BARQUINHA",
      "lon": "-8.442368186546148",
      "lat": "39.46200404669122"
    },
    {
      "id": "pt.ine.add.PTCONT.4470846",
      "street": "R MISERICÓRDIA",
      "house": "",
      "postcode": "2260-422",
      "city": "VILA NOVA DA BARQUINHA",
      "lon": "-8.442160427991247",
      "lat": "39.46231984434333"
    },
    {
      "id": "pt.ine.add.PTCONT.4470847",
      "street": "R D MARIA II",
      "house": "",
      "postcode": "2260-434",
      "city": "VILA NOVA DA BARQUINHA",
      "lon": "-8.442240291264516",
      "lat": "39.46198637269818"
    },
    {
      "id": "pt.ine.add.PTCONT.4470848",
      "street": "R D MARIA II",
      "house": "",
      "postcode": "2260-434",
      "city": "VILA NOVA DA BARQUINHA",
      "lon": "-8.442240291264516",
      "lat": "39.46198637269818"
    },
    {
      "id": "pt.ine.add.PTCONT.4471685",
      "street": "R MISERICÓRDIA",
      "house": "",
      "postcode": "2260-422",
      "city": "VILA NOVA DA BARQUINHA",
      "lon": "-8.442160427991247",
      "lat": "39.46231984434333"
    },
    {
      "id": "pt.ine.add.PTCONT.4526860",
      "street": "TV LAGARITO",
      "house": "",
      "postcode": "2260-449",
      "city": "VILA NOVA DA BARQUINHA",
      "lon": "-8.441915499810776",
      "lat": "39.46211333372148"
    },
    {
      "id": "pt.ine.add.PTCONT.4526861",
      "street": "TV LAGARITO",
      "house": "",
      "postcode": "2260-449",
      "city": "VILA NOVA DA BARQUINHA",
      "lon": "-8.441915499810776",
      "lat": "39.46211333372148"
    },
    {
      "id": "pt.ine.add.PTCONT.4526862",
      "street": "TV LAGARITO",
      "house": "",
      "postcode": "2260-449",
      "city": "VILA NOVA DA BARQUINHA",
      "lon": "-8.441915499810776",
      "lat": "39.46211333372148"
    },
    {
      "id": "pt.ine.add.PTCONT.4526863",
      "street": "TV LAGARITO",
      "house": "",
      "postcode": "2260-449",
      "city": "VILA NOVA DA BARQUINHA",
      "lon": "-8.441915499810776",
      "lat": "39.46211333372148"
    },
    {
      "id": "pt.ine.add.PTCONT.4526864",
      "street": "TV LAGARITO",
      "house": "",
      "postcode": "2260-449",
      "city": "VILA NOVA DA BARQUINHA",
      "lon": "-8.441915499810776",
      "lat": "39.46211333372148"
    },
    {
      "id": "pt.ine.add.PTCONT.4526865",
      "street": "TV LAGARITO",
      "house": "",
      "postcode": "2260-449",
      "city": "VILA NOVA DA BARQUINHA",
      "lon": "-8.441915499810776",
      "lat": "39.46211333372148"
    },
    {
      "id": "pt.ine.add.PTCONT.4526866",
      "street": "TV LAGARITO",
      "house": "",
      "postcode": "2260-449",
      "city": "VILA NOVA DA BARQUINHA",
      "lon": "-8.441915499810776",
      "lat": "39.46211333372148"
    },
    {
      "id": "pt.ine.add.PTCONT.4526867",
      "street": "TV LAGARITO",
      "house": "",
      "postcode": "2260-449",
      "city": "VILA NOVA DA BARQUINHA",
      "lon": "-8.441915499810776",
      "lat": "39.46211333372148"
    },
    {
      "id": "pt.ine.add.PTCONT.4526868",
      "street": "TV LAGARITO",
      "house": "2 A",
      "postcode": "2260-449",
      "city": "VILA NOVA DA BARQUINHA",
      "lon": "-8.441915499810776",
      "lat": "39.46211333372148"
    },
    {
      "id": "pt.ine.add.PTCONT.4526916",
      "street": "TV LAGARITO",
      "house": "",
      "postcode": "2260-449",
      "city": "VILA NOVA DA BARQUINHA",
      "lon": "-8.441915499810776",
      "lat": "39.46211333372148"
    },
    {
      "id": "pt.ine.add.PTCONT.4526917",
      "street": "TV LAGARITO",
      "house": "",
      "postcode": "2260-449",
      "city": "VILA NOVA DA BARQUINHA",
      "lon": "-8.441915499810776",
      "lat": "39.46211333372148"
    },
    {
      "id": "pt.ine.add.PTCONT.4527625",
      "street": "TV LAGARITO",
      "house": "",
      "postcode": "2260-449",
      "city": "VILA NOVA DA BARQUINHA",
      "lon": "-8.441915499810776",
      "lat": "39.46211333372148"
    },
    {
      "id": "pt.ine.add.PTCONT.4535542",
      "street": "R MISERICÓRDIA",
      "house": "",
      "postcode": "2260-422",
      "city": "VILA NOVA DA BARQUINHA",
      "lon": "-8.442299943518767",
      "lat": "39.46233748752923"
    },
    {
      "id": "pt.ine.add.PTCONT.4535543",
      "street": "R MISERICÓRDIA",
      "house": "",
      "postcode": "2260-422",
      "city": "VILA NOVA DA BARQUINHA",
      "lon": "-8.442299943518767",
      "lat": "39.46233748752923"
    },
    {
      "id": "pt.ine.add.PTCONT.4552004",
      "street": "R CARDIGA",
      "house": "",
      "postcode": "2260-381",
      "city": "VILA NOVA DA BARQUINHA",
      "lon": "-8.44261307577934",
      "lat": "39.462201549455635"
    },
    {
      "id": "pt.ine.add.PTCONT.4552005",
      "street": "R CARDIGA",
      "house": "",
      "postcode": "2260-381",
      "city": "VILA NOVA DA BARQUINHA",
      "lon": "-8.44261307577934",
      "lat": "39.462201549455635"
    },
    {
      "id": "pt.ine.add.PTCONT.4552006",
      "street": "R CARDIGA",
      "house": "",
      "postcode": "2260-381",
      "city": "VILA NOVA DA BARQUINHA",
      "lon": "-8.44261307577934",
      "lat": "39.462201549455635"
    },
    {
      "id": "pt.ine.add.PTCONT.4552007",
      "street": "R CARDIGA",
      "house": "",
      "postcode": "2260-381",
      "city": "VILA NOVA DA BARQUINHA",
      "lon": "-8.44261307577934",
      "lat": "39.462201549455635"
    },
    {
      "id": "pt.ine.add.PTCONT.4552008",
      "street": "R CARDIGA",
      "house": "",
      "postcode": "2260-381",
      "city": "VILA NOVA DA BARQUINHA",
      "lon": "-8.44261307577934",
      "lat": "39.462201549455635"
    },
    {
      "id": "pt.ine.add.PTCONT.4552009",
      "street": "R CARDIGA",
      "house": "",
      "postcode": "2260-381",
      "city": "VILA NOVA DA BARQUINHA",
      "lon": "-8.44261307577934",
      "lat": "39.462201549455635"
    },
    {
      "id": "pt.ine.add.PTCONT.4552010",
      "street": "R CARDIGA",
      "house": "",
      "postcode": "2260-381",
      "city": "VILA NOVA DA BARQUINHA",
      "lon": "-8.44261307577934",
      "lat": "39.462201549455635"
    },
    {
      "id": "pt.ine.add.PTCONT.4552011",
      "street": "R CARDIGA",
      "house": "",
      "postcode": "2260-381",
      "city": "VILA NOVA DA BARQUINHA",
      "lon": "-8.44261307577934",
      "lat": "39.462201549455635"
    },
    {
      "id": "pt.ine.add.PTCONT.4552012",
      "street": "R CARDIGA",
      "house": "",
      "postcode": "2260-381",
      "city": "VILA NOVA DA BARQUINHA",
      "lon": "-8.44261307577934",
      "lat": "39.462201549455635"
    },
    {
      "id": "pt.ine.add.PTCONT.4552013",
      "street": "R CARDIGA",
      "house": "",
      "postcode": "2260-381",
      "city": "VILA NOVA DA BARQUINHA",
      "lon": "-8.44261307577934",
      "lat": "39.462201549455635"
    },
    {
      "id": "pt.ine.add.PTCONT.4552203",
      "street": "R CARDIGA",
      "house": "",
      "postcode": "2260-381",
      "city": "VILA NOVA DA BARQUINHA",
      "lon": "-8.44261307577934",
      "lat": "39.462201549455635"
    },
    {
      "id": "pt.ine.add.PTCONT.4552334",
      "street": "R CARDIGA",
      "house": "",
      "postcode": "2260-381",
      "city": "VILA NOVA DA BARQUINHA",
      "lon": "-8.44261307577934",
      "lat": "39.462201549455635"
    },
    {
      "id": "pt.ine.add.PTCONT.4592877",
      "street": "R MISERICÓRDIA",
      "house": "",
      "postcode": "2260-422",
      "city": "VILA NOVA DA BARQUINHA",
      "lon": "-8.442427839458277",
      "lat": "39.462355161453"
    },
    {
      "id": "pt.ine.add.PTCONT.4592878",
      "street": "R MISERICÓRDIA",
      "house": "",
      "postcode": "2260-422",
      "city": "VILA NOVA DA BARQUINHA",
      "lon": "-8.442427839458277",
      "lat": "39.462355161453"
    },
    {
      "id": "pt.ine.add.PTCONT.4602001",
      "street": "R MISERICÓRDIA",
      "house": "",
      "postcode": "2260-422",
      "city": "VILA NOVA DA BARQUINHA",
      "lon": "-8.442009292884068",
      "lat": "39.462302231853435"
    },
    {
      "id": "pt.ine.add.PTCONT.4602002",
      "street": "R MISERICÓRDIA",
      "house": "",
      "postcode": "2260-422",
      "city": "VILA NOVA DA BARQUINHA",
      "lon": "-8.442009292884068",
      "lat": "39.462302231853435"
    },
    {
      "id": "pt.ine.add.PTCONT.4640940",
      "street": "R D MARIA II",
      "house": "",
      "postcode": "2260-434",
      "city": "VILA NOVA DA BARQUINHA",
      "lon": "-8.442496081891578",
      "lat": "39.462021720543305"
    },
    {
      "id": "pt.ine.add.PTCONT.4640941",
      "street": "R D MARIA II",
      "house": "",
      "postcode": "2260-434",
      "city": "VILA NOVA DA BARQUINHA",
      "lon": "-8.442496081891578",
      "lat": "39.462021720543305"
    },
    {
      "id": "pt.ine.add.PTCONT.4645495",
      "street": "R D MARIA II",
      "house": "",
      "postcode": "2260-434",
      "city": "VILA NOVA DA BARQUINHA",
      "lon": "-8.442089117033884",
      "lat": "39.461959753403335"
    },
    {
      "id": "pt.ine.add.PTCONT.4645496",
      "street": "R D MARIA II",
      "house": "102",
      "postcode": "2260-434",
      "city": "VILA NOVA DA BARQUINHA",
      "lon": "-8.442089117033884",
      "lat": "39.461959753403335"
    }
  ]
}