{
  "data": {
    "distrito": "Porto",
    "concelho": "Marco de Canaveses",
    "freguesia": "Sande e São Lourenço do Douro",
    "OBJECTID": 715,
    "BGRI2021": "13073900201",
    "DT21": "13",
    "DTMN21": "1307",
    "DTMNFR21": "130739",
    "DTMNFRSEC21": "130739002",
    "SECNUM21": "002",
    "SSNUM21": "01",
    "SECSSNUM21": "00201",
    "OBJECTID_1": 130929,
    "DT": "13",
    "CC": "07",
    "fr": "39",
    "SEC": "002",
    "SS": "01"
  },
  "addresses": [
    {
      "id": "pt.ine.add.PTCONT.3657192",
      "street": "R S LOURENÇO",
      "house": "1160",
      "postcode": "4625-529",
      "city": "SÃO LOURENÇO DO DOURO",
      "lon": "-8.196367604725289",
      "lat": "41.10345384821007"
    },
    {
      "id": "pt.ine.add.PTCONT.3712640",
      "street": "R S LOURENÇO",
      "house": "1000",
      "postcode": "4625-529",
      "city": "SÃO LOURENÇO DO DOURO",
      "lon": "-8.195153090578009",
      "lat": "41.10315736100615"
    },
    {
      "id": "pt.ine.add.PTCONT.3742458",
      "street": "R S LOURENÇO",
      "house": "1220",
      "postcode": "4625-529",
      "city": "SÃO LOURENÇO DO DOURO",
      "lon": "-8.196772523462974",
      "lat": "41.10363371463892"
    },
    {
      "id": "pt.ine.add.PTCONT.3742624",
      "street": "R S LOURENÇO",
      "house": "1220",
      "postcode": "4625-529",
      "city": "SÃO LOURENÇO DO DOURO",
      "lon": "-8.196772523462974",
      "lat": "41.10363371463892"
    },
    {
      "id": "pt.ine.add.PTCONT.3818998",
      "street": "R S LOURENCO",
      "house": "1260",
      "postcode": "4625-529",
      "city": "SÃO LOURENÇO DO DOURO",
      "lon": "-8.197141696450451",
      "lat": "41.10377758162071"
    },
    {
      "id": "pt.ine.add.PTCONT.3818999",
      "street": "R S LOURENCO",
      "house": "1000",
      "postcode": "4625-529",
      "city": "SÃO LOURENÇO DO DOURO",
      "lon": "-8.197141696450451",
      "lat": "41.10377758162071"
    },
    {
      "id": "pt.ine.add.PTCONT.3923579",
      "street": "R CAMPO DE FUTEBOL",
      "house": "221",
      "postcode": "4625-525",
      "city": "SÃO LOURENÇO DO DOURO",
      "lon": "-8.196701419107088",
      "lat": "41.10396691938321"
    },
    {
      "id": "pt.ine.add.PTCONT.3992849",
      "street": "R CAMPO FUTEBOL",
      "house": "",
      "postcode": "4625-525",
      "city": "SÃO LOURENÇO DO DOURO",
      "lon": "-8.195130010723611",
      "lat": "41.10393175809317"
    },
    {
      "id": "pt.ine.add.PTCONT.4006730",
      "street": "R CAMPO DE FUTEBOL",
      "house": "165",
      "postcode": "4625-525",
      "city": "SÃO LOURENÇO DO DOURO",
      "lon": "-8.196332384193585",
      "lat": "41.10396712247531"
    },
    {
      "id": "pt.ine.add.PTCONT.4084430",
      "street": "R CAMPO DE FUTEBOL",
      "house": "127",
      "postcode": "4625-525",
      "city": "SÃO LOURENÇO DO DOURO",
      "lon": "-8.195844288615145",
      "lat": "41.10394938033064"
    },
    {
      "id": "pt.ine.add.PTCONT.4228214",
      "street": "R S LOURENÇO",
      "house": "998",
      "postcode": "4625-529",
      "city": "SÃO LOURENÇO DO DOURO",
      "lon": "-8.194474802283166",
      "lat": "41.103427858460314"
    },
    {
      "id": "pt.ine.add.PTCONT.4293815",
      "street": "R CAMPO DE FUTEBOL",
      "house": "135",
      "postcode": "4625-525",
      "city": "SÃO LOURENÇO DO DOURO",
      "lon": "-8.196094297150621",
      "lat": "41.1039672528752"
    },
    {
      "id": "pt.ine.add.PTCONT.4334679",
      "street": "R S LOURENÇO",
      "house": "1176",
      "postcode": "4625-529",
      "city": "SÃO LOURENÇO DO DOURO",
      "lon": "-8.196534333664298",
      "lat": "41.103525792332086"
    },
    {
      "id": "pt.ine.add.PTCONT.4360265",
      "street": "R CASAIS DE VILA",
      "house": "7",
      "postcode": "4625-525",
      "city": "SÃO LOURENÇO DO DOURO",
      "lon": "-8.193950973500112",
      "lat": "41.1033831138997"
    },
    {
      "id": "pt.ine.add.PTCONT.4379441",
      "street": "R CASAIS DE VILA",
      "house": "7",
      "postcode": "4625-525",
      "city": "SÃO LOURENÇO DO DOURO",
      "lon": "-8.193950973500112",
      "lat": "41.1033831138997"
    }
  ]
}