{
  "data": {
    "distrito": "Leiria",
    "concelho": "Pombal",
    "freguesia": "Redinha",
    "OBJECTID": 551,
    "BGRI2021": "10151000260",
    "DT21": "10",
    "DTMN21": "1015",
    "DTMNFR21": "101510",
    "DTMNFRSEC21": "101510002",
    "SECNUM21": "002",
    "SSNUM21": "60",
    "SECSSNUM21": "00260",
    "OBJECTID_1": 95895,
    "DT": "10",
    "CC": "15",
    "fr": "10",
    "SEC": "002",
    "SS": "60"
  },
  "addresses": [
    {
      "id": "pt.ine.add.PTCONT.1988012",
      "street": "R MONGATE",
      "house": "4",
      "postcode": "3105-311",
      "city": "REDINHA",
      "lon": "-8.589886730497955",
      "lat": "39.977397247774846"
    },
    {
      "id": "pt.ine.add.PTCONT.2088838",
      "street": "R ALMAS",
      "house": "1",
      "postcode": "3105-311",
      "city": "REDINHA",
      "lon": "-8.58966922698913",
      "lat": "39.978136611695945"
    },
    {
      "id": "pt.ine.add.PTCONT.2150112",
      "street": "R ALMAS",
      "house": "3",
      "postcode": "3105-311",
      "city": "REDINHA",
      "lon": "-8.589900595393884",
      "lat": "39.977721415740646"
    },
    {
      "id": "pt.ine.add.PTCONT.2158933",
      "street": "R MONGATE",
      "house": "2",
      "postcode": "3105-311",
      "city": "REDINHA",
      "lon": "-8.588870204415523",
      "lat": "39.977689446973834"
    },
    {
      "id": "pt.ine.add.PTCONT.2187199",
      "street": "R VALE",
      "house": "2",
      "postcode": "3105-311",
      "city": "REDINHA",
      "lon": "-8.589129597963003",
      "lat": "39.97796761845482"
    },
    {
      "id": "pt.ine.add.PTCONT.2203090",
      "street": "R PRINCIPAL",
      "house": "2",
      "postcode": "3105-311",
      "city": "REDINHA",
      "lon": "-8.589343366026789",
      "lat": "39.97842609257568"
    }
  ]
}