{
  "data": {
    "distrito": "Setúbal",
    "concelho": "Setúbal",
    "freguesia": "Setúbal (São Sebastião)",
    "OBJECTID": 695,
    "BGRI2021": "15120503109",
    "DT21": "15",
    "DTMN21": "1512",
    "DTMNFR21": "151205",
    "DTMNFRSEC21": "151205031",
    "SECNUM21": "031",
    "SSNUM21": "09",
    "SECSSNUM21": "03109",
    "OBJECTID_1": 170276,
    "DT": "15",
    "CC": "12",
    "fr": "05",
    "SEC": "031",
    "SS": "09"
  },
  "addresses": [
    {
      "id": "pt.ine.add.PTCONT.4721348",
      "street": "R ALMADA",
      "house": "4",
      "postcode": "2910-227",
      "city": "SETÚBAL",
      "lon": "-8.851073009899995",
      "lat": "38.5212629910338"
    },
    {
      "id": "pt.ine.add.PTCONT.4721349",
      "street": "R ALMADA",
      "house": "4",
      "postcode": "2910-227",
      "city": "SETÚBAL",
      "lon": "-8.851073009899995",
      "lat": "38.5212629910338"
    },
    {
      "id": "pt.ine.add.PTCONT.4721350",
      "street": "R ALMADA",
      "house": "4",
      "postcode": "2910-227",
      "city": "SETÚBAL",
      "lon": "-8.851073009899995",
      "lat": "38.5212629910338"
    },
    {
      "id": "pt.ine.add.PTCONT.4721351",
      "street": "R ALMADA",
      "house": "4",
      "postcode": "2910-227",
      "city": "SETÚBAL",
      "lon": "-8.851073009899995",
      "lat": "38.5212629910338"
    },
    {
      "id": "pt.ine.add.PTCONT.4721352",
      "street": "R ALMADA",
      "house": "4",
      "postcode": "2910-227",
      "city": "SETÚBAL",
      "lon": "-8.851073009899995",
      "lat": "38.5212629910338"
    },
    {
      "id": "pt.ine.add.PTCONT.4721355",
      "street": "R ALMADA",
      "house": "4",
      "postcode": "2910-227",
      "city": "SETÚBAL",
      "lon": "-8.851073009899995",
      "lat": "38.5212629910338"
    },
    {
      "id": "pt.ine.add.PTCONT.4768235",
      "street": "R SESIMBRA L",
      "house": "L11A",
      "postcode": "2910-272",
      "city": "SETÚBAL",
      "lon": "-8.850964702182226",
      "lat": "38.52190324661975"
    },
    {
      "id": "pt.ine.add.PTCONT.4768579",
      "street": "R SESIMBRA",
      "house": "",
      "postcode": "2910-272",
      "city": "SETÚBAL",
      "lon": "-8.850964702182226",
      "lat": "38.52190324661975"
    },
    {
      "id": "pt.ine.add.PTCONT.4768580",
      "street": "R SESIMBRA",
      "house": "",
      "postcode": "2910-272",
      "city": "SETÚBAL",
      "lon": "-8.850964702182226",
      "lat": "38.52190324661975"
    },
    {
      "id": "pt.ine.add.PTCONT.4768581",
      "street": "R SESIMBRA",
      "house": "",
      "postcode": "2910-272",
      "city": "SETÚBAL",
      "lon": "-8.850964702182226",
      "lat": "38.52190324661975"
    },
    {
      "id": "pt.ine.add.PTCONT.4775916",
      "street": "R ALMADA",
      "house": "16",
      "postcode": "2910-227",
      "city": "SETÚBAL",
      "lon": "-8.851067002660743",
      "lat": "38.521812536108115"
    },
    {
      "id": "pt.ine.add.PTCONT.4775917",
      "street": "R ALMADA",
      "house": "16",
      "postcode": "2910-227",
      "city": "SETÚBAL",
      "lon": "-8.851067002660743",
      "lat": "38.521812536108115"
    },
    {
      "id": "pt.ine.add.PTCONT.4775918",
      "street": "R ALMADA",
      "house": "16",
      "postcode": "2910-227",
      "city": "SETÚBAL",
      "lon": "-8.851067002660743",
      "lat": "38.521812536108115"
    },
    {
      "id": "pt.ine.add.PTCONT.4775919",
      "street": "R ALMADA",
      "house": "16",
      "postcode": "2910-227",
      "city": "SETÚBAL",
      "lon": "-8.851067002660743",
      "lat": "38.521812536108115"
    },
    {
      "id": "pt.ine.add.PTCONT.4775920",
      "street": "R ALMADA",
      "house": "16",
      "postcode": "2910-227",
      "city": "SETÚBAL",
      "lon": "-8.851067002660743",
      "lat": "38.521812536108115"
    },
    {
      "id": "pt.ine.add.PTCONT.4775921",
      "street": "R ALMADA",
      "house": "16",
      "postcode": "2910-227",
      "city": "SETÚBAL",
      "lon": "-8.851067002660743",
      "lat": "38.521812536108115"
    },
    {
      "id": "pt.ine.add.PTCONT.4876971",
      "street": "AV PROF ORLANDO RIBEIRO",
      "house": "3",
      "postcode": "2910-248",
      "city": "SETÚBAL",
      "lon": "-8.850293407686364",
      "lat": "38.521276776822425"
    },
    {
      "id": "pt.ine.add.PTCONT.4876972",
      "street": "AV PROF ORLANDO RIBEIRO",
      "house": "3",
      "postcode": "2910-248",
      "city": "SETÚBAL",
      "lon": "-8.850293407686364",
      "lat": "38.521276776822425"
    },
    {
      "id": "pt.ine.add.PTCONT.4876973",
      "street": "AV PROF ORLANDO RIBEIRO",
      "house": "3",
      "postcode": "2910-248",
      "city": "SETÚBAL",
      "lon": "-8.850293407686364",
      "lat": "38.521276776822425"
    },
    {
      "id": "pt.ine.add.PTCONT.4876974",
      "street": "AV PROF ORLANDO RIBEIRO",
      "house": "3",
      "postcode": "2910-248",
      "city": "SETÚBAL",
      "lon": "-8.850293407686364",
      "lat": "38.521276776822425"
    },
    {
      "id": "pt.ine.add.PTCONT.4878101",
      "street": "AV PROF ORLANDO RIBEIRO",
      "house": "3",
      "postcode": "2910-248",
      "city": "SETÚBAL",
      "lon": "-8.850293407686364",
      "lat": "38.521276776822425"
    },
    {
      "id": "pt.ine.add.PTCONT.4878514",
      "street": "AV PROF ORLANDO RIBEIRO",
      "house": "3",
      "postcode": "2910-248",
      "city": "SETÚBAL",
      "lon": "-8.850293407686364",
      "lat": "38.521276776822425"
    },
    {
      "id": "pt.ine.add.PTCONT.4899111",
      "street": "R 16 DE NOVEMBRO",
      "house": "L2",
      "postcode": "2910-236",
      "city": "SETÚBAL",
      "lon": "-8.850810990373814",
      "lat": "38.52143575559899"
    },
    {
      "id": "pt.ine.add.PTCONT.4899112",
      "street": "R 16 DE NOVEMBRO",
      "house": "L2",
      "postcode": "2910-236",
      "city": "SETÚBAL",
      "lon": "-8.850810990373814",
      "lat": "38.52143575559899"
    },
    {
      "id": "pt.ine.add.PTCONT.4899113",
      "street": "R 16 DE NOVEMBRO",
      "house": "L2",
      "postcode": "2910-236",
      "city": "SETÚBAL",
      "lon": "-8.850810990373814",
      "lat": "38.52143575559899"
    },
    {
      "id": "pt.ine.add.PTCONT.4899114",
      "street": "R 16 DE NOVEMBRO",
      "house": "L2",
      "postcode": "2910-236",
      "city": "SETÚBAL",
      "lon": "-8.850810990373814",
      "lat": "38.52143575559899"
    },
    {
      "id": "pt.ine.add.PTCONT.4899138",
      "street": "R 16 DE NOVEMBRO",
      "house": "L2",
      "postcode": "2910-236",
      "city": "SETÚBAL",
      "lon": "-8.850810990373814",
      "lat": "38.52143575559899"
    },
    {
      "id": "pt.ine.add.PTCONT.4899285",
      "street": "R 16 DE NOVEMBRO",
      "house": "L2",
      "postcode": "2910-236",
      "city": "SETÚBAL",
      "lon": "-8.850810990373814",
      "lat": "38.52143575559899"
    },
    {
      "id": "pt.ine.add.PTCONT.4920294",
      "street": "AV PROF ORLANDO RIBEIRO",
      "house": "9",
      "postcode": "2910-248",
      "city": "SETÚBAL",
      "lon": "-8.851065123380655",
      "lat": "38.52162337266793"
    },
    {
      "id": "pt.ine.add.PTCONT.4920615",
      "street": "R ALMADA",
      "house": "14",
      "postcode": "2910-227",
      "city": "SETÚBAL",
      "lon": "-8.851065123380655",
      "lat": "38.52162337266793"
    },
    {
      "id": "pt.ine.add.PTCONT.4920616",
      "street": "R ALMADA",
      "house": "14",
      "postcode": "2910-227",
      "city": "SETÚBAL",
      "lon": "-8.851065123380655",
      "lat": "38.52162337266793"
    },
    {
      "id": "pt.ine.add.PTCONT.4920617",
      "street": "R ALMADA",
      "house": "14",
      "postcode": "2910-227",
      "city": "SETÚBAL",
      "lon": "-8.851065123380655",
      "lat": "38.52162337266793"
    },
    {
      "id": "pt.ine.add.PTCONT.4920618",
      "street": "R ALMADA",
      "house": "14",
      "postcode": "2910-227",
      "city": "SETÚBAL",
      "lon": "-8.851065123380655",
      "lat": "38.52162337266793"
    },
    {
      "id": "pt.ine.add.PTCONT.4920621",
      "street": "R ALMADA",
      "house": "14",
      "postcode": "2910-227",
      "city": "SETÚBAL",
      "lon": "-8.851065123380655",
      "lat": "38.52162337266793"
    },
    {
      "id": "pt.ine.add.PTCONT.5026832",
      "street": "AV PROF ORLANDO RIBEIRO",
      "house": "11",
      "postcode": "2910-248",
      "city": "SETÚBAL",
      "lon": "-8.850757237994198",
      "lat": "38.52179641831807"
    },
    {
      "id": "pt.ine.add.PTCONT.5026833",
      "street": "AV PROF ORLANDO RIBEIRO",
      "house": "11",
      "postcode": "2910-248",
      "city": "SETÚBAL",
      "lon": "-8.850757237994198",
      "lat": "38.52179641831807"
    },
    {
      "id": "pt.ine.add.PTCONT.5026834",
      "street": "AV PROF ORLANDO RIBEIRO",
      "house": "11",
      "postcode": "2910-248",
      "city": "SETÚBAL",
      "lon": "-8.850757237994198",
      "lat": "38.52179641831807"
    },
    {
      "id": "pt.ine.add.PTCONT.5026835",
      "street": "AV PROF ORLANDO RIBEIRO",
      "house": "11",
      "postcode": "2910-248",
      "city": "SETÚBAL",
      "lon": "-8.850757237994198",
      "lat": "38.52179641831807"
    },
    {
      "id": "pt.ine.add.PTCONT.5026836",
      "street": "AV PROF ORLANDO RIBEIRO",
      "house": "11",
      "postcode": "2910-248",
      "city": "SETÚBAL",
      "lon": "-8.850757237994198",
      "lat": "38.52179641831807"
    },
    {
      "id": "pt.ine.add.PTCONT.5026837",
      "street": "AV PROF ORLANDO RIBEIRO",
      "house": "11",
      "postcode": "2910-248",
      "city": "SETÚBAL",
      "lon": "-8.850757237994198",
      "lat": "38.52179641831807"
    },
    {
      "id": "pt.ine.add.PTCONT.5055345",
      "street": "AV PROF ORLANDO RIBEIRO",
      "house": "9",
      "postcode": "2910-248",
      "city": "SETÚBAL",
      "lon": "-8.850641324507281",
      "lat": "38.52167101201867"
    },
    {
      "id": "pt.ine.add.PTCONT.5055346",
      "street": "AV PROF ORLANDO RIBEIRO",
      "house": "9",
      "postcode": "2910-248",
      "city": "SETÚBAL",
      "lon": "-8.850641324507281",
      "lat": "38.52167101201867"
    },
    {
      "id": "pt.ine.add.PTCONT.5055347",
      "street": "AV PROF ORLANDO RIBEIRO",
      "house": "9",
      "postcode": "2910-248",
      "city": "SETÚBAL",
      "lon": "-8.850641324507281",
      "lat": "38.52167101201867"
    },
    {
      "id": "pt.ine.add.PTCONT.5055348",
      "street": "AV PROF ORLANDO RIBEIRO",
      "house": "9",
      "postcode": "2910-248",
      "city": "SETÚBAL",
      "lon": "-8.850641324507281",
      "lat": "38.52167101201867"
    },
    {
      "id": "pt.ine.add.PTCONT.5055349",
      "street": "AV PROF ORLANDO RIBEIRO",
      "house": "9",
      "postcode": "2910-248",
      "city": "SETÚBAL",
      "lon": "-8.850641324507281",
      "lat": "38.52167101201867"
    },
    {
      "id": "pt.ine.add.PTCONT.5055482",
      "street": "AV PROF ORLANDO RIBEIRO",
      "house": "9",
      "postcode": "2910-248",
      "city": "SETÚBAL",
      "lon": "-8.850641324507281",
      "lat": "38.52167101201867"
    },
    {
      "id": "pt.ine.add.PTCONT.5057456",
      "street": "AV PROF ORLANDO RIBEIRO",
      "house": "5",
      "postcode": "2910-248",
      "city": "SETÚBAL",
      "lon": "-8.85042087541532",
      "lat": "38.52141112103255"
    },
    {
      "id": "pt.ine.add.PTCONT.5057457",
      "street": "AV PROF ORLANDO RIBEIRO",
      "house": "5",
      "postcode": "2910-248",
      "city": "SETÚBAL",
      "lon": "-8.85042087541532",
      "lat": "38.52141112103255"
    },
    {
      "id": "pt.ine.add.PTCONT.5057458",
      "street": "AV PROF ORLANDO RIBEIRO",
      "house": "5",
      "postcode": "2910-248",
      "city": "SETÚBAL",
      "lon": "-8.85042087541532",
      "lat": "38.52141112103255"
    },
    {
      "id": "pt.ine.add.PTCONT.5057459",
      "street": "AV PROF ORLANDO RIBEIRO",
      "house": "5",
      "postcode": "2910-248",
      "city": "SETÚBAL",
      "lon": "-8.85042087541532",
      "lat": "38.52141112103255"
    },
    {
      "id": "pt.ine.add.PTCONT.5057460",
      "street": "AV PROF ORLANDO RIBEIRO",
      "house": "5",
      "postcode": "2910-248",
      "city": "SETÚBAL",
      "lon": "-8.85042087541532",
      "lat": "38.52141112103255"
    },
    {
      "id": "pt.ine.add.PTCONT.5058829",
      "street": "AV PROF ORLANDO RIBEIRO",
      "house": "5",
      "postcode": "2910-248",
      "city": "SETÚBAL",
      "lon": "-8.85042087541532",
      "lat": "38.52141112103255"
    },
    {
      "id": "pt.ine.add.PTCONT.5063085",
      "street": "R ALMADA",
      "house": "10",
      "postcode": "2910-227",
      "city": "SETÚBAL",
      "lon": "-8.85107479968675",
      "lat": "38.521443146702055"
    },
    {
      "id": "pt.ine.add.PTCONT.5063086",
      "street": "R ALMADA",
      "house": "10",
      "postcode": "2910-227",
      "city": "SETÚBAL",
      "lon": "-8.85107479968675",
      "lat": "38.521443146702055"
    },
    {
      "id": "pt.ine.add.PTCONT.5063087",
      "street": "R ALMADA",
      "house": "10",
      "postcode": "2910-227",
      "city": "SETÚBAL",
      "lon": "-8.85107479968675",
      "lat": "38.521443146702055"
    },
    {
      "id": "pt.ine.add.PTCONT.5063088",
      "street": "R ALMADA",
      "house": "10",
      "postcode": "2910-227",
      "city": "SETÚBAL",
      "lon": "-8.85107479968675",
      "lat": "38.521443146702055"
    },
    {
      "id": "pt.ine.add.PTCONT.5063089",
      "street": "R ALMADA",
      "house": "10",
      "postcode": "2910-227",
      "city": "SETÚBAL",
      "lon": "-8.85107479968675",
      "lat": "38.521443146702055"
    },
    {
      "id": "pt.ine.add.PTCONT.5063090",
      "street": "R ALMADA",
      "house": "10",
      "postcode": "2910-227",
      "city": "SETÚBAL",
      "lon": "-8.85107479968675",
      "lat": "38.521443146702055"
    },
    {
      "id": "pt.ine.add.PTCONT.5106800",
      "street": "R 16 DE NOVEMBRO",
      "house": "L1",
      "postcode": "2910-236",
      "city": "SETÚBAL",
      "lon": "-8.850820935668839",
      "lat": "38.52128255299458"
    },
    {
      "id": "pt.ine.add.PTCONT.5106801",
      "street": "R 16 DE NOVEMBRO",
      "house": "L1",
      "postcode": "2910-236",
      "city": "SETÚBAL",
      "lon": "-8.850820935668839",
      "lat": "38.52128255299458"
    },
    {
      "id": "pt.ine.add.PTCONT.5106802",
      "street": "R 16 DE NOVEMBRO",
      "house": "L1",
      "postcode": "2910-236",
      "city": "SETÚBAL",
      "lon": "-8.850820935668839",
      "lat": "38.52128255299458"
    },
    {
      "id": "pt.ine.add.PTCONT.5106803",
      "street": "R 16 DE NOVEMBRO",
      "house": "L1",
      "postcode": "2910-236",
      "city": "SETÚBAL",
      "lon": "-8.850820935668839",
      "lat": "38.52128255299458"
    },
    {
      "id": "pt.ine.add.PTCONT.5108463",
      "street": "R 16 DE NOVEMBRO",
      "house": "L1",
      "postcode": "2910-236",
      "city": "SETÚBAL",
      "lon": "-8.850820935668839",
      "lat": "38.52128255299458"
    },
    {
      "id": "pt.ine.add.PTCONT.5108577",
      "street": "R 16 DE NOVEMBRO",
      "house": "L1",
      "postcode": "2910-236",
      "city": "SETÚBAL",
      "lon": "-8.850820935668839",
      "lat": "38.52128255299458"
    },
    {
      "id": "pt.ine.add.PTCONT.5112106",
      "street": "AV PROF ORLANDO RIBEIRO",
      "house": "7",
      "postcode": "2910-248",
      "city": "SETÚBAL",
      "lon": "-8.850536877522144",
      "lat": "38.52154553534766"
    },
    {
      "id": "pt.ine.add.PTCONT.5112107",
      "street": "AV PROF ORLANDO RIBEIRO",
      "house": "7",
      "postcode": "2910-248",
      "city": "SETÚBAL",
      "lon": "-8.850536877522144",
      "lat": "38.52154553534766"
    },
    {
      "id": "pt.ine.add.PTCONT.5112108",
      "street": "AV PROF ORLANDO RIBEIRO",
      "house": "7",
      "postcode": "2910-248",
      "city": "SETÚBAL",
      "lon": "-8.850536877522144",
      "lat": "38.52154553534766"
    },
    {
      "id": "pt.ine.add.PTCONT.5112109",
      "street": "AV PROF ORLANDO RIBEIRO",
      "house": "7",
      "postcode": "2910-248",
      "city": "SETÚBAL",
      "lon": "-8.850536877522144",
      "lat": "38.52154553534766"
    },
    {
      "id": "pt.ine.add.PTCONT.5112110",
      "street": "AV PROF ORLANDO RIBEIRO",
      "house": "7",
      "postcode": "2910-248",
      "city": "SETÚBAL",
      "lon": "-8.850536877522144",
      "lat": "38.52154553534766"
    },
    {
      "id": "pt.ine.add.PTCONT.5112111",
      "street": "AV PROF ORLANDO RIBEIRO",
      "house": "7",
      "postcode": "2910-248",
      "city": "SETÚBAL",
      "lon": "-8.850536877522144",
      "lat": "38.52154553534766"
    }
  ]
}