{
  "data": {
    "distrito": "Bragança",
    "concelho": "Mogadouro",
    "freguesia": "Saldanha",
    "OBJECTID": 376,
    "BGRI2021": "04081500122",
    "DT21": "04",
    "DTMN21": "0408",
    "DTMNFR21": "040815",
    "DTMNFRSEC21": "040815001",
    "SECNUM21": "001",
    "SSNUM21": "22",
    "SECSSNUM21": "00122",
    "OBJECTID_1": 37772,
    "DT": "04",
    "CC": "08",
    "fr": "15",
    "SEC": "001",
    "SS": "22"
  },
  "addresses": [
    {
      "id": "pt.ine.add.PTCONT.865261",
      "street": "R CAPELA",
      "house": "77",
      "postcode": "5200-383",
      "city": "SALDANHA",
      "lon": "-6.551102316403552",
      "lat": "41.41901433001912"
    },
    {
      "id": "pt.ine.add.PTCONT.869178",
      "street": "R PRINCIPAL",
      "house": "92A",
      "postcode": "5200-383",
      "city": "SALDANHA",
      "lon": "-6.553390754135642",
      "lat": "41.418361511402395"
    },
    {
      "id": "pt.ine.add.PTCONT.878529",
      "street": "R PRINCIPAL",
      "house": "87",
      "postcode": "5200-383",
      "city": "SALDANHA",
      "lon": "-6.551862385636119",
      "lat": "41.4187456711049"
    },
    {
      "id": "pt.ine.add.PTCONT.903024",
      "street": "R STO ANTÓNIO A BIQUEIRA",
      "house": "93",
      "postcode": "5200-383",
      "city": "SALDANHA",
      "lon": "-6.553715338867321",
      "lat": "41.41829394021891"
    },
    {
      "id": "pt.ine.add.PTCONT.905070",
      "street": "R PRINCIPAL",
      "house": "92",
      "postcode": "5200-383",
      "city": "SALDANHA",
      "lon": "-6.553223355701758",
      "lat": "41.418359212334444"
    },
    {
      "id": "pt.ine.add.PTCONT.917828",
      "street": "R CAPELA",
      "house": "78",
      "postcode": "5200-383",
      "city": "SALDANHA",
      "lon": "-6.551139717077797",
      "lat": "41.418951819588976"
    },
    {
      "id": "pt.ine.add.PTCONT.920982",
      "street": "R FUNDO DAS EIRAS",
      "house": "6",
      "postcode": "5200-383",
      "city": "SALDANHA",
      "lon": "-6.555628511687193",
      "lat": "41.417329802931164"
    },
    {
      "id": "pt.ine.add.PTCONT.927103",
      "street": "R PRINCIPAL",
      "house": "91",
      "postcode": "5200-383",
      "city": "SALDANHA",
      "lon": "-6.553030734031329",
      "lat": "41.4184105878214"
    },
    {
      "id": "pt.ine.add.PTCONT.946544",
      "street": "R PRINCIPAL",
      "house": "88",
      "postcode": "5200-383",
      "city": "SALDANHA",
      "lon": "-6.552043052080267",
      "lat": "41.418694133260594"
    }
  ]
}