{
  "data": {
    "distrito": "Leiria",
    "concelho": "Pombal",
    "freguesia": "Pombal",
    "OBJECTID": 2516,
    "BGRI2021": "10150901442",
    "DT21": "10",
    "DTMN21": "1015",
    "DTMNFR21": "101509",
    "DTMNFRSEC21": "101509014",
    "SECNUM21": "014",
    "SSNUM21": "42",
    "SECSSNUM21": "01442",
    "OBJECTID_1": 95694,
    "DT": "10",
    "CC": "15",
    "fr": "09",
    "SEC": "014",
    "SS": "42"
  },
  "addresses": [
    {
      "id": "pt.ine.add.PTCONT.2001390",
      "street": "R LOUREIRO",
      "house": "4",
      "postcode": "3100-907",
      "city": "POMBAL",
      "lon": "-8.639727373694443",
      "lat": "39.88776715565693"
    },
    {
      "id": "pt.ine.add.PTCONT.2001391",
      "street": "R FONTE",
      "house": "5",
      "postcode": "3100-907",
      "city": "POMBAL",
      "lon": "-8.639387477282444",
      "lat": "39.88765155787339"
    },
    {
      "id": "pt.ine.add.PTCONT.2014383",
      "street": "R RELVEIRO",
      "house": "1",
      "postcode": "3100-907",
      "city": "POMBAL",
      "lon": "-8.6392262558149",
      "lat": "39.887985495039075"
    },
    {
      "id": "pt.ine.add.PTCONT.2152248",
      "street": "R FONTE",
      "house": "1",
      "postcode": "3100-907",
      "city": "POMBAL",
      "lon": "-8.639842956208474",
      "lat": "39.887586524490935"
    },
    {
      "id": "pt.ine.add.PTCONT.2158896",
      "street": "R PRINCIPAL",
      "house": "55",
      "postcode": "3100-907",
      "city": "POMBAL",
      "lon": "-8.640135293469275",
      "lat": "39.887594253139255"
    },
    {
      "id": "pt.ine.add.PTCONT.2200854",
      "street": "R RELVEIRO",
      "house": "",
      "postcode": "3100-907",
      "city": "POMBAL",
      "lon": "-8.638605380975319",
      "lat": "39.887817082935555"
    },
    {
      "id": "pt.ine.add.PTCONT.2237821",
      "street": "R PRINCIPAL",
      "house": "57",
      "postcode": "3100-907",
      "city": "POMBAL",
      "lon": "-8.640193150474904",
      "lat": "39.88751294338998"
    },
    {
      "id": "pt.ine.add.PTCONT.2250768",
      "street": "R RELVEIRO",
      "house": "3",
      "postcode": "3100-907",
      "city": "POMBAL",
      "lon": "-8.638911726525999",
      "lat": "39.88813997447584"
    },
    {
      "id": "pt.ine.add.PTCONT.2253455",
      "street": "R MONTE",
      "house": "4",
      "postcode": "3100-907",
      "city": "POMBAL",
      "lon": "-8.638524404593307",
      "lat": "39.88793451788914"
    },
    {
      "id": "pt.ine.add.PTCONT.2260387",
      "street": "R PRINCIPAL",
      "house": "53",
      "postcode": "3100-907",
      "city": "POMBAL",
      "lon": "-8.639926052124467",
      "lat": "39.887757281297866"
    },
    {
      "id": "pt.ine.add.PTCONT.2260388",
      "street": "R FONTE",
      "house": "7",
      "postcode": "3100-907",
      "city": "POMBAL",
      "lon": "-8.639118322898804",
      "lat": "39.88761670726284"
    }
  ]
}