{
  "data": {
    "distrito": "Leiria",
    "concelho": "Pombal",
    "freguesia": "Pombal",
    "OBJECTID": 2078,
    "BGRI2021": "10150901448",
    "DT21": "10",
    "DTMN21": "1015",
    "DTMNFR21": "101509",
    "DTMNFRSEC21": "101509014",
    "SECNUM21": "014",
    "SSNUM21": "48",
    "SECSSNUM21": "01448",
    "OBJECTID_1": 97228,
    "DT": "10",
    "CC": "15",
    "fr": "09",
    "SEC": "014",
    "SS": "48"
  },
  "addresses": [
    {
      "id": "pt.ine.add.PTCONT.2070460",
      "street": "R CATELA",
      "house": "6",
      "postcode": "3100-349",
      "city": "POMBAL",
      "lon": "-8.631415335889887",
      "lat": "39.88944231556236"
    },
    {
      "id": "pt.ine.add.PTCONT.2134775",
      "street": "R ARRABALDE",
      "house": "1",
      "postcode": "3100-320",
      "city": "POMBAL",
      "lon": "-8.632370029879429",
      "lat": "39.89050095413322"
    },
    {
      "id": "pt.ine.add.PTCONT.2150108",
      "street": "R CATELA",
      "house": "20",
      "postcode": "3100-349",
      "city": "POMBAL",
      "lon": "-8.630477154484083",
      "lat": "39.88742892892726"
    },
    {
      "id": "pt.ine.add.PTCONT.2182823",
      "street": "R CATELA",
      "house": "8",
      "postcode": "3100-349",
      "city": "POMBAL",
      "lon": "-8.631215152014109",
      "lat": "39.889245036679085"
    },
    {
      "id": "pt.ine.add.PTCONT.2182824",
      "street": "R PINHAL",
      "house": "6",
      "postcode": "3100-349",
      "city": "POMBAL",
      "lon": "-8.631417786541396",
      "lat": "39.88655127878129"
    },
    {
      "id": "pt.ine.add.PTCONT.2191738",
      "street": "R CATELA",
      "house": "10",
      "postcode": "3100-349",
      "city": "POMBAL",
      "lon": "-8.631015490537898",
      "lat": "39.88911980568451"
    },
    {
      "id": "pt.ine.add.PTCONT.2250715",
      "street": "R FARIA DA GAMA",
      "house": "1",
      "postcode": "3100-320",
      "city": "POMBAL",
      "lon": "-8.632263566637574",
      "lat": "39.89033029253778"
    },
    {
      "id": "pt.ine.add.PTCONT.2250716",
      "street": "R CATELA",
      "house": "16",
      "postcode": "3100-349",
      "city": "POMBAL",
      "lon": "-8.63080309664461",
      "lat": "39.888850528005406"
    }
  ]
}