{
  "data": {
    "distrito": "Aveiro",
    "concelho": "Vale de Cambra",
    "freguesia": "União das freguesias de Vila Chã, Codal e Vila Cova de Perrinho",
    "OBJECTID": 92,
    "BGRI2021": "01191000515",
    "DT21": "01",
    "DTMN21": "0119",
    "DTMNFR21": "011910",
    "DTMNFRSEC21": "011910005",
    "SECNUM21": "005",
    "SSNUM21": "15",
    "SECSSNUM21": "00515",
    "OBJECTID_1": 12231,
    "DT": "01",
    "CC": "19",
    "fr": "10",
    "SEC": "005",
    "SS": "15"
  },
  "addresses": [
    {
      "id": "pt.ine.add.PTCONT.297377",
      "street": "TV CARVALHAL DO CHÃO",
      "house": "27",
      "postcode": "3730-611",
      "city": "VILA COVA DE PERRINHO",
      "lon": "-8.388568998158275",
      "lat": "40.88979632210316"
    },
    {
      "id": "pt.ine.add.PTCONT.323048",
      "street": "R ROSSIO PENA",
      "house": "225",
      "postcode": "3730-605",
      "city": "VILA COVA DE PERRINHO",
      "lon": "-8.38584145709898",
      "lat": "40.88710089176897"
    },
    {
      "id": "pt.ine.add.PTCONT.339785",
      "street": "TV CARVALHAL DO CHÃO",
      "house": "49",
      "postcode": "3730-611",
      "city": "VILA COVA DE PERRINHO",
      "lon": "-8.387703210812084",
      "lat": "40.88990629405174"
    },
    {
      "id": "pt.ine.add.PTCONT.348964",
      "street": "AV SOUTO CUBADA",
      "house": "",
      "postcode": "3730-613",
      "city": "VILA COVA DE PERRINHO",
      "lon": "-8.387285737139232",
      "lat": "40.88933991269061"
    },
    {
      "id": "pt.ine.add.PTCONT.26135",
      "street": "AV SOUTO CUBADA",
      "house": "75",
      "postcode": "3730-613",
      "city": "VILA COVA DE PERRINHO",
      "lon": "-8.386688739794131",
      "lat": "40.888368708705485"
    },
    {
      "id": "pt.ine.add.PTCONT.31552",
      "street": "R ROSSIO PENA",
      "house": "95",
      "postcode": "3730-605",
      "city": "VILA COVA DE PERRINHO",
      "lon": "-8.384458030093715",
      "lat": "40.88523992096391"
    },
    {
      "id": "pt.ine.add.PTCONT.58596",
      "street": "R ROSSIO PENA",
      "house": "",
      "postcode": "3730-605",
      "city": "VILA COVA DE PERRINHO",
      "lon": "-8.384413976618173",
      "lat": "40.8861404971956"
    },
    {
      "id": "pt.ine.add.PTCONT.63757",
      "street": "AV SOUTO CUBADA",
      "house": "",
      "postcode": "3730-613",
      "city": "VILA COVA DE PERRINHO",
      "lon": "-8.385937955988881",
      "lat": "40.88751490106181"
    },
    {
      "id": "pt.ine.add.PTCONT.212784",
      "street": "R COLAXAO",
      "house": "",
      "postcode": "3730-612",
      "city": "VILA COVA DE PERRINHO",
      "lon": "-8.387030051729848",
      "lat": "40.887638569112504"
    },
    {
      "id": "pt.ine.add.PTCONT.262083",
      "street": "AV SOUTO CUBADA",
      "house": "",
      "postcode": "3730-613",
      "city": "VILA COVA DE PERRINHO",
      "lon": "-8.387285737139232",
      "lat": "40.88933991269061"
    },
    {
      "id": "pt.ine.add.PTCONT.262084",
      "street": "AV SOUTO CUBADA",
      "house": "",
      "postcode": "3730-613",
      "city": "VILA COVA DE PERRINHO",
      "lon": "-8.387285737139232",
      "lat": "40.88933991269061"
    },
    {
      "id": "pt.ine.add.PTCONT.262218",
      "street": "AV SOUTO CUBADA",
      "house": "223",
      "postcode": "3730-613",
      "city": "VILA COVA DE PERRINHO",
      "lon": "-8.387285737139232",
      "lat": "40.88933991269061"
    }
  ]
}