{
  "data": {
    "distrito": "Coimbra",
    "concelho": "Montemor-O-Velho",
    "freguesia": "Pereira",
    "OBJECTID": 484,
    "BGRI2021": "06100800114",
    "DT21": "06",
    "DTMN21": "0610",
    "DTMNFR21": "061008",
    "DTMNFRSEC21": "061008001",
    "SECNUM21": "001",
    "SSNUM21": "14",
    "SECSSNUM21": "00114",
    "OBJECTID_1": 54375,
    "DT": "06",
    "CC": "10",
    "fr": "08",
    "SEC": "001",
    "SS": "14"
  },
  "addresses": [
    {
      "id": "pt.ine.add.PTCONT.1123602",
      "street": "URB QUINTA DA TEODORA",
      "house": "19",
      "postcode": "3140-331",
      "city": "PEREIRA MMV",
      "lon": "-8.58046604416699",
      "lat": "40.17672845454931"
    },
    {
      "id": "pt.ine.add.PTCONT.1128014",
      "street": "URB QUINTA DA TEODORA",
      "house": "",
      "postcode": "3140-331",
      "city": "PEREIRA MMV",
      "lon": "-8.580923683306402",
      "lat": "40.17669066184162"
    },
    {
      "id": "pt.ine.add.PTCONT.1156394",
      "street": "R DR MÁRIO SOARES",
      "house": "17",
      "postcode": "3140-331",
      "city": "PEREIRA MMV",
      "lon": "-8.57989105940083",
      "lat": "40.1767757042202"
    },
    {
      "id": "pt.ine.add.PTCONT.1188718",
      "street": "URB QUINTA TEODORA",
      "house": "28",
      "postcode": "3140-331",
      "city": "PEREIRA MMV",
      "lon": "-8.581113128834861",
      "lat": "40.17693308759535"
    },
    {
      "id": "pt.ine.add.PTCONT.1210413",
      "street": "URB QUINTA DA TEODORA",
      "house": "",
      "postcode": "3140-331",
      "city": "PEREIRA MMV",
      "lon": "-8.581146750940583",
      "lat": "40.176689798822196"
    },
    {
      "id": "pt.ine.add.PTCONT.1218723",
      "street": "URB QUINTA DA TEODORA",
      "house": "",
      "postcode": "3140-331",
      "city": "PEREIRA MMV",
      "lon": "-8.58050309890058",
      "lat": "40.177007493539065"
    },
    {
      "id": "pt.ine.add.PTCONT.1222931",
      "street": "URB QUINTA DA TEODORA",
      "house": "20",
      "postcode": "3140-331",
      "city": "PEREIRA MMV",
      "lon": "-8.580677253193691",
      "lat": "40.17670962650129"
    },
    {
      "id": "pt.ine.add.PTCONT.1245475",
      "street": "URB QUINTA D TEODORA",
      "house": "",
      "postcode": "3140-331",
      "city": "PEREIRA MMV",
      "lon": "-8.58088923165094",
      "lat": "40.1768078714889"
    },
    {
      "id": "pt.ine.add.PTCONT.1301780",
      "street": "R DR MÁRIO SOARES",
      "house": "19",
      "postcode": "3140-331",
      "city": "PEREIRA MMV",
      "lon": "-8.57992728483305",
      "lat": "40.17692866432503"
    },
    {
      "id": "pt.ine.add.PTCONT.1322121",
      "street": "R DR MÁRIO SOARES",
      "house": "21",
      "postcode": "3140-331",
      "city": "PEREIRA MMV",
      "lon": "-8.579951710887013",
      "lat": "40.17707266407843"
    }
  ]
}