{
  "data": {
    "distrito": "Leiria",
    "concelho": "Pombal",
    "freguesia": "Pombal",
    "OBJECTID": 3,
    "BGRI2021": "10150901003",
    "DT21": "10",
    "DTMN21": "1015",
    "DTMNFR21": "101509",
    "DTMNFRSEC21": "101509010",
    "SECNUM21": "010",
    "SSNUM21": "03",
    "SECSSNUM21": "01003",
    "OBJECTID_1": 97292,
    "DT": "10",
    "CC": "15",
    "fr": "09",
    "SEC": "010",
    "SS": "03"
  },
  "addresses": [
    {
      "id": "pt.ine.add.PTCONT.2022512",
      "street": "R COMEND ARMINDO DA FONSECA",
      "house": "10",
      "postcode": "3100-436",
      "city": "POMBAL",
      "lon": "-8.632234351185181",
      "lat": "39.91208961898037"
    },
    {
      "id": "pt.ine.add.PTCONT.2022513",
      "street": "R COMEND ARMINDO DA FONSECA",
      "house": "10",
      "postcode": "3100-436",
      "city": "POMBAL",
      "lon": "-8.632234351185181",
      "lat": "39.91208961898037"
    },
    {
      "id": "pt.ine.add.PTCONT.2022596",
      "street": "R COMEND ARMINDO DA FONSECA",
      "house": "10",
      "postcode": "3100-436",
      "city": "POMBAL",
      "lon": "-8.632234351185181",
      "lat": "39.91208961898037"
    },
    {
      "id": "pt.ine.add.PTCONT.2022597",
      "street": "R COMEND ARMINDO DA FONSECA",
      "house": "10",
      "postcode": "3100-436",
      "city": "POMBAL",
      "lon": "-8.632234351185181",
      "lat": "39.91208961898037"
    },
    {
      "id": "pt.ine.add.PTCONT.2040688",
      "street": "R LEIRIA",
      "house": "68",
      "postcode": "3100-437",
      "city": "POMBAL",
      "lon": "-8.631625296306089",
      "lat": "39.91196615107874"
    },
    {
      "id": "pt.ine.add.PTCONT.2040689",
      "street": "R SPORTING DE POMBAL",
      "house": "1",
      "postcode": "3100-434",
      "city": "POMBAL",
      "lon": "-8.631508999088892",
      "lat": "39.91205671373783"
    },
    {
      "id": "pt.ine.add.PTCONT.2077674",
      "street": "R COMEND ARMINDO FONSECA",
      "house": "6",
      "postcode": "3100-436",
      "city": "POMBAL",
      "lon": "-8.63197621148713",
      "lat": "39.911973648226216"
    },
    {
      "id": "pt.ine.add.PTCONT.2077675",
      "street": "R COMEND ARMINDO FONSECA",
      "house": "6",
      "postcode": "3100-436",
      "city": "POMBAL",
      "lon": "-8.63197621148713",
      "lat": "39.911973648226216"
    },
    {
      "id": "pt.ine.add.PTCONT.2077676",
      "street": "R COMEND ARMINDO FONSECA",
      "house": "296",
      "postcode": "3100-436",
      "city": "POMBAL",
      "lon": "-8.63197621148713",
      "lat": "39.911973648226216"
    },
    {
      "id": "pt.ine.add.PTCONT.2077677",
      "street": "R COMEND ARMINDO FONSECA",
      "house": "6",
      "postcode": "3100-436",
      "city": "POMBAL",
      "lon": "-8.63197621148713",
      "lat": "39.911973648226216"
    },
    {
      "id": "pt.ine.add.PTCONT.2077678",
      "street": "R COMEND ARMINDO FONSECA",
      "house": "6",
      "postcode": "3100-436",
      "city": "POMBAL",
      "lon": "-8.63197621148713",
      "lat": "39.911973648226216"
    },
    {
      "id": "pt.ine.add.PTCONT.2077679",
      "street": "R COMEND ARMINDO FONSECA",
      "house": "6",
      "postcode": "3100-436",
      "city": "POMBAL",
      "lon": "-8.63197621148713",
      "lat": "39.911973648226216"
    },
    {
      "id": "pt.ine.add.PTCONT.2077680",
      "street": "R COMEND ARMINDO FONSECA",
      "house": "6",
      "postcode": "3100-436",
      "city": "POMBAL",
      "lon": "-8.63197621148713",
      "lat": "39.911973648226216"
    },
    {
      "id": "pt.ine.add.PTCONT.2077681",
      "street": "R COMEND ARMINDO FONSECA",
      "house": "6",
      "postcode": "3100-436",
      "city": "POMBAL",
      "lon": "-8.63197621148713",
      "lat": "39.911973648226216"
    },
    {
      "id": "pt.ine.add.PTCONT.2077682",
      "street": "R COMEND ARMINDO FONSECA",
      "house": "6",
      "postcode": "3100-436",
      "city": "POMBAL",
      "lon": "-8.63197621148713",
      "lat": "39.911973648226216"
    },
    {
      "id": "pt.ine.add.PTCONT.2077683",
      "street": "R COMEND ARMINDO FONSECA",
      "house": "6",
      "postcode": "3100-436",
      "city": "POMBAL",
      "lon": "-8.63197621148713",
      "lat": "39.911973648226216"
    },
    {
      "id": "pt.ine.add.PTCONT.2077684",
      "street": "R SPORTING DE POMBAL",
      "house": "10",
      "postcode": "3100-434",
      "city": "POMBAL",
      "lon": "-8.63197621148713",
      "lat": "39.911973648226216"
    },
    {
      "id": "pt.ine.add.PTCONT.2077858",
      "street": "R SPORTING DE POMBAL",
      "house": "10",
      "postcode": "3100-434",
      "city": "POMBAL",
      "lon": "-8.63197621148713",
      "lat": "39.911973648226216"
    },
    {
      "id": "pt.ine.add.PTCONT.2077936",
      "street": "R COMEND ARMINDO FONSECA",
      "house": "6",
      "postcode": "3100-436",
      "city": "POMBAL",
      "lon": "-8.63197621148713",
      "lat": "39.911973648226216"
    },
    {
      "id": "pt.ine.add.PTCONT.2093273",
      "street": "R LEIRIA",
      "house": "70",
      "postcode": "3100-437",
      "city": "POMBAL",
      "lon": "-8.631706247080624",
      "lat": "39.911839715186346"
    },
    {
      "id": "pt.ine.add.PTCONT.2093274",
      "street": "R LEIRIA",
      "house": "70",
      "postcode": "3100-437",
      "city": "POMBAL",
      "lon": "-8.631706247080624",
      "lat": "39.911839715186346"
    },
    {
      "id": "pt.ine.add.PTCONT.2093275",
      "street": "R LEIRIA",
      "house": "70",
      "postcode": "3100-437",
      "city": "POMBAL",
      "lon": "-8.631706247080624",
      "lat": "39.911839715186346"
    },
    {
      "id": "pt.ine.add.PTCONT.2093276",
      "street": "R LEIRIA",
      "house": "70",
      "postcode": "3100-437",
      "city": "POMBAL",
      "lon": "-8.631706247080624",
      "lat": "39.911839715186346"
    },
    {
      "id": "pt.ine.add.PTCONT.2093277",
      "street": "R LEIRIA",
      "house": "70",
      "postcode": "3100-437",
      "city": "POMBAL",
      "lon": "-8.631706247080624",
      "lat": "39.911839715186346"
    },
    {
      "id": "pt.ine.add.PTCONT.2196446",
      "street": "R GAIVOTAS EM TERRA",
      "house": "",
      "postcode": "3100-383",
      "city": "POMBAL",
      "lon": "-8.632176725808074",
      "lat": "39.912206948574635"
    },
    {
      "id": "pt.ine.add.PTCONT.2196447",
      "street": "R GAIVOTAS EM TERRA",
      "house": "",
      "postcode": "3100-383",
      "city": "POMBAL",
      "lon": "-8.632176725808074",
      "lat": "39.912206948574635"
    },
    {
      "id": "pt.ine.add.PTCONT.2212111",
      "street": "R SPORTING DE POMBAL",
      "house": "11",
      "postcode": "3100-434",
      "city": "POMBAL",
      "lon": "-8.631814179700196",
      "lat": "39.91220850833273"
    },
    {
      "id": "pt.ine.add.PTCONT.2212112",
      "street": "R SPORTING DE POMBAL",
      "house": "11",
      "postcode": "3100-434",
      "city": "POMBAL",
      "lon": "-8.631814179700196",
      "lat": "39.91220850833273"
    },
    {
      "id": "pt.ine.add.PTCONT.2212113",
      "street": "R SPORTING DE POMBAL",
      "house": "11",
      "postcode": "3100-434",
      "city": "POMBAL",
      "lon": "-8.631814179700196",
      "lat": "39.91220850833273"
    },
    {
      "id": "pt.ine.add.PTCONT.2212114",
      "street": "R SPORTING DE POMBAL",
      "house": "11",
      "postcode": "3100-434",
      "city": "POMBAL",
      "lon": "-8.631814179700196",
      "lat": "39.91220850833273"
    },
    {
      "id": "pt.ine.add.PTCONT.2230849",
      "street": "R SPORTING DE POMBAL",
      "house": "13",
      "postcode": "3100-434",
      "city": "POMBAL",
      "lon": "-8.631872785524582",
      "lat": "39.9122262688231"
    },
    {
      "id": "pt.ine.add.PTCONT.2230975",
      "street": "R SPORTING DE POMBAL",
      "house": "13",
      "postcode": "3100-434",
      "city": "POMBAL",
      "lon": "-8.631872785524582",
      "lat": "39.9122262688231"
    },
    {
      "id": "pt.ine.add.PTCONT.2231563",
      "street": "R SPORTING DE POMBAL",
      "house": "13",
      "postcode": "3100-434",
      "city": "POMBAL",
      "lon": "-8.631872785524582",
      "lat": "39.9122262688231"
    },
    {
      "id": "pt.ine.add.PTCONT.2260435",
      "street": "R SPORTING DE POMBAL",
      "house": "",
      "postcode": "3100-434",
      "city": "POMBAL",
      "lon": "-8.632060559612315",
      "lat": "39.912315523767845"
    },
    {
      "id": "pt.ine.add.PTCONT.2260436",
      "street": "R SPORTING DE POMBAL",
      "house": "",
      "postcode": "3100-434",
      "city": "POMBAL",
      "lon": "-8.632060559612315",
      "lat": "39.912315523767845"
    },
    {
      "id": "pt.ine.add.PTCONT.2260437",
      "street": "R SPORTING DE POMBAL",
      "house": "",
      "postcode": "3100-434",
      "city": "POMBAL",
      "lon": "-8.632060559612315",
      "lat": "39.912315523767845"
    },
    {
      "id": "pt.ine.add.PTCONT.2260438",
      "street": "R SPORTING DE POMBAL",
      "house": "",
      "postcode": "3100-434",
      "city": "POMBAL",
      "lon": "-8.632060559612315",
      "lat": "39.912315523767845"
    },
    {
      "id": "pt.ine.add.PTCONT.2260439",
      "street": "R SPORTING POMBAL",
      "house": "19",
      "postcode": "3100-434",
      "city": "POMBAL",
      "lon": "-8.632060559612315",
      "lat": "39.912315523767845"
    },
    {
      "id": "pt.ine.add.PTCONT.2260440",
      "street": "R SPORTING DE POMBAL",
      "house": "",
      "postcode": "3100-434",
      "city": "POMBAL",
      "lon": "-8.632060559612315",
      "lat": "39.912315523767845"
    },
    {
      "id": "pt.ine.add.PTCONT.2262327",
      "street": "R LEIRIA",
      "house": "70",
      "postcode": "3100-437",
      "city": "POMBAL",
      "lon": "-8.631706247080624",
      "lat": "39.911839715186346"
    },
    {
      "id": "pt.ine.add.PTCONT.2264331",
      "street": "R SPORTING DE POMBAL",
      "house": "11",
      "postcode": "3100-434",
      "city": "POMBAL",
      "lon": "-8.631814179700196",
      "lat": "39.91220850833273"
    }
  ]
}