{
  "data": {
    "distrito": "Leiria",
    "concelho": "Pombal",
    "freguesia": "Pombal",
    "OBJECTID": 128,
    "BGRI2021": "10150901012",
    "DT21": "10",
    "DTMN21": "1015",
    "DTMNFR21": "101509",
    "DTMNFRSEC21": "101509010",
    "SECNUM21": "010",
    "SSNUM21": "12",
    "SECSSNUM21": "01012",
    "OBJECTID_1": 97567,
    "DT": "10",
    "CC": "15",
    "fr": "09",
    "SEC": "010",
    "SS": "12"
  },
  "addresses": [
    {
      "id": "pt.ine.add.PTCONT.1997285",
      "street": "R DO LOURIÃ‡AL",
      "house": "77",
      "postcode": "3100-428",
      "city": "POMBAL",
      "lon": "-8.631814497849332",
      "lat": "39.913745984140704"
    },
    {
      "id": "pt.ine.add.PTCONT.2014397",
      "street": "R LOURICAL",
      "house": "83",
      "postcode": "3100-428",
      "city": "POMBAL",
      "lon": "-8.632024038231874",
      "lat": "39.913729665841124"
    },
    {
      "id": "pt.ine.add.PTCONT.2014398",
      "street": "R LOURICAL",
      "house": "83",
      "postcode": "3100-428",
      "city": "POMBAL",
      "lon": "-8.632024038231874",
      "lat": "39.913729665841124"
    },
    {
      "id": "pt.ine.add.PTCONT.2014399",
      "street": "R LOURICAL",
      "house": "83",
      "postcode": "3100-428",
      "city": "POMBAL",
      "lon": "-8.632024038231874",
      "lat": "39.913729665841124"
    },
    {
      "id": "pt.ine.add.PTCONT.2014400",
      "street": "R LOURICAL",
      "house": "83",
      "postcode": "3100-428",
      "city": "POMBAL",
      "lon": "-8.632024038231874",
      "lat": "39.913729665841124"
    },
    {
      "id": "pt.ine.add.PTCONT.2014401",
      "street": "R LOURICAL",
      "house": "83",
      "postcode": "3100-428",
      "city": "POMBAL",
      "lon": "-8.632024038231874",
      "lat": "39.913729665841124"
    },
    {
      "id": "pt.ine.add.PTCONT.2014402",
      "street": "R LOURICAL",
      "house": "83",
      "postcode": "3100-428",
      "city": "POMBAL",
      "lon": "-8.632024038231874",
      "lat": "39.913729665841124"
    },
    {
      "id": "pt.ine.add.PTCONT.2014403",
      "street": "R LOURICAL",
      "house": "83",
      "postcode": "3100-428",
      "city": "POMBAL",
      "lon": "-8.632024038231874",
      "lat": "39.913729665841124"
    },
    {
      "id": "pt.ine.add.PTCONT.2014408",
      "street": "R LOURICAL",
      "house": "83",
      "postcode": "3100-428",
      "city": "POMBAL",
      "lon": "-8.632024038231874",
      "lat": "39.913729665841124"
    },
    {
      "id": "pt.ine.add.PTCONT.2014409",
      "street": "R LOURICAL",
      "house": "83",
      "postcode": "3100-428",
      "city": "POMBAL",
      "lon": "-8.632024038231874",
      "lat": "39.913729665841124"
    },
    {
      "id": "pt.ine.add.PTCONT.2018811",
      "street": "R LOURICAL",
      "house": "72",
      "postcode": "3100-428",
      "city": "POMBAL",
      "lon": "-8.631519639122663",
      "lat": "39.91352469066044"
    },
    {
      "id": "pt.ine.add.PTCONT.2034525",
      "street": "",
      "house": "",
      "postcode": "3100-429",
      "city": "POMBAL",
      "lon": "-8.631449598097765",
      "lat": "39.91354300423281"
    },
    {
      "id": "pt.ine.add.PTCONT.2042869",
      "street": "R LOURICAL",
      "house": "73",
      "postcode": "3100-428",
      "city": "POMBAL",
      "lon": "-8.63167330998134",
      "lat": "39.9137491868711"
    },
    {
      "id": "pt.ine.add.PTCONT.2042870",
      "street": "R LOURICAL",
      "house": "73",
      "postcode": "3100-428",
      "city": "POMBAL",
      "lon": "-8.63167330998134",
      "lat": "39.9137491868711"
    },
    {
      "id": "pt.ine.add.PTCONT.2126162",
      "street": "",
      "house": "",
      "postcode": "3100-428",
      "city": "POMBAL",
      "lon": "-8.6315419851397",
      "lat": "39.913380494244635"
    },
    {
      "id": "pt.ine.add.PTCONT.2128231",
      "street": "R FILARMONICA ARTISTICA POMBALENSE F",
      "house": "F",
      "postcode": "3100-430",
      "city": "POMBAL",
      "lon": "-8.632140795094259",
      "lat": "39.913702144616444"
    },
    {
      "id": "pt.ine.add.PTCONT.2128232",
      "street": "R FILARMONICA ARTISTICA POMBALENSE",
      "house": "44",
      "postcode": "3100-430",
      "city": "POMBAL",
      "lon": "-8.632140795094259",
      "lat": "39.913702144616444"
    },
    {
      "id": "pt.ine.add.PTCONT.2128233",
      "street": "R FILARMONICA ARTISTICA POMBALENSE",
      "house": "44",
      "postcode": "3100-430",
      "city": "POMBAL",
      "lon": "-8.632140795094259",
      "lat": "39.913702144616444"
    },
    {
      "id": "pt.ine.add.PTCONT.2128234",
      "street": "R FILARMONICA ARTISTICA POMBALENSE",
      "house": "44",
      "postcode": "3100-430",
      "city": "POMBAL",
      "lon": "-8.632140795094259",
      "lat": "39.913702144616444"
    },
    {
      "id": "pt.ine.add.PTCONT.2128235",
      "street": "R FILARMONICA ARTISTICA POMBALENSE",
      "house": "44",
      "postcode": "3100-430",
      "city": "POMBAL",
      "lon": "-8.632140795094259",
      "lat": "39.913702144616444"
    },
    {
      "id": "pt.ine.add.PTCONT.2128236",
      "street": "R FILARMONICA ARTISTICA POMBALENSE",
      "house": "44",
      "postcode": "3100-430",
      "city": "POMBAL",
      "lon": "-8.632140795094259",
      "lat": "39.913702144616444"
    },
    {
      "id": "pt.ine.add.PTCONT.2128237",
      "street": "R FILARMONICA ARTISTICA POMBALENSE",
      "house": "44",
      "postcode": "3100-430",
      "city": "POMBAL",
      "lon": "-8.632140795094259",
      "lat": "39.913702144616444"
    },
    {
      "id": "pt.ine.add.PTCONT.2128238",
      "street": "R FILARMONICA ARTISTICA POMBALENSE",
      "house": "44",
      "postcode": "3100-430",
      "city": "POMBAL",
      "lon": "-8.632140795094259",
      "lat": "39.913702144616444"
    },
    {
      "id": "pt.ine.add.PTCONT.2128239",
      "street": "R FILARMONICA ARTISTICA POMBALENSE",
      "house": "44",
      "postcode": "3100-430",
      "city": "POMBAL",
      "lon": "-8.632140795094259",
      "lat": "39.913702144616444"
    },
    {
      "id": "pt.ine.add.PTCONT.2128240",
      "street": "R FILARMONICA ARTISTICA POMBALENSE",
      "house": "44",
      "postcode": "3100-430",
      "city": "POMBAL",
      "lon": "-8.632140795094259",
      "lat": "39.913702144616444"
    },
    {
      "id": "pt.ine.add.PTCONT.2128258",
      "street": "R FILARMONICA ARTISTICA POMBALENSE",
      "house": "44",
      "postcode": "3100-430",
      "city": "POMBAL",
      "lon": "-8.632140795094259",
      "lat": "39.913702144616444"
    },
    {
      "id": "pt.ine.add.PTCONT.2128383",
      "street": "R FILARMONICA ARTISTICA POMBALENSE",
      "house": "44",
      "postcode": "3100-430",
      "city": "POMBAL",
      "lon": "-8.632140795094259",
      "lat": "39.913702144616444"
    },
    {
      "id": "pt.ine.add.PTCONT.2128491",
      "street": "R FILARMONICA ARTISTICA POMBALENSE",
      "house": "44",
      "postcode": "3100-430",
      "city": "POMBAL",
      "lon": "-8.632140795094259",
      "lat": "39.913702144616444"
    },
    {
      "id": "pt.ine.add.PTCONT.2145588",
      "street": "R FAMILIA AGORRETA",
      "house": "2",
      "postcode": "3100-429",
      "city": "POMBAL",
      "lon": "-8.631497684672015",
      "lat": "39.913722923020956"
    },
    {
      "id": "pt.ine.add.PTCONT.2145589",
      "street": "R FAMILIA AGORRETA",
      "house": "2",
      "postcode": "3100-429",
      "city": "POMBAL",
      "lon": "-8.631497684672015",
      "lat": "39.913722923020956"
    },
    {
      "id": "pt.ine.add.PTCONT.2145590",
      "street": "R FAMILIA AGORRETA",
      "house": "2",
      "postcode": "3100-429",
      "city": "POMBAL",
      "lon": "-8.631497684672015",
      "lat": "39.913722923020956"
    },
    {
      "id": "pt.ine.add.PTCONT.2145591",
      "street": "R FAMILIA AGORRETA",
      "house": "2",
      "postcode": "3100-429",
      "city": "POMBAL",
      "lon": "-8.631497684672015",
      "lat": "39.913722923020956"
    },
    {
      "id": "pt.ine.add.PTCONT.2145592",
      "street": "R FAMILIA AGORRETA",
      "house": "2",
      "postcode": "3100-429",
      "city": "POMBAL",
      "lon": "-8.631497684672015",
      "lat": "39.913722923020956"
    },
    {
      "id": "pt.ine.add.PTCONT.2145593",
      "street": "R FAMILIA AGORRETA",
      "house": "2",
      "postcode": "3100-429",
      "city": "POMBAL",
      "lon": "-8.631497684672015",
      "lat": "39.913722923020956"
    },
    {
      "id": "pt.ine.add.PTCONT.2145697",
      "street": "R FAMILIA AGORRETA",
      "house": "2",
      "postcode": "3100-429",
      "city": "POMBAL",
      "lon": "-8.631497684672015",
      "lat": "39.913722923020956"
    },
    {
      "id": "pt.ine.add.PTCONT.2145698",
      "street": "R FAMILIA AGORRETA",
      "house": "2",
      "postcode": "3100-429",
      "city": "POMBAL",
      "lon": "-8.631497684672015",
      "lat": "39.913722923020956"
    },
    {
      "id": "pt.ine.add.PTCONT.2145699",
      "street": "R FAMILIA AGORRETA",
      "house": "2",
      "postcode": "3100-429",
      "city": "POMBAL",
      "lon": "-8.631497684672015",
      "lat": "39.913722923020956"
    },
    {
      "id": "pt.ine.add.PTCONT.2200863",
      "street": "R LOURICAL",
      "house": "79",
      "postcode": "3100-428",
      "city": "POMBAL",
      "lon": "-8.631766937679782",
      "lat": "39.91375779055375"
    },
    {
      "id": "pt.ine.add.PTCONT.2212079",
      "street": "R LOURICAL",
      "house": "93",
      "postcode": "3100-428",
      "city": "POMBAL",
      "lon": "-8.632351441079106",
      "lat": "39.91371925044914"
    },
    {
      "id": "pt.ine.add.PTCONT.2237839",
      "street": "R LOURICAL",
      "house": "",
      "postcode": "3100-428",
      "city": "POMBAL",
      "lon": "-8.63162483117412",
      "lat": "39.913515232207125"
    },
    {
      "id": "pt.ine.add.PTCONT.2250326",
      "street": "R LOURICAL",
      "house": "89",
      "postcode": "3100-428",
      "city": "POMBAL",
      "lon": "-8.632246314196962",
      "lat": "39.913737715553516"
    }
  ]
}