{
  "data": {
    "distrito": "Lisboa",
    "concelho": "Sintra",
    "freguesia": "União das freguesias de São João das Lampas e Terrugem",
    "OBJECTID": 1765,
    "BGRI2021": "11112701310",
    "DT21": "11",
    "DTMN21": "1111",
    "DTMNFR21": "111127",
    "DTMNFRSEC21": "111127013",
    "SECNUM21": "013",
    "SSNUM21": "10",
    "SECSSNUM21": "01310",
    "OBJECTID_1": 113034,
    "DT": "11",
    "CC": "11",
    "fr": "27",
    "SEC": "013",
    "SS": "10"
  },
  "addresses": [
    {
      "id": "pt.ine.add.PTCONT.2369490",
      "street": "R EIRA VELHA",
      "house": "29",
      "postcode": "2705-645",
      "city": "SÃO JOÃO DAS LAMPAS",
      "lon": "-9.430166125592972",
      "lat": "38.84326106824401"
    },
    {
      "id": "pt.ine.add.PTCONT.2509329",
      "street": "AV NSA SRA DA ESPERANÇA",
      "house": "57A",
      "postcode": "2705-616",
      "city": "SÃO JOÃO DAS LAMPAS",
      "lon": "-9.43039228012566",
      "lat": "38.84366389378879"
    },
    {
      "id": "pt.ine.add.PTCONT.2741991",
      "street": "AV EIRA VELHA",
      "house": "6",
      "postcode": "2705-645",
      "city": "SÃO JOÃO DAS LAMPAS",
      "lon": "-9.42905426547626",
      "lat": "38.84292211848837"
    },
    {
      "id": "pt.ine.add.PTCONT.2812059",
      "street": "AV NSA SRA DA ESPERANÇA",
      "house": "57",
      "postcode": "2705-645",
      "city": "SÃO JOÃO DAS LAMPAS",
      "lon": "-9.430792379706503",
      "lat": "38.843497313990426"
    },
    {
      "id": "pt.ine.add.PTCONT.2812060",
      "street": "AV NSA SRA DA ESPERANÇA",
      "house": "57",
      "postcode": "2705-616",
      "city": "SÃO JOÃO DAS LAMPAS",
      "lon": "-9.430553497960286",
      "lat": "38.843662102922934"
    },
    {
      "id": "pt.ine.add.PTCONT.2842147",
      "street": "R ALTO DO MOINHO",
      "house": "12",
      "postcode": "2705-645",
      "city": "SÃO JOÃO DAS LAMPAS",
      "lon": "-9.431192968369874",
      "lat": "38.8433577498816"
    },
    {
      "id": "pt.ine.add.PTCONT.2859080",
      "street": "AV NSA SRA DA ESPERANÇA",
      "house": "55",
      "postcode": "2705-616",
      "city": "SÃO JOÃO DAS LAMPAS",
      "lon": "-9.430322041907607",
      "lat": "38.84360162147256"
    },
    {
      "id": "pt.ine.add.PTCONT.2967563",
      "street": "R EIRA VELHA",
      "house": "33",
      "postcode": "2705-645",
      "city": "SÃO JOÃO DAS LAMPAS",
      "lon": "-9.43048211461163",
      "lat": "38.843536790947226"
    },
    {
      "id": "pt.ine.add.PTCONT.2976532",
      "street": "R EIRA VELHA",
      "house": "33A",
      "postcode": "2705-645",
      "city": "SÃO JOÃO DAS LAMPAS",
      "lon": "-9.430261847470529",
      "lat": "38.84345817008738"
    },
    {
      "id": "pt.ine.add.PTCONT.3031770",
      "street": "AV NOSSA SRA DA ESPERANSA",
      "house": "51",
      "postcode": "2705-645",
      "city": "SÃO JOÃO DAS LAMPAS",
      "lon": "-9.429788402919812",
      "lat": "38.84339136747584"
    },
    {
      "id": "pt.ine.add.PTCONT.3104118",
      "street": "AV NSA SRA ESPERANSA",
      "house": "61",
      "postcode": "2705-645",
      "city": "SÃO JOÃO DAS LAMPAS",
      "lon": "-9.42969578835468",
      "lat": "38.843365373196875"
    },
    {
      "id": "pt.ine.add.PTCONT.3108430",
      "street": "AV NSA SRA DA ESPERANÇA",
      "house": "53",
      "postcode": "2705-616",
      "city": "SÃO JOÃO DAS LAMPAS",
      "lon": "-9.42986966552032",
      "lat": "38.84342649522173"
    },
    {
      "id": "pt.ine.add.PTCONT.3154017",
      "street": "R EIRA VELHA",
      "house": "31",
      "postcode": "2705-645",
      "city": "SÃO JOÃO DAS LAMPAS",
      "lon": "-9.430169886778286",
      "lat": "38.84346819891314"
    }
  ]
}