{
  "data": {
    "distrito": "Guarda",
    "concelho": "Pinhel",
    "freguesia": "Terras de Massueime",
    "OBJECTID": 111,
    "BGRI2021": "09103000125",
    "DT21": "09",
    "DTMN21": "0910",
    "DTMNFR21": "091030",
    "DTMNFRSEC21": "091030001",
    "SECNUM21": "001",
    "SSNUM21": "25",
    "SECSSNUM21": "00125",
    "OBJECTID_1": 80361,
    "DT": "09",
    "CC": "10",
    "fr": "30",
    "SEC": "001",
    "SS": "25"
  },
  "addresses": [
    {
      "id": "pt.ine.add.PTCONT.1904391",
      "street": "R DA CARREIRA",
      "house": "8",
      "postcode": "6400-192",
      "city": "ERVAS TENRAS",
      "lon": "-7.186909830066214",
      "lat": "40.74095132730207"
    },
    {
      "id": "pt.ine.add.PTCONT.1910695",
      "street": "R DA FONTE NOVA",
      "house": "3",
      "postcode": "6400-192",
      "city": "ERVAS TENRAS",
      "lon": "-7.185600601140655",
      "lat": "40.742273304915166"
    },
    {
      "id": "pt.ine.add.PTCONT.1924151",
      "street": "R DO FORNO",
      "house": "5",
      "postcode": "6400-192",
      "city": "ERVAS TENRAS",
      "lon": "-7.187272209602238",
      "lat": "40.74127847251584"
    },
    {
      "id": "pt.ine.add.PTCONT.1925109",
      "street": "QLHA DO ANDRÉ",
      "house": "2",
      "postcode": "6400-192",
      "city": "ERVAS TENRAS",
      "lon": "-7.185646975898511",
      "lat": "40.74150827294628"
    },
    {
      "id": "pt.ine.add.PTCONT.1943412",
      "street": "R DA LAJA GRANDE",
      "house": "",
      "postcode": "6400-192",
      "city": "ERVAS TENRAS",
      "lon": "-7.1874058692447065",
      "lat": "40.741036436678236"
    },
    {
      "id": "pt.ine.add.PTCONT.1978225",
      "street": "R DA LAJA GRANDE",
      "house": "",
      "postcode": "6400-192",
      "city": "ERVAS TENRAS",
      "lon": "-7.187381428435664",
      "lat": "40.74109026554758"
    },
    {
      "id": "pt.ine.add.PTCONT.1854412",
      "street": "R DO FORNO",
      "house": "7",
      "postcode": "6400-192",
      "city": "ERVAS TENRAS",
      "lon": "-7.187217587395358",
      "lat": "40.741791301667995"
    },
    {
      "id": "pt.ine.add.PTCONT.1854413",
      "street": "QLHA DO ANDRÉ",
      "house": "3",
      "postcode": "6400-192",
      "city": "ERVAS TENRAS",
      "lon": "-7.18602578802204",
      "lat": "40.74151138213243"
    },
    {
      "id": "pt.ine.add.PTCONT.1865380",
      "street": "R DA CARREIRA",
      "house": "6",
      "postcode": "6400-192",
      "city": "ERVAS TENRAS",
      "lon": "-7.18653051042681",
      "lat": "40.74098423629209"
    },
    {
      "id": "pt.ine.add.PTCONT.1875237",
      "street": "R DA FONTE NOVA",
      "house": "4",
      "postcode": "6400-192",
      "city": "ERVAS TENRAS",
      "lon": "-7.185639354474586",
      "lat": "40.74121105013265"
    },
    {
      "id": "pt.ine.add.PTCONT.1878102",
      "street": "QLHA DO ANDRÉ",
      "house": "1",
      "postcode": "6400-192",
      "city": "ERVAS TENRAS",
      "lon": "-7.1855051769469975",
      "lat": "40.74148909906809"
    },
    {
      "id": "pt.ine.add.PTCONT.1893829",
      "street": "R DA CARREIRA",
      "house": "8",
      "postcode": "6400-192",
      "city": "ERVAS TENRAS",
      "lon": "-7.186054827820949",
      "lat": "40.74113341647278"
    }
  ]
}