{
  "data": {
    "distrito": "Leiria",
    "concelho": "Batalha",
    "freguesia": "Batalha",
    "OBJECTID": 234,
    "BGRI2021": "10040100421",
    "DT21": "10",
    "DTMN21": "1004",
    "DTMNFR21": "100401",
    "DTMNFRSEC21": "100401004",
    "SECNUM21": "004",
    "SSNUM21": "21",
    "SECSSNUM21": "00421",
    "OBJECTID_1": 86478,
    "DT": "10",
    "CC": "04",
    "fr": "01",
    "SEC": "004",
    "SS": "21"
  },
  "addresses": [
    {
      "id": "pt.ine.add.PTCONT.2017435",
      "street": "ESCNH ADRO",
      "house": "",
      "postcode": "2440-087",
      "city": "BATALHA",
      "lon": "-8.815438556861622",
      "lat": "39.667136641085655"
    },
    {
      "id": "pt.ine.add.PTCONT.2127539",
      "street": "CANGOSTA DO FÉLIX",
      "house": "6",
      "postcode": "2440-089",
      "city": "BATALHA",
      "lon": "-8.815960203643758",
      "lat": "39.666854370590464"
    },
    {
      "id": "pt.ine.add.PTCONT.2154484",
      "street": "ESCNH ADRO",
      "house": "9",
      "postcode": "2440-087",
      "city": "BATALHA",
      "lon": "-8.815542727074194",
      "lat": "39.66706397623353"
    },
    {
      "id": "pt.ine.add.PTCONT.2154485",
      "street": "ESCNH ADRO",
      "house": "19",
      "postcode": "2440-087",
      "city": "BATALHA",
      "lon": "-8.815542727074194",
      "lat": "39.66706397623353"
    },
    {
      "id": "pt.ine.add.PTCONT.2164085",
      "street": "R ROSAS DO LENA",
      "house": "25",
      "postcode": "2440-070",
      "city": "BATALHA",
      "lon": "-8.815556949826124",
      "lat": "39.66732508398604"
    },
    {
      "id": "pt.ine.add.PTCONT.2182975",
      "street": "R CONGOSTA DO FÉLIX",
      "house": "4",
      "postcode": "2440-089",
      "city": "BATALHA",
      "lon": "-8.815849877645206",
      "lat": "39.66663779448751"
    },
    {
      "id": "pt.ine.add.PTCONT.2194980",
      "street": "ESCNH ADRO",
      "house": "",
      "postcode": "2440-087",
      "city": "BATALHA",
      "lon": "-8.815425929171196",
      "lat": "39.667037642700556"
    }
  ]
}