{
  "data": {
    "distrito": "Setúbal",
    "concelho": "Seixal",
    "freguesia": "Amora",
    "OBJECTID": 1650,
    "BGRI2021": "15100202011",
    "DT21": "15",
    "DTMN21": "1510",
    "DTMNFR21": "151002",
    "DTMNFRSEC21": "151002020",
    "SECNUM21": "020",
    "SSNUM21": "11",
    "SECSSNUM21": "02011",
    "OBJECTID_1": 168281,
    "DT": "15",
    "CC": "10",
    "fr": "02",
    "SEC": "020",
    "SS": "11"
  },
  "addresses": [
    {
      "id": "pt.ine.add.PTCONT.4666168",
      "street": "R VALE DE SANTO ANTÓNIO",
      "house": "41",
      "postcode": "2845-328",
      "city": "AMORA",
      "lon": "-9.123486952650191",
      "lat": "38.61240176090193"
    },
    {
      "id": "pt.ine.add.PTCONT.4744934",
      "street": "R QUINTA DA HERDEIRA",
      "house": "25",
      "postcode": "2845-311",
      "city": "AMORA",
      "lon": "-9.123669885092216",
      "lat": "38.6123461640636"
    },
    {
      "id": "pt.ine.add.PTCONT.4767320",
      "street": "R AMOREIRAS",
      "house": "",
      "postcode": "2845-449",
      "city": "AMORA",
      "lon": "-9.123625947987565",
      "lat": "38.61249066483477"
    },
    {
      "id": "pt.ine.add.PTCONT.4782593",
      "street": "R VALE DE SANTO ANTÓNIO",
      "house": "41A",
      "postcode": "2845-328",
      "city": "AMORA",
      "lon": "-9.123406966053848",
      "lat": "38.61242946205594"
    },
    {
      "id": "pt.ine.add.PTCONT.4994524",
      "street": "R QUINTA DA HERDEIRA",
      "house": "",
      "postcode": "2845-311",
      "city": "AMORA",
      "lon": "-9.123935653188953",
      "lat": "38.612470026525706"
    },
    {
      "id": "pt.ine.add.PTCONT.5017383",
      "street": "R CASTANHEIROS",
      "house": "6",
      "postcode": "2845-262",
      "city": "AMORA",
      "lon": "-9.123702837808883",
      "lat": "38.61223778847364"
    },
    {
      "id": "pt.ine.add.PTCONT.5079522",
      "street": "R CASTANHEIROS",
      "house": "2",
      "postcode": "2845-262",
      "city": "AMORA",
      "lon": "-9.123392885863003",
      "lat": "38.61224041214815"
    },
    {
      "id": "pt.ine.add.PTCONT.5086453",
      "street": "R CASTANHEIROS",
      "house": "1",
      "postcode": "2845-262",
      "city": "AMORA",
      "lon": "-9.123507435194583",
      "lat": "38.6122214265065"
    },
    {
      "id": "pt.ine.add.PTCONT.5086454",
      "street": "R CASTANHEIROS",
      "house": "3",
      "postcode": "2845-262",
      "city": "AMORA",
      "lon": "-9.123507435194583",
      "lat": "38.6122214265065"
    },
    {
      "id": "pt.ine.add.PTCONT.5087656",
      "street": "R VALE DE SANTO ANTÓNIO",
      "house": "",
      "postcode": "2845-328",
      "city": "AMORA",
      "lon": "-9.123477949769535",
      "lat": "38.61258199812327"
    }
  ]
}