{
  "data": {
    "distrito": "Setúbal",
    "concelho": "Seixal",
    "freguesia": "Amora",
    "OBJECTID": 1515,
    "BGRI2021": "15100202017",
    "DT21": "15",
    "DTMN21": "1510",
    "DTMNFR21": "151002",
    "DTMNFRSEC21": "151002020",
    "SECNUM21": "020",
    "SSNUM21": "17",
    "SECSSNUM21": "02017",
    "OBJECTID_1": 167589,
    "DT": "15",
    "CC": "10",
    "fr": "02",
    "SEC": "020",
    "SS": "17"
  },
  "addresses": [
    {
      "id": "pt.ine.add.PTCONT.4710064",
      "street": "QTA DAMIÃO",
      "house": "4",
      "postcode": "2845-179",
      "city": "AMORA",
      "lon": "-9.118960637544372",
      "lat": "38.61052126953115"
    },
    {
      "id": "pt.ine.add.PTCONT.4710065",
      "street": "QTA DAMIÃO",
      "house": "4",
      "postcode": "2845-179",
      "city": "AMORA",
      "lon": "-9.118960637544372",
      "lat": "38.61052126953115"
    },
    {
      "id": "pt.ine.add.PTCONT.4710066",
      "street": "QTA DAMIÃO",
      "house": "4",
      "postcode": "2845-179",
      "city": "AMORA",
      "lon": "-9.118960637544372",
      "lat": "38.61052126953115"
    },
    {
      "id": "pt.ine.add.PTCONT.4710067",
      "street": "QTA DAMIÃO",
      "house": "4",
      "postcode": "2845-179",
      "city": "AMORA",
      "lon": "-9.118960637544372",
      "lat": "38.61052126953115"
    },
    {
      "id": "pt.ine.add.PTCONT.4725119",
      "street": "QTA JOÃO PADEIRO",
      "house": "15",
      "postcode": "2845-250",
      "city": "AMORA",
      "lon": "-9.118720203721596",
      "lat": "38.60973058599944"
    },
    {
      "id": "pt.ine.add.PTCONT.4725120",
      "street": "QTA JOÃO PADEIRO",
      "house": "15",
      "postcode": "2845-250",
      "city": "AMORA",
      "lon": "-9.118720203721596",
      "lat": "38.60973058599944"
    },
    {
      "id": "pt.ine.add.PTCONT.4725121",
      "street": "QTA JOÃO PADEIRO",
      "house": "15",
      "postcode": "2845-250",
      "city": "AMORA",
      "lon": "-9.118720203721596",
      "lat": "38.60973058599944"
    },
    {
      "id": "pt.ine.add.PTCONT.4725122",
      "street": "QTA JOÃO PADEIRO",
      "house": "15",
      "postcode": "2845-250",
      "city": "AMORA",
      "lon": "-9.118720203721596",
      "lat": "38.60973058599944"
    },
    {
      "id": "pt.ine.add.PTCONT.4742340",
      "street": "QTA DAMIÃO",
      "house": "3",
      "postcode": "2845-179",
      "city": "AMORA",
      "lon": "-9.119099747018504",
      "lat": "38.61061918600935"
    },
    {
      "id": "pt.ine.add.PTCONT.4742341",
      "street": "QTA DAMIÃO",
      "house": "3",
      "postcode": "2845-179",
      "city": "AMORA",
      "lon": "-9.119099747018504",
      "lat": "38.61061918600935"
    },
    {
      "id": "pt.ine.add.PTCONT.4788053",
      "street": "R BENTO DE MOURA PORTUGAL",
      "house": "",
      "postcode": "2845-154",
      "city": "AMORA",
      "lon": "-9.118624756927057",
      "lat": "38.611145654884616"
    },
    {
      "id": "pt.ine.add.PTCONT.4844870",
      "street": "QTA DAMIÃO",
      "house": "6",
      "postcode": "2845-179",
      "city": "AMORA",
      "lon": "-9.118592309529879",
      "lat": "38.61045230782647"
    },
    {
      "id": "pt.ine.add.PTCONT.5000676",
      "street": "QTA DAMIÃO",
      "house": "5",
      "postcode": "2845-179",
      "city": "AMORA",
      "lon": "-9.118730925416033",
      "lat": "38.610514196677585"
    },
    {
      "id": "pt.ine.add.PTCONT.5000677",
      "street": "QTA DAMIÃO",
      "house": "5",
      "postcode": "2845-179",
      "city": "AMORA",
      "lon": "-9.118730925416033",
      "lat": "38.610514196677585"
    },
    {
      "id": "pt.ine.add.PTCONT.5000678",
      "street": "QTA DAMIÃO",
      "house": "5",
      "postcode": "2845-179",
      "city": "AMORA",
      "lon": "-9.118730925416033",
      "lat": "38.610514196677585"
    },
    {
      "id": "pt.ine.add.PTCONT.5000679",
      "street": "QTA DAMIÃO",
      "house": "5",
      "postcode": "2845-179",
      "city": "AMORA",
      "lon": "-9.118730925416033",
      "lat": "38.610514196677585"
    },
    {
      "id": "pt.ine.add.PTCONT.5065023",
      "street": "QTA DAMIÃO",
      "house": "",
      "postcode": "2845-179",
      "city": "AMORA",
      "lon": "-9.118989513545841",
      "lat": "38.6109534129362"
    },
    {
      "id": "pt.ine.add.PTCONT.5090098",
      "street": "R OLIVEIRAS",
      "house": "1",
      "postcode": "2845-250",
      "city": "AMORA",
      "lon": "-9.118696193095259",
      "lat": "38.60713646698973"
    },
    {
      "id": "pt.ine.add.PTCONT.5090257",
      "street": "R OLIVEIRAS",
      "house": "",
      "postcode": "2845-250",
      "city": "AMORA",
      "lon": "-9.118696193095259",
      "lat": "38.60713646698973"
    },
    {
      "id": "pt.ine.add.PTCONT.5090258",
      "street": "R OLIVEIRAS",
      "house": "",
      "postcode": "2845-250",
      "city": "AMORA",
      "lon": "-9.118696193095259",
      "lat": "38.60713646698973"
    },
    {
      "id": "pt.ine.add.PTCONT.5090259",
      "street": "R OLIVEIRAS",
      "house": "",
      "postcode": "2845-250",
      "city": "AMORA",
      "lon": "-9.118696193095259",
      "lat": "38.60713646698973"
    },
    {
      "id": "pt.ine.add.PTCONT.5132802",
      "street": "QTA DAMIÃO",
      "house": "4",
      "postcode": "2845-179",
      "city": "AMORA",
      "lon": "-9.118960637544372",
      "lat": "38.61052126953115"
    }
  ]
}