{
  "data": {
    "distrito": "Guarda",
    "concelho": "Aguiar da Beira",
    "freguesia": "Forninhos",
    "OBJECTID": 167,
    "BGRI2021": "09010700104",
    "DT21": "09",
    "DTMN21": "0901",
    "DTMNFR21": "090107",
    "DTMNFRSEC21": "090107001",
    "SECNUM21": "001",
    "SSNUM21": "04",
    "SECSSNUM21": "00104",
    "OBJECTID_1": 74967,
    "DT": "09",
    "CC": "01",
    "fr": "07",
    "SEC": "001",
    "SS": "04"
  },
  "addresses": [
    {
      "id": "pt.ine.add.PTCONT.1903491",
      "street": "R DO CRUZEIRO",
      "house": "2",
      "postcode": "3570-150",
      "city": "FORNINHOS",
      "lon": "-7.530706061393463",
      "lat": "40.69799867807281"
    },
    {
      "id": "pt.ine.add.PTCONT.1908625",
      "street": "LG DA LAGE",
      "house": "5",
      "postcode": "3570-150",
      "city": "FORNINHOS",
      "lon": "-7.5309923599450155",
      "lat": "40.69773902568493"
    },
    {
      "id": "pt.ine.add.PTCONT.1927415",
      "street": "LG DA LAGE",
      "house": "4",
      "postcode": "3570-150",
      "city": "FORNINHOS",
      "lon": "-7.531051920750747",
      "lat": "40.697694311147806"
    },
    {
      "id": "pt.ine.add.PTCONT.1933697",
      "street": "R DO CRUZEIRO",
      "house": "1",
      "postcode": "3570-150",
      "city": "FORNINHOS",
      "lon": "-7.5310022452446885",
      "lat": "40.69795519804844"
    },
    {
      "id": "pt.ine.add.PTCONT.1953777",
      "street": "R DO CRUZEIRO",
      "house": "7",
      "postcode": "3570-150",
      "city": "FORNINHOS",
      "lon": "-7.530647635808016",
      "lat": "40.697917327886536"
    },
    {
      "id": "pt.ine.add.PTCONT.1978211",
      "street": "LG DA LAGE",
      "house": "2",
      "postcode": "3570-150",
      "city": "FORNINHOS",
      "lon": "-7.531195271600023",
      "lat": "40.69754197307223"
    },
    {
      "id": "pt.ine.add.PTCONT.1851902",
      "street": "R PRINCIPAL",
      "house": "25",
      "postcode": "3570-150",
      "city": "FORNINHOS",
      "lon": "-7.530399002042326",
      "lat": "40.699248774871585"
    },
    {
      "id": "pt.ine.add.PTCONT.1858889",
      "street": "R PRINCIPAL",
      "house": "5",
      "postcode": "3570-150",
      "city": "FORNINHOS",
      "lon": "-7.530541723652459",
      "lat": "40.69785373988859"
    },
    {
      "id": "pt.ine.add.PTCONT.1861893",
      "street": "LG DA CAPELA",
      "house": "8",
      "postcode": "3570-150",
      "city": "FORNINHOS",
      "lon": "-7.531255723530412",
      "lat": "40.69739820769725"
    },
    {
      "id": "pt.ine.add.PTCONT.1864898",
      "street": "LG DAS MIMOSAS",
      "house": "1",
      "postcode": "3570-150",
      "city": "FORNINHOS",
      "lon": "-7.530576162269692",
      "lat": "40.69797098507092"
    },
    {
      "id": "pt.ine.add.PTCONT.1881202",
      "street": "R PRINCIPAL",
      "house": "21",
      "postcode": "3570-150",
      "city": "FORNINHOS",
      "lon": "-7.530595281232441",
      "lat": "40.698475366697835"
    },
    {
      "id": "pt.ine.add.PTCONT.1881203",
      "street": "LG DA LAGE",
      "house": "6",
      "postcode": "3570-150",
      "city": "FORNINHOS",
      "lon": "-7.530826400250422",
      "lat": "40.697774180115736"
    },
    {
      "id": "pt.ine.add.PTCONT.1897166",
      "street": "R DOS TANQUES",
      "house": "9",
      "postcode": "3570-150",
      "city": "FORNINHOS",
      "lon": "-7.531244539737403",
      "lat": "40.69864084399696"
    },
    {
      "id": "pt.ine.add.PTCONT.1898229",
      "street": "R DO TANQUE",
      "house": "6",
      "postcode": "3570-150",
      "city": "FORNINHOS",
      "lon": "-7.531621924955255",
      "lat": "40.69877788635296"
    }
  ]
}