{
  "data": {
    "distrito": "Leiria",
    "concelho": "Pombal",
    "freguesia": "Pombal",
    "OBJECTID": 345,
    "BGRI2021": "10150901605",
    "DT21": "10",
    "DTMN21": "1015",
    "DTMNFR21": "101509",
    "DTMNFRSEC21": "101509016",
    "SECNUM21": "016",
    "SSNUM21": "05",
    "SECSSNUM21": "01605",
    "OBJECTID_1": 95310,
    "DT": "10",
    "CC": "15",
    "fr": "09",
    "SEC": "016",
    "SS": "05"
  },
  "addresses": [
    {
      "id": "pt.ine.add.PTCONT.1994262",
      "street": "R LUIS TORRES",
      "house": "17",
      "postcode": "3100-464",
      "city": "POMBAL",
      "lon": "-8.626587988876398",
      "lat": "39.915698281918495"
    },
    {
      "id": "pt.ine.add.PTCONT.1994263",
      "street": "R LUIS TORRES",
      "house": "17",
      "postcode": "3100-464",
      "city": "POMBAL",
      "lon": "-8.626587988876398",
      "lat": "39.915698281918495"
    },
    {
      "id": "pt.ine.add.PTCONT.1994264",
      "street": "R LUIS TORRES",
      "house": "17",
      "postcode": "3100-464",
      "city": "POMBAL",
      "lon": "-8.626587988876398",
      "lat": "39.915698281918495"
    },
    {
      "id": "pt.ine.add.PTCONT.1994265",
      "street": "R LUIS TORRES",
      "house": "17",
      "postcode": "3100-464",
      "city": "POMBAL",
      "lon": "-8.626587988876398",
      "lat": "39.915698281918495"
    },
    {
      "id": "pt.ine.add.PTCONT.1994266",
      "street": "R LUIS TORRES",
      "house": "17",
      "postcode": "3100-464",
      "city": "POMBAL",
      "lon": "-8.626587988876398",
      "lat": "39.915698281918495"
    },
    {
      "id": "pt.ine.add.PTCONT.2010045",
      "street": "R CUSTÓDIO FREIRE",
      "house": "39",
      "postcode": "3100-465",
      "city": "POMBAL",
      "lon": "-8.626667207785827",
      "lat": "39.91532868765236"
    },
    {
      "id": "pt.ine.add.PTCONT.2010046",
      "street": "R CUSTÓDIO FREIRE",
      "house": "39",
      "postcode": "3100-465",
      "city": "POMBAL",
      "lon": "-8.626667207785827",
      "lat": "39.91532868765236"
    },
    {
      "id": "pt.ine.add.PTCONT.2010047",
      "street": "R CUSTÓDIO FREIRE",
      "house": "39",
      "postcode": "3100-465",
      "city": "POMBAL",
      "lon": "-8.626667207785827",
      "lat": "39.91532868765236"
    },
    {
      "id": "pt.ine.add.PTCONT.2010048",
      "street": "R CUSTÓDIO FREIRE",
      "house": "39",
      "postcode": "3100-465",
      "city": "POMBAL",
      "lon": "-8.626667207785827",
      "lat": "39.91532868765236"
    },
    {
      "id": "pt.ine.add.PTCONT.2010052",
      "street": "R CUSTÓDIO FREIRE",
      "house": "39",
      "postcode": "3100-465",
      "city": "POMBAL",
      "lon": "-8.626667207785827",
      "lat": "39.91532868765236"
    },
    {
      "id": "pt.ine.add.PTCONT.2010053",
      "street": "R CUSTÓDIO FREIRE",
      "house": "39",
      "postcode": "3100-465",
      "city": "POMBAL",
      "lon": "-8.626667207785827",
      "lat": "39.91532868765236"
    },
    {
      "id": "pt.ine.add.PTCONT.2022506",
      "street": "R CUSTODIO FREIRE",
      "house": "27",
      "postcode": "3100-465",
      "city": "POMBAL",
      "lon": "-8.626761612969256",
      "lat": "39.91544536731537"
    },
    {
      "id": "pt.ine.add.PTCONT.2022507",
      "street": "R CUSTODIO FREIRE",
      "house": "33",
      "postcode": "3100-465",
      "city": "POMBAL",
      "lon": "-8.626761612969256",
      "lat": "39.91544536731537"
    },
    {
      "id": "pt.ine.add.PTCONT.2022508",
      "street": "R CUSTODIO FREIRE",
      "house": "33",
      "postcode": "3100-465",
      "city": "POMBAL",
      "lon": "-8.626761612969256",
      "lat": "39.91544536731537"
    },
    {
      "id": "pt.ine.add.PTCONT.2022509",
      "street": "R CUSTODIO FREIRE",
      "house": "33",
      "postcode": "3100-465",
      "city": "POMBAL",
      "lon": "-8.626761612969256",
      "lat": "39.91544536731537"
    },
    {
      "id": "pt.ine.add.PTCONT.2022510",
      "street": "R CUSTODIO FREIRE",
      "house": "33",
      "postcode": "3100-465",
      "city": "POMBAL",
      "lon": "-8.626761612969256",
      "lat": "39.91544536731537"
    },
    {
      "id": "pt.ine.add.PTCONT.2022511",
      "street": "R CUSTODIO FREIRE",
      "house": "33",
      "postcode": "3100-465",
      "city": "POMBAL",
      "lon": "-8.626761612969256",
      "lat": "39.91544536731537"
    },
    {
      "id": "pt.ine.add.PTCONT.2147978",
      "street": "R LUIS TORRES",
      "house": "11",
      "postcode": "3100-464",
      "city": "POMBAL",
      "lon": "-8.626504956120904",
      "lat": "39.91553652237604"
    },
    {
      "id": "pt.ine.add.PTCONT.2147979",
      "street": "R LUIS TORRES",
      "house": "11",
      "postcode": "3100-464",
      "city": "POMBAL",
      "lon": "-8.626504956120904",
      "lat": "39.91553652237604"
    },
    {
      "id": "pt.ine.add.PTCONT.2147980",
      "street": "R LUIS TORRES",
      "house": "11",
      "postcode": "3100-464",
      "city": "POMBAL",
      "lon": "-8.626504956120904",
      "lat": "39.91553652237604"
    },
    {
      "id": "pt.ine.add.PTCONT.2147981",
      "street": "R LUIS TORRES",
      "house": "11",
      "postcode": "3100-464",
      "city": "POMBAL",
      "lon": "-8.626504956120904",
      "lat": "39.91553652237604"
    },
    {
      "id": "pt.ine.add.PTCONT.2147982",
      "street": "R LUIS TORRES",
      "house": "5",
      "postcode": "3100-464",
      "city": "POMBAL",
      "lon": "-8.62645739823172",
      "lat": "39.91542864947143"
    },
    {
      "id": "pt.ine.add.PTCONT.2147983",
      "street": "R LUIS TORRES",
      "house": "5",
      "postcode": "3100-464",
      "city": "POMBAL",
      "lon": "-8.62645739823172",
      "lat": "39.91542864947143"
    },
    {
      "id": "pt.ine.add.PTCONT.2147984",
      "street": "R LUIS TORRES",
      "house": "5",
      "postcode": "3100-464",
      "city": "POMBAL",
      "lon": "-8.62645739823172",
      "lat": "39.91542864947143"
    },
    {
      "id": "pt.ine.add.PTCONT.2147985",
      "street": "R LUIS TORRES",
      "house": "5",
      "postcode": "3100-464",
      "city": "POMBAL",
      "lon": "-8.62645739823172",
      "lat": "39.91542864947143"
    },
    {
      "id": "pt.ine.add.PTCONT.2147988",
      "street": "R LUIS TORRES",
      "house": "5",
      "postcode": "3100-464",
      "city": "POMBAL",
      "lon": "-8.62645739823172",
      "lat": "39.91542864947143"
    },
    {
      "id": "pt.ine.add.PTCONT.2147989",
      "street": "R LUIS TORRES",
      "house": "5",
      "postcode": "3100-464",
      "city": "POMBAL",
      "lon": "-8.62645739823172",
      "lat": "39.91542864947143"
    },
    {
      "id": "pt.ine.add.PTCONT.2163240",
      "street": "R CUSTÓDIO FREIRE",
      "house": "21",
      "postcode": "3100-465",
      "city": "POMBAL",
      "lon": "-8.627197391701086",
      "lat": "39.91586680602452"
    },
    {
      "id": "pt.ine.add.PTCONT.2163241",
      "street": "R CUSTÓDIO FREIRE",
      "house": "21",
      "postcode": "3100-465",
      "city": "POMBAL",
      "lon": "-8.627197391701086",
      "lat": "39.91586680602452"
    },
    {
      "id": "pt.ine.add.PTCONT.2163242",
      "street": "R CUSTÓDIO FREIRE",
      "house": "21",
      "postcode": "3100-465",
      "city": "POMBAL",
      "lon": "-8.627197391701086",
      "lat": "39.91586680602452"
    },
    {
      "id": "pt.ine.add.PTCONT.2163243",
      "street": "R CUSTÓDIO FREIRE",
      "house": "21",
      "postcode": "3100-465",
      "city": "POMBAL",
      "lon": "-8.627197391701086",
      "lat": "39.91586680602452"
    },
    {
      "id": "pt.ine.add.PTCONT.2163244",
      "street": "R CUSTÓDIO FREIRE",
      "house": "21",
      "postcode": "3100-465",
      "city": "POMBAL",
      "lon": "-8.627197391701086",
      "lat": "39.91586680602452"
    },
    {
      "id": "pt.ine.add.PTCONT.2163245",
      "street": "R CUSTÓDIO FREIRE",
      "house": "21",
      "postcode": "3100-465",
      "city": "POMBAL",
      "lon": "-8.627197391701086",
      "lat": "39.91586680602452"
    },
    {
      "id": "pt.ine.add.PTCONT.2240277",
      "street": "AV HEROIS DO ULTRAMAR",
      "house": "2",
      "postcode": "3100-462",
      "city": "POMBAL",
      "lon": "-8.626826234497678",
      "lat": "39.91630068787313"
    },
    {
      "id": "pt.ine.add.PTCONT.2245602",
      "street": "R CUSTODIO FREIRE",
      "house": "33",
      "postcode": "3100-465",
      "city": "POMBAL",
      "lon": "-8.626879280353842",
      "lat": "39.91554393530421"
    },
    {
      "id": "pt.ine.add.PTCONT.2245603",
      "street": "R CUSTODIO FREIRE",
      "house": "33",
      "postcode": "3100-465",
      "city": "POMBAL",
      "lon": "-8.626879280353842",
      "lat": "39.91554393530421"
    },
    {
      "id": "pt.ine.add.PTCONT.2245604",
      "street": "R CUSTODIO FREIRE",
      "house": "27",
      "postcode": "3100-465",
      "city": "POMBAL",
      "lon": "-8.626879280353842",
      "lat": "39.91554393530421"
    },
    {
      "id": "pt.ine.add.PTCONT.2245605",
      "street": "R CUSTODIO FREIRE",
      "house": "27",
      "postcode": "3100-465",
      "city": "POMBAL",
      "lon": "-8.626879280353842",
      "lat": "39.91554393530421"
    },
    {
      "id": "pt.ine.add.PTCONT.2245606",
      "street": "R CUSTODIO FREIRE",
      "house": "27",
      "postcode": "3100-465",
      "city": "POMBAL",
      "lon": "-8.626879280353842",
      "lat": "39.91554393530421"
    },
    {
      "id": "pt.ine.add.PTCONT.2245607",
      "street": "R CUSTODIO FREIRE",
      "house": "27",
      "postcode": "3100-465",
      "city": "POMBAL",
      "lon": "-8.626879280353842",
      "lat": "39.91554393530421"
    },
    {
      "id": "pt.ine.add.PTCONT.2247123",
      "street": "R CUSTODIO FREIRE",
      "house": "27",
      "postcode": "3100-465",
      "city": "POMBAL",
      "lon": "-8.626879280353842",
      "lat": "39.91554393530421"
    },
    {
      "id": "pt.ine.add.PTCONT.2261024",
      "street": "R CUSTODIO FREIRE",
      "house": "17",
      "postcode": "3100-465",
      "city": "POMBAL",
      "lon": "-8.626587988876398",
      "lat": "39.915698281918495"
    }
  ]
}