{
  "data": {
    "distrito": "Ã‰vora",
    "concelho": "Montemor-O-Novo",
    "freguesia": "Cabrela",
    "OBJECTID": 466,
    "BGRI2021": "07060100108",
    "DT21": "07",
    "DTMN21": "0706",
    "DTMNFR21": "070601",
    "DTMNFRSEC21": "070601001",
    "SECNUM21": "001",
    "SSNUM21": "08",
    "SECSSNUM21": "00108",
    "OBJECTID_1": 61433,
    "DT": "07",
    "CC": "06",
    "fr": "01",
    "SEC": "001",
    "SS": "08"
  },
  "addresses": [
    {
      "id": "pt.ine.add.PTCONT.1395714",
      "street": "MTE DO PRATO",
      "house": "",
      "postcode": "7050-443",
      "city": "CABRELA",
      "lon": "-8.412229070556446",
      "lat": "38.56974097372431"
    },
    {
      "id": "pt.ine.add.PTCONT.1401192",
      "street": "MTE DA COURELA DA PRATA",
      "house": "",
      "postcode": "7050-443",
      "city": "CABRELA",
      "lon": "-8.409648941011351",
      "lat": "38.576161070710754"
    },
    {
      "id": "pt.ine.add.PTCONT.1417093",
      "street": "MTE DA BARRADA",
      "house": "",
      "postcode": "7050-443",
      "city": "CABRELA",
      "lon": "-8.428333281692023",
      "lat": "38.565431486774976"
    },
    {
      "id": "pt.ine.add.PTCONT.1422379",
      "street": "MTE DAS SESMARIAS DOS CARVALHOS",
      "house": "",
      "postcode": "7050-443",
      "city": "CABRELA",
      "lon": "-8.408749132521235",
      "lat": "38.57492904430896"
    },
    {
      "id": "pt.ine.add.PTCONT.1424592",
      "street": "MTE DA COURELA DA PRATA",
      "house": "",
      "postcode": "7050-443",
      "city": "CABRELA",
      "lon": "-8.411741754700666",
      "lat": "38.571318603414824"
    },
    {
      "id": "pt.ine.add.PTCONT.1445452",
      "street": "MTE DA BARRADA",
      "house": "",
      "postcode": "7050-443",
      "city": "CABRELA",
      "lon": "-8.426971318844743",
      "lat": "38.56909232204254"
    },
    {
      "id": "pt.ine.add.PTCONT.1445900",
      "street": "MTE DA COURELA DA LEBRE",
      "house": "",
      "postcode": "7050-443",
      "city": "CABRELA",
      "lon": "-8.405706394721621",
      "lat": "38.57446773383164"
    },
    {
      "id": "pt.ine.add.PTCONT.1449567",
      "street": "MTE DA COURELA DA BARRADA NOVA",
      "house": "",
      "postcode": "7050-443",
      "city": "CABRELA",
      "lon": "-8.417996122666608",
      "lat": "38.5743664006234"
    },
    {
      "id": "pt.ine.add.PTCONT.1460895",
      "street": "MTE DA COURELA DA FONTANA",
      "house": "",
      "postcode": "7050-443",
      "city": "CABRELA",
      "lon": "-8.412859732820452",
      "lat": "38.572586119913886"
    }
  ]
}