{
  "data": {
    "distrito": "Aveiro",
    "concelho": "Oliveira do Bairro",
    "freguesia": "União das freguesias de Bustos, Troviscal e Mamarrosa",
    "OBJECTID": 221,
    "BGRI2021": "01140700406",
    "DT21": "01",
    "DTMN21": "0114",
    "DTMNFR21": "011407",
    "DTMNFRSEC21": "011407004",
    "SECNUM21": "004",
    "SSNUM21": "06",
    "SECSSNUM21": "00406",
    "OBJECTID_1": 9875,
    "DT": "01",
    "CC": "14",
    "fr": "07",
    "SEC": "004",
    "SS": "06"
  },
  "addresses": [
    {
      "id": "pt.ine.add.PTCONT.317545",
      "street": "R S JOÃO",
      "house": "55",
      "postcode": "3770-017",
      "city": "BUSTOS",
      "lon": "-8.594296938215281",
      "lat": "40.5034341204188"
    },
    {
      "id": "pt.ine.add.PTCONT.335487",
      "street": "CAM RIBEIRINHO",
      "house": "3",
      "postcode": "3770-017",
      "city": "BUSTOS",
      "lon": "-8.594629912572707",
      "lat": "40.503820021888444"
    },
    {
      "id": "pt.ine.add.PTCONT.4319",
      "street": "R DR JOSE GREGORIO HENRIQUES",
      "house": "29",
      "postcode": "3770-012",
      "city": "BUSTOS",
      "lon": "-8.601196357939866",
      "lat": "40.50143420533958"
    },
    {
      "id": "pt.ine.add.PTCONT.47303",
      "street": "CAM RIBEIRINHO",
      "house": "5",
      "postcode": "3770-017",
      "city": "BUSTOS",
      "lon": "-8.594771417506335",
      "lat": "40.503810451318515"
    },
    {
      "id": "pt.ine.add.PTCONT.48792",
      "street": "R CAMINHO RIBEIRINHO",
      "house": "7",
      "postcode": "3770-017",
      "city": "BUSTOS",
      "lon": "-8.594912860638752",
      "lat": "40.503791875456116"
    },
    {
      "id": "pt.ine.add.PTCONT.52074",
      "street": "R CABECO DA VILA",
      "house": "33",
      "postcode": "3770-017",
      "city": "BUSTOS",
      "lon": "-8.596121224590572",
      "lat": "40.502805455458436"
    },
    {
      "id": "pt.ine.add.PTCONT.106179",
      "street": "R DR JOSE GREGORIO HENRIQUES",
      "house": "27",
      "postcode": "3770-012",
      "city": "BUSTOS",
      "lon": "-8.601373998648338",
      "lat": "40.50153254474197"
    },
    {
      "id": "pt.ine.add.PTCONT.210052",
      "street": "R DR JOSE GREGORIO HENRIQUES",
      "house": "33",
      "postcode": "3770-012",
      "city": "BUSTOS",
      "lon": "-8.600853687963262",
      "lat": "40.50135454446062"
    },
    {
      "id": "pt.ine.add.PTCONT.215572",
      "street": "CAM RIBEIRINHO",
      "house": "1",
      "postcode": "3770-017",
      "city": "BUSTOS",
      "lon": "-8.594512002047026",
      "lat": "40.503829498084485"
    }
  ]
}