{
  "data": {
    "distrito": "Porto",
    "concelho": "Maia",
    "freguesia": "Cidade da Maia",
    "OBJECTID": 333,
    "BGRI2021": "13061903002",
    "DT21": "13",
    "DTMN21": "1306",
    "DTMNFR21": "130619",
    "DTMNFRSEC21": "130619030",
    "SECNUM21": "030",
    "SSNUM21": "02",
    "SECSSNUM21": "03002",
    "OBJECTID_1": 130498,
    "DT": "13",
    "CC": "06",
    "fr": "19",
    "SEC": "030",
    "SS": "02"
  },
  "addresses": [
    {
      "id": "pt.ine.add.PTCONT.3567004",
      "street": "R ALTINO DA SILVA GOMES",
      "house": "156",
      "postcode": "4470-526",
      "city": "MAIA",
      "lon": "-8.607522133560636",
      "lat": "41.22814999712689"
    },
    {
      "id": "pt.ine.add.PTCONT.3567005",
      "street": "R ALTINO DA SILVA GOMES",
      "house": "156",
      "postcode": "4470-526",
      "city": "MAIA",
      "lon": "-8.607522133560636",
      "lat": "41.22814999712689"
    },
    {
      "id": "pt.ine.add.PTCONT.3567006",
      "street": "R ALTINO DA SILVA GOMES",
      "house": "156",
      "postcode": "4470-526",
      "city": "MAIA",
      "lon": "-8.607522133560636",
      "lat": "41.22814999712689"
    },
    {
      "id": "pt.ine.add.PTCONT.3567007",
      "street": "R ALTINO DA SILVA GOMES",
      "house": "156",
      "postcode": "4470-526",
      "city": "MAIA",
      "lon": "-8.607522133560636",
      "lat": "41.22814999712689"
    },
    {
      "id": "pt.ine.add.PTCONT.3567010",
      "street": "R ALTINO DA SILVA GOMES",
      "house": "156",
      "postcode": "4470-526",
      "city": "MAIA",
      "lon": "-8.607522133560636",
      "lat": "41.22814999712689"
    },
    {
      "id": "pt.ine.add.PTCONT.3567011",
      "street": "R ALTINO DA SILVA GOMES",
      "house": "156",
      "postcode": "4470-526",
      "city": "MAIA",
      "lon": "-8.607522133560636",
      "lat": "41.22814999712689"
    },
    {
      "id": "pt.ine.add.PTCONT.3567012",
      "street": "R ALTINO DA SILVA GOMES",
      "house": "156",
      "postcode": "4470-526",
      "city": "MAIA",
      "lon": "-8.607522133560636",
      "lat": "41.22814999712689"
    },
    {
      "id": "pt.ine.add.PTCONT.3567013",
      "street": "R ALTINO DA SILVA GOMES",
      "house": "156",
      "postcode": "4470-526",
      "city": "MAIA",
      "lon": "-8.607522133560636",
      "lat": "41.22814999712689"
    },
    {
      "id": "pt.ine.add.PTCONT.3567014",
      "street": "R ALTINO DA SILVA GOMES",
      "house": "156",
      "postcode": "4470-526",
      "city": "MAIA",
      "lon": "-8.607522133560636",
      "lat": "41.22814999712689"
    },
    {
      "id": "pt.ine.add.PTCONT.3567015",
      "street": "R ALTINO DA SILVA GOMES",
      "house": "156",
      "postcode": "4470-526",
      "city": "MAIA",
      "lon": "-8.607522133560636",
      "lat": "41.22814999712689"
    },
    {
      "id": "pt.ine.add.PTCONT.3567016",
      "street": "R ALTINO DA SILVA GOMES",
      "house": "156",
      "postcode": "4470-526",
      "city": "MAIA",
      "lon": "-8.607522133560636",
      "lat": "41.22814999712689"
    },
    {
      "id": "pt.ine.add.PTCONT.3567017",
      "street": "R ALTINO DA SILVA GOMES",
      "house": "156",
      "postcode": "4470-526",
      "city": "MAIA",
      "lon": "-8.607522133560636",
      "lat": "41.22814999712689"
    },
    {
      "id": "pt.ine.add.PTCONT.3567018",
      "street": "R ALTINO DA SILVA GOMES",
      "house": "156",
      "postcode": "4470-526",
      "city": "MAIA",
      "lon": "-8.607522133560636",
      "lat": "41.22814999712689"
    },
    {
      "id": "pt.ine.add.PTCONT.3567019",
      "street": "R ALTINO DA SILVA GOMES",
      "house": "156",
      "postcode": "4470-526",
      "city": "MAIA",
      "lon": "-8.607522133560636",
      "lat": "41.22814999712689"
    },
    {
      "id": "pt.ine.add.PTCONT.3567020",
      "street": "R ALTINO DA SILVA GOMES",
      "house": "156",
      "postcode": "4470-526",
      "city": "MAIA",
      "lon": "-8.607522133560636",
      "lat": "41.22814999712689"
    },
    {
      "id": "pt.ine.add.PTCONT.3567021",
      "street": "R ALTINO DA SILVA GOMES",
      "house": "156",
      "postcode": "4470-526",
      "city": "MAIA",
      "lon": "-8.607522133560636",
      "lat": "41.22814999712689"
    },
    {
      "id": "pt.ine.add.PTCONT.3567022",
      "street": "R ALTINO DA SILVA GOMES",
      "house": "156",
      "postcode": "4470-526",
      "city": "MAIA",
      "lon": "-8.607522133560636",
      "lat": "41.22814999712689"
    },
    {
      "id": "pt.ine.add.PTCONT.3567026",
      "street": "R ALTINO DA SILVA GOMES",
      "house": "156",
      "postcode": "4470-526",
      "city": "MAIA",
      "lon": "-8.607522133560636",
      "lat": "41.22814999712689"
    },
    {
      "id": "pt.ine.add.PTCONT.3570812",
      "street": "R ALTINO DA SILVA GOMES",
      "house": "156",
      "postcode": "4470-526",
      "city": "MAIA",
      "lon": "-8.607522133560636",
      "lat": "41.22814999712689"
    },
    {
      "id": "pt.ine.add.PTCONT.3570813",
      "street": "R ALTINO DA SILVA GOMES",
      "house": "156",
      "postcode": "4470-526",
      "city": "MAIA",
      "lon": "-8.607522133560636",
      "lat": "41.22814999712689"
    },
    {
      "id": "pt.ine.add.PTCONT.3571904",
      "street": "R ALTINO DA SILVA GOMES",
      "house": "156",
      "postcode": "4470-526",
      "city": "MAIA",
      "lon": "-8.607522133560636",
      "lat": "41.22814999712689"
    },
    {
      "id": "pt.ine.add.PTCONT.3571909",
      "street": "R ALTINO DA SILVA GOMES",
      "house": "156",
      "postcode": "4470-526",
      "city": "MAIA",
      "lon": "-8.607522133560636",
      "lat": "41.22814999712689"
    },
    {
      "id": "pt.ine.add.PTCONT.3573362",
      "street": "R CENTRAL",
      "house": "51",
      "postcode": "4470-270",
      "city": "MAIA",
      "lon": "-8.607401504377854",
      "lat": "41.22853531801496"
    },
    {
      "id": "pt.ine.add.PTCONT.3670015",
      "street": "R CENTRAL",
      "house": "99",
      "postcode": "4470-270",
      "city": "MAIA",
      "lon": "-8.60740555003439",
      "lat": "41.22909512891209"
    },
    {
      "id": "pt.ine.add.PTCONT.3709017",
      "street": "TV JUSTINIANO PACHECO",
      "house": "95",
      "postcode": "4470-501",
      "city": "MAIA",
      "lon": "-8.60766025862619",
      "lat": "41.2283897771652"
    },
    {
      "id": "pt.ine.add.PTCONT.3842382",
      "street": "R STO CONDESTÁVEL - BAIRRO EDP - CASA 1",
      "house": "",
      "postcode": "4470-284",
      "city": "MAIA",
      "lon": "-8.606712954466047",
      "lat": "41.22840544669255"
    },
    {
      "id": "pt.ine.add.PTCONT.3872852",
      "street": "R CENTRAL",
      "house": "47",
      "postcode": "4470-270",
      "city": "MAIA",
      "lon": "-8.607384999354101",
      "lat": "41.22847548621444"
    },
    {
      "id": "pt.ine.add.PTCONT.3920158",
      "street": "R CENTRAL",
      "house": "109",
      "postcode": "4470-270",
      "city": "MAIA",
      "lon": "-8.607385707155942",
      "lat": "41.22914728573736"
    },
    {
      "id": "pt.ine.add.PTCONT.3999140",
      "street": "R SANTO CONDESTÁVEL",
      "house": "2",
      "postcode": "4470-284",
      "city": "MAIA",
      "lon": "-8.606978717896094",
      "lat": "41.228872573604235"
    },
    {
      "id": "pt.ine.add.PTCONT.4012273",
      "street": "R CENTRAL",
      "house": "91",
      "postcode": "4470-270",
      "city": "MAIA",
      "lon": "-8.607419194595233",
      "lat": "41.22904612928757"
    },
    {
      "id": "pt.ine.add.PTCONT.4117228",
      "street": "R DA CENTRAL",
      "house": "39",
      "postcode": "4470-270",
      "city": "MAIA",
      "lon": "-8.607374726941107",
      "lat": "41.22841758085948"
    },
    {
      "id": "pt.ine.add.PTCONT.4188845",
      "street": "TV JUSTINIANO PACHECO",
      "house": "83",
      "postcode": "4470-501",
      "city": "MAIA",
      "lon": "-8.60768909528769",
      "lat": "41.22850555544973"
    },
    {
      "id": "pt.ine.add.PTCONT.4265135",
      "street": "R SANTO CONDESTÁVEL",
      "house": "3",
      "postcode": "4470-276",
      "city": "MAIA",
      "lon": "-8.606873393623289",
      "lat": "41.22915213829683"
    },
    {
      "id": "pt.ine.add.PTCONT.4284891",
      "street": "TV JUSTINIANO PACHECO",
      "house": "87",
      "postcode": "4470-501",
      "city": "MAIA",
      "lon": "-8.607676769614125",
      "lat": "41.228450402175476"
    }
  ]
}