{
  "data": {
    "distrito": "Viseu",
    "concelho": "Moimenta da Beira",
    "freguesia": "Caria",
    "OBJECTID": 346,
    "BGRI2021": "18070700117",
    "DT21": "18",
    "DTMN21": "1807",
    "DTMNFR21": "180707",
    "DTMNFRSEC21": "180707001",
    "SECNUM21": "001",
    "SSNUM21": "17",
    "SECSSNUM21": "00117",
    "OBJECTID_1": 192793,
    "DT": "18",
    "CC": "07",
    "fr": "07",
    "SEC": "001",
    "SS": "17"
  },
  "addresses": [
    {
      "id": "pt.ine.add.PTCONT.5429217",
      "street": "QTA COLINA",
      "house": "",
      "postcode": "3620-106",
      "city": "CARIA MBR",
      "lon": "-7.614601450213474",
      "lat": "40.92222222237566"
    },
    {
      "id": "pt.ine.add.PTCONT.5469289",
      "street": "QTA CARMANA",
      "house": "",
      "postcode": "3620-106",
      "city": "CARIA MBR",
      "lon": "-7.60775979106679",
      "lat": "40.92567607553115"
    },
    {
      "id": "pt.ine.add.PTCONT.5474800",
      "street": "R BACELO",
      "house": "",
      "postcode": "3620-105",
      "city": "CARIA MBR",
      "lon": "-7.620434974200273",
      "lat": "40.927777191511005"
    },
    {
      "id": "pt.ine.add.PTCONT.5490977",
      "street": "TV ESCOLA",
      "house": "",
      "postcode": "3620-100",
      "city": "CARIA MBR",
      "lon": "-7.60054142423396",
      "lat": "40.930118296299334"
    },
    {
      "id": "pt.ine.add.PTCONT.5503790",
      "street": "ESTR LAPA",
      "house": "",
      "postcode": "3620-104",
      "city": "CARIA MBR",
      "lon": "-7.616316146150913",
      "lat": "40.92003277119763"
    },
    {
      "id": "pt.ine.add.PTCONT.5524461",
      "street": "ESTR NACIONAL",
      "house": "",
      "postcode": "3620-104",
      "city": "CARIA MBR",
      "lon": "-7.616007083950173",
      "lat": "40.92008541396949"
    },
    {
      "id": "pt.ine.add.PTCONT.5524462",
      "street": "",
      "house": "",
      "postcode": "3620-104",
      "city": "CARIA MBR",
      "lon": "-7.617341025944899",
      "lat": "40.91952409123472"
    },
    {
      "id": "pt.ine.add.PTCONT.5538831",
      "street": "R PRAÃ‡A",
      "house": "",
      "postcode": "3620-105",
      "city": "CARIA MBR",
      "lon": "-7.618845758858069",
      "lat": "40.92296160486155"
    },
    {
      "id": "pt.ine.add.PTCONT.5552840",
      "street": "R SENHOR DOS AFLITOS",
      "house": "",
      "postcode": "3620-105",
      "city": "CARIA MBR",
      "lon": "-7.620104086199973",
      "lat": "40.92450701395037"
    },
    {
      "id": "pt.ine.add.PTCONT.5630932",
      "street": "R BACELO",
      "house": "",
      "postcode": "3620-105",
      "city": "CARIA MBR",
      "lon": "-7.620517270999981",
      "lat": "40.92634581033892"
    },
    {
      "id": "pt.ine.add.PTCONT.5630933",
      "street": "R BACELO",
      "house": "",
      "postcode": "3620-105",
      "city": "CARIA MBR",
      "lon": "-7.620517270999981",
      "lat": "40.92634581033892"
    },
    {
      "id": "pt.ine.add.PTCONT.5640059",
      "street": "R PEREIRAS",
      "house": "",
      "postcode": "3620-104",
      "city": "CARIA MBR",
      "lon": "-7.618490880097728",
      "lat": "40.91973633666247"
    },
    {
      "id": "pt.ine.add.PTCONT.5644141",
      "street": "R BACELO",
      "house": "",
      "postcode": "3620-105",
      "city": "CARIA MBR",
      "lon": "-7.620509852182693",
      "lat": "40.92576947656924"
    },
    {
      "id": "pt.ine.add.PTCONT.5645361",
      "street": "TV ESCOLA",
      "house": "",
      "postcode": "3620-100",
      "city": "CARIA MBR",
      "lon": "-7.6004595454141946",
      "lat": "40.92996483838793"
    }
  ]
}