{
  "data": {
    "distrito": "Viseu",
    "concelho": "Mangualde",
    "freguesia": "Alcafache",
    "OBJECTID": 506,
    "BGRI2021": "18060200139",
    "DT21": "18",
    "DTMN21": "1806",
    "DTMNFR21": "180602",
    "DTMNFRSEC21": "180602001",
    "SECNUM21": "001",
    "SSNUM21": "39",
    "SECSSNUM21": "00139",
    "OBJECTID_1": 191796,
    "DT": "18",
    "CC": "06",
    "fr": "02",
    "SEC": "001",
    "SS": "39"
  },
  "addresses": [
    {
      "id": "pt.ine.add.PTCONT.5471165",
      "street": "R RIBEIRO DA COSTA",
      "house": "",
      "postcode": "3530-027",
      "city": "ALCAFACHE",
      "lon": "-7.850339146683438",
      "lat": "40.6002752799747"
    },
    {
      "id": "pt.ine.add.PTCONT.5476615",
      "street": "R RIBEIRO DA COSTA QTA DO PINHEIRO",
      "house": "",
      "postcode": "3530-027",
      "city": "ALCAFACHE",
      "lon": "-7.855123608128872",
      "lat": "40.600376946064564"
    },
    {
      "id": "pt.ine.add.PTCONT.5520654",
      "street": "R RIBEIRO DA COSTA QTA DO PINHEIRO",
      "house": "",
      "postcode": "3530-027",
      "city": "ALCAFACHE",
      "lon": "-7.855592759011877",
      "lat": "40.60120655669173"
    },
    {
      "id": "pt.ine.add.PTCONT.5557871",
      "street": "QTA DO VALE MARINHO",
      "house": "",
      "postcode": "3530-027",
      "city": "ALCAFACHE",
      "lon": "-7.853776851229717",
      "lat": "40.6060289880908"
    },
    {
      "id": "pt.ine.add.PTCONT.5558475",
      "street": "R PRINCIPAL",
      "house": "65",
      "postcode": "3530-027",
      "city": "ALCAFACHE",
      "lon": "-7.847251789654154",
      "lat": "40.603932813905324"
    },
    {
      "id": "pt.ine.add.PTCONT.5596608",
      "street": "QTA S EUFEMIA",
      "house": "",
      "postcode": "3530-027",
      "city": "ALCAFACHE",
      "lon": "-7.846241239923639",
      "lat": "40.60263355403291"
    },
    {
      "id": "pt.ine.add.PTCONT.5620730",
      "street": "R PRINCIPAL",
      "house": "65",
      "postcode": "3530-027",
      "city": "ALCAFACHE",
      "lon": "-7.847309752523817",
      "lat": "40.60419410925447"
    },
    {
      "id": "pt.ine.add.PTCONT.5655338",
      "street": "R RIBEIRO DA COSTA QTA DO PINHEIRO",
      "house": "",
      "postcode": "3530-027",
      "city": "ALCAFACHE",
      "lon": "-7.854743828218281",
      "lat": "40.6007902726986"
    }
  ]
}