{
  "data": {
    "distrito": "Lisboa",
    "concelho": "Lisboa",
    "freguesia": "Santa Maria Maior",
    "OBJECTID": 1200,
    "BGRI2021": "11066501206",
    "DT21": "11",
    "DTMN21": "1106",
    "DTMNFR21": "110665",
    "DTMNFRSEC21": "110665012",
    "SECNUM21": "012",
    "SSNUM21": "06",
    "SECSSNUM21": "01206",
    "OBJECTID_1": 103569,
    "DT": "11",
    "CC": "06",
    "fr": "65",
    "SEC": "012",
    "SS": "06"
  },
  "addresses": [
    {
      "id": "pt.ine.add.PTCONT.2269207",
      "street": "POÇO DO BORRATEM",
      "house": "25",
      "postcode": "1100-408",
      "city": "LISBOA",
      "lon": "-9.136293028146804",
      "lat": "38.71401964033709"
    },
    {
      "id": "pt.ine.add.PTCONT.2269208",
      "street": "POÇO DO BORRATEM",
      "house": "25",
      "postcode": "1100-408",
      "city": "LISBOA",
      "lon": "-9.136293028146804",
      "lat": "38.71401964033709"
    },
    {
      "id": "pt.ine.add.PTCONT.2269209",
      "street": "POÇO DO BORRATEM",
      "house": "25",
      "postcode": "1100-408",
      "city": "LISBOA",
      "lon": "-9.136293028146804",
      "lat": "38.71401964033709"
    },
    {
      "id": "pt.ine.add.PTCONT.2327944",
      "street": "POÇO DO BORRATEM",
      "house": "33",
      "postcode": "1100-408",
      "city": "LISBOA",
      "lon": "-9.136404587637438",
      "lat": "38.713775469986686"
    },
    {
      "id": "pt.ine.add.PTCONT.2327945",
      "street": "POÇO DO BORRATEM",
      "house": "33",
      "postcode": "1100-408",
      "city": "LISBOA",
      "lon": "-9.136404587637438",
      "lat": "38.713775469986686"
    },
    {
      "id": "pt.ine.add.PTCONT.2691453",
      "street": "LG TRIGUEIROS",
      "house": "9",
      "postcode": "1100-611",
      "city": "LISBOA",
      "lon": "-9.136093317779896",
      "lat": "38.71371508546757"
    },
    {
      "id": "pt.ine.add.PTCONT.2691454",
      "street": "LG TRIGUEIROS",
      "house": "9",
      "postcode": "1100-611",
      "city": "LISBOA",
      "lon": "-9.136093317779896",
      "lat": "38.71371508546757"
    },
    {
      "id": "pt.ine.add.PTCONT.3076114",
      "street": "BC ROSENDO",
      "house": "14",
      "postcode": "1100-460",
      "city": "LISBOA",
      "lon": "-9.13615041948431",
      "lat": "38.71368757191727"
    },
    {
      "id": "pt.ine.add.PTCONT.3076115",
      "street": "BC ROSENDO",
      "house": "14",
      "postcode": "1100-460",
      "city": "LISBOA",
      "lon": "-9.13615041948431",
      "lat": "38.71368757191727"
    },
    {
      "id": "pt.ine.add.PTCONT.3076116",
      "street": "BC ROSENDO",
      "house": "14",
      "postcode": "1100-460",
      "city": "LISBOA",
      "lon": "-9.13615041948431",
      "lat": "38.71368757191727"
    },
    {
      "id": "pt.ine.add.PTCONT.3076117",
      "street": "BC ROSENDO",
      "house": "14",
      "postcode": "1100-460",
      "city": "LISBOA",
      "lon": "-9.13615041948431",
      "lat": "38.71368757191727"
    },
    {
      "id": "pt.ine.add.PTCONT.3169126",
      "street": "BC SURRADORES",
      "house": "10",
      "postcode": "1100-591",
      "city": "LISBOA",
      "lon": "-9.136097345782545",
      "lat": "38.71400330343945"
    },
    {
      "id": "pt.ine.add.PTCONT.3169127",
      "street": "BC SURRADORES",
      "house": "10",
      "postcode": "1100-591",
      "city": "LISBOA",
      "lon": "-9.136097345782545",
      "lat": "38.71400330343945"
    },
    {
      "id": "pt.ine.add.PTCONT.3169128",
      "street": "BC SURRADORES",
      "house": "10",
      "postcode": "1100-591",
      "city": "LISBOA",
      "lon": "-9.136097345782545",
      "lat": "38.71400330343945"
    },
    {
      "id": "pt.ine.add.PTCONT.3169129",
      "street": "BC SURRADORES",
      "house": "10",
      "postcode": "1100-591",
      "city": "LISBOA",
      "lon": "-9.136097345782545",
      "lat": "38.71400330343945"
    },
    {
      "id": "pt.ine.add.PTCONT.3169130",
      "street": "BC SURRADORES",
      "house": "10",
      "postcode": "1100-591",
      "city": "LISBOA",
      "lon": "-9.136097345782545",
      "lat": "38.71400330343945"
    },
    {
      "id": "pt.ine.add.PTCONT.3169131",
      "street": "BC SURRADORES",
      "house": "10",
      "postcode": "1100-591",
      "city": "LISBOA",
      "lon": "-9.136097345782545",
      "lat": "38.71400330343945"
    },
    {
      "id": "pt.ine.add.PTCONT.3169132",
      "street": "BC SURRADORES",
      "house": "10",
      "postcode": "1100-591",
      "city": "LISBOA",
      "lon": "-9.136097345782545",
      "lat": "38.71400330343945"
    },
    {
      "id": "pt.ine.add.PTCONT.3169282",
      "street": "BC SURRADORES",
      "house": "10",
      "postcode": "1100-591",
      "city": "LISBOA",
      "lon": "-9.136097345782545",
      "lat": "38.71400330343945"
    },
    {
      "id": "pt.ine.add.PTCONT.3335127",
      "street": "BC SURRADORES",
      "house": "16",
      "postcode": "1100-591",
      "city": "LISBOA",
      "lon": "-9.135970261403713",
      "lat": "38.71395935414558"
    },
    {
      "id": "pt.ine.add.PTCONT.3335128",
      "street": "BC SURRADORES",
      "house": "16",
      "postcode": "1100-591",
      "city": "LISBOA",
      "lon": "-9.135970261403713",
      "lat": "38.71395935414558"
    },
    {
      "id": "pt.ine.add.PTCONT.3335129",
      "street": "BC SURRADORES",
      "house": "16",
      "postcode": "1100-591",
      "city": "LISBOA",
      "lon": "-9.135970261403713",
      "lat": "38.71395935414558"
    },
    {
      "id": "pt.ine.add.PTCONT.3335130",
      "street": "BC SURRADORES",
      "house": "16",
      "postcode": "1100-591",
      "city": "LISBOA",
      "lon": "-9.135970261403713",
      "lat": "38.71395935414558"
    },
    {
      "id": "pt.ine.add.PTCONT.3335131",
      "street": "BC SURRADORES",
      "house": "16",
      "postcode": "1100-591",
      "city": "LISBOA",
      "lon": "-9.135970261403713",
      "lat": "38.71395935414558"
    },
    {
      "id": "pt.ine.add.PTCONT.3344440",
      "street": "POCO BORRATEM",
      "house": "29",
      "postcode": "1100-408",
      "city": "LISBOA",
      "lon": "-9.136337500945373",
      "lat": "38.71391116403665"
    },
    {
      "id": "pt.ine.add.PTCONT.3344441",
      "street": "POCO BORRATEM",
      "house": "29",
      "postcode": "1100-408",
      "city": "LISBOA",
      "lon": "-9.136337500945373",
      "lat": "38.71391116403665"
    },
    {
      "id": "pt.ine.add.PTCONT.3344442",
      "street": "POCO BORRATEM",
      "house": "25",
      "postcode": "1100-408",
      "city": "LISBOA",
      "lon": "-9.136337500945373",
      "lat": "38.71391116403665"
    },
    {
      "id": "pt.ine.add.PTCONT.3344443",
      "street": "POCO BORRATEM",
      "house": "25",
      "postcode": "1100-408",
      "city": "LISBOA",
      "lon": "-9.136337500945373",
      "lat": "38.71391116403665"
    },
    {
      "id": "pt.ine.add.PTCONT.3408257",
      "street": "LG TRIGUEIROS",
      "house": "11",
      "postcode": "1100-611",
      "city": "LISBOA",
      "lon": "-9.135889286638253",
      "lat": "38.71392401713008"
    },
    {
      "id": "pt.ine.add.PTCONT.3408258",
      "street": "LG TRIGUEIROS",
      "house": "11",
      "postcode": "1100-611",
      "city": "LISBOA",
      "lon": "-9.135889286638253",
      "lat": "38.71392401713008"
    },
    {
      "id": "pt.ine.add.PTCONT.3408259",
      "street": "LG TRIGUEIROS",
      "house": "11",
      "postcode": "1100-611",
      "city": "LISBOA",
      "lon": "-9.135889286638253",
      "lat": "38.71392401713008"
    },
    {
      "id": "pt.ine.add.PTCONT.3408260",
      "street": "LG TRIGUEIROS",
      "house": "11",
      "postcode": "1100-611",
      "city": "LISBOA",
      "lon": "-9.135889286638253",
      "lat": "38.71392401713008"
    },
    {
      "id": "pt.ine.add.PTCONT.3408261",
      "street": "LG TRIGUEIROS",
      "house": "11",
      "postcode": "1100-611",
      "city": "LISBOA",
      "lon": "-9.135889286638253",
      "lat": "38.71392401713008"
    },
    {
      "id": "pt.ine.add.PTCONT.3408262",
      "street": "LG TRIGUEIROS",
      "house": "11",
      "postcode": "1100-611",
      "city": "LISBOA",
      "lon": "-9.135889286638253",
      "lat": "38.71392401713008"
    },
    {
      "id": "pt.ine.add.PTCONT.3408263",
      "street": "LG TRIGUEIROS",
      "house": "11",
      "postcode": "1100-611",
      "city": "LISBOA",
      "lon": "-9.135889286638253",
      "lat": "38.71392401713008"
    }
  ]
}