{
  "data": {
    "distrito": "Castelo Branco",
    "concelho": "Covilhã",
    "freguesia": "União das freguesias de Peso e Vales do Rio",
    "OBJECTID": 296,
    "BGRI2021": "05033600224",
    "DT21": "05",
    "DTMN21": "0503",
    "DTMNFR21": "050336",
    "DTMNFRSEC21": "050336002",
    "SECNUM21": "002",
    "SSNUM21": "24",
    "SECSSNUM21": "00224",
    "OBJECTID_1": 42809,
    "DT": "05",
    "CC": "03",
    "fr": "36",
    "SEC": "002",
    "SS": "24"
  },
  "addresses": [
    {
      "id": "pt.ine.add.PTCONT.964033",
      "street": "R OLIVAIS",
      "house": "30",
      "postcode": "6200-811",
      "city": "VALES DO RIO",
      "lon": "-7.548750513119555",
      "lat": "40.2038649743371"
    },
    {
      "id": "pt.ine.add.PTCONT.1052793",
      "street": "SIT CARVALHAL",
      "house": "",
      "postcode": "6200-811",
      "city": "VALES DO RIO",
      "lon": "-7.548672233145739",
      "lat": "40.20477416506743"
    },
    {
      "id": "pt.ine.add.PTCONT.1058510",
      "street": "R ESCOLAS",
      "house": "5",
      "postcode": "6200-811",
      "city": "VALES DO RIO",
      "lon": "-7.547381017926573",
      "lat": "40.203317704726516"
    },
    {
      "id": "pt.ine.add.PTCONT.1065476",
      "street": "R ESCOLAS",
      "house": "",
      "postcode": "6200-811",
      "city": "VALES DO RIO",
      "lon": "-7.547394312724294",
      "lat": "40.20313765594531"
    },
    {
      "id": "pt.ine.add.PTCONT.1085101",
      "street": "R DOS OLIVAIS",
      "house": "",
      "postcode": "6200-811",
      "city": "VALES DO RIO",
      "lon": "-7.548422354047885",
      "lat": "40.20378226506522"
    },
    {
      "id": "pt.ine.add.PTCONT.1097546",
      "street": "R ESCOLAS",
      "house": "",
      "postcode": "6200-811",
      "city": "VALES DO RIO",
      "lon": "-7.547356908384813",
      "lat": "40.20338962914998"
    }
  ]
}