{
  "data": {
    "distrito": "Lisboa",
    "concelho": "Cascais",
    "freguesia": "União das freguesias de Cascais e Estoril",
    "OBJECTID": 1473,
    "BGRI2021": "11050806208",
    "DT21": "11",
    "DTMN21": "1105",
    "DTMNFR21": "110508",
    "DTMNFRSEC21": "110508062",
    "SECNUM21": "062",
    "SSNUM21": "08",
    "SECSSNUM21": "06208",
    "OBJECTID_1": 101463,
    "DT": "11",
    "CC": "05",
    "fr": "08",
    "SEC": "062",
    "SS": "08"
  },
  "addresses": [
    {
      "id": "pt.ine.add.PTCONT.3017681",
      "street": "R EÇA DE QUEIROZ",
      "house": "25",
      "postcode": "2750-662",
      "city": "CASCAIS",
      "lon": "-9.433905899170268",
      "lat": "38.709420691719494"
    },
    {
      "id": "pt.ine.add.PTCONT.3103609",
      "street": "R FERNÃO LOPES",
      "house": "9",
      "postcode": "2750-663",
      "city": "CASCAIS",
      "lon": "-9.433365429321698",
      "lat": "38.708778150157244"
    },
    {
      "id": "pt.ine.add.PTCONT.3412548",
      "street": "R DIOGO DO COUTO",
      "house": "",
      "postcode": "2750-563",
      "city": "CASCAIS",
      "lon": "-9.433600457175949",
      "lat": "38.709694320524925"
    },
    {
      "id": "pt.ine.add.PTCONT.3412549",
      "street": "R DIOGO DO COUTO",
      "house": "",
      "postcode": "2750-563",
      "city": "CASCAIS",
      "lon": "-9.433600457175949",
      "lat": "38.709694320524925"
    },
    {
      "id": "pt.ine.add.PTCONT.3412550",
      "street": "R DIOGO DO COUTO",
      "house": "",
      "postcode": "2750-563",
      "city": "CASCAIS",
      "lon": "-9.433600457175949",
      "lat": "38.709694320524925"
    },
    {
      "id": "pt.ine.add.PTCONT.3412551",
      "street": "R DIOGO DO COUTO",
      "house": "",
      "postcode": "2750-563",
      "city": "CASCAIS",
      "lon": "-9.433600457175949",
      "lat": "38.709694320524925"
    },
    {
      "id": "pt.ine.add.PTCONT.3412977",
      "street": "R DIOGO DO COUTO",
      "house": "",
      "postcode": "2750-563",
      "city": "CASCAIS",
      "lon": "-9.433600457175949",
      "lat": "38.709694320524925"
    },
    {
      "id": "pt.ine.add.PTCONT.2498996",
      "street": "R JULIO DANTAS",
      "house": "",
      "postcode": "2750-670",
      "city": "CASCAIS",
      "lon": "-9.434028674225075",
      "lat": "38.709851694751045"
    },
    {
      "id": "pt.ine.add.PTCONT.2498997",
      "street": "R JULIO DANTAS",
      "house": "",
      "postcode": "2750-670",
      "city": "CASCAIS",
      "lon": "-9.434028674225075",
      "lat": "38.709851694751045"
    },
    {
      "id": "pt.ine.add.PTCONT.2498998",
      "street": "R JULIO DANTAS",
      "house": "",
      "postcode": "2750-670",
      "city": "CASCAIS",
      "lon": "-9.434028674225075",
      "lat": "38.709851694751045"
    },
    {
      "id": "pt.ine.add.PTCONT.2498999",
      "street": "R JULIO DANTAS",
      "house": "",
      "postcode": "2750-670",
      "city": "CASCAIS",
      "lon": "-9.434028674225075",
      "lat": "38.709851694751045"
    },
    {
      "id": "pt.ine.add.PTCONT.2499000",
      "street": "R JULIO DANTAS",
      "house": "",
      "postcode": "2750-670",
      "city": "CASCAIS",
      "lon": "-9.434028674225075",
      "lat": "38.709851694751045"
    },
    {
      "id": "pt.ine.add.PTCONT.2499001",
      "street": "R JULIO DANTAS",
      "house": "",
      "postcode": "2750-670",
      "city": "CASCAIS",
      "lon": "-9.434028674225075",
      "lat": "38.709851694751045"
    },
    {
      "id": "pt.ine.add.PTCONT.2692067",
      "street": "R EÇA DE QUEIROZ",
      "house": "I88",
      "postcode": "2750-662",
      "city": "CASCAIS",
      "lon": "-9.433764544215398",
      "lat": "38.709233102894984"
    },
    {
      "id": "pt.ine.add.PTCONT.2719374",
      "street": "R JULIO DANTAS",
      "house": "",
      "postcode": "2750-670",
      "city": "CASCAIS",
      "lon": "-9.43395099076416",
      "lat": "38.71000568988059"
    },
    {
      "id": "pt.ine.add.PTCONT.2719375",
      "street": "R JULIO DANTAS",
      "house": "",
      "postcode": "2750-670",
      "city": "CASCAIS",
      "lon": "-9.43395099076416",
      "lat": "38.71000568988059"
    },
    {
      "id": "pt.ine.add.PTCONT.2719376",
      "street": "R JULIO DANTAS",
      "house": "",
      "postcode": "2750-670",
      "city": "CASCAIS",
      "lon": "-9.43395099076416",
      "lat": "38.71000568988059"
    },
    {
      "id": "pt.ine.add.PTCONT.2719377",
      "street": "R JULIO DANTAS",
      "house": "",
      "postcode": "2750-670",
      "city": "CASCAIS",
      "lon": "-9.43395099076416",
      "lat": "38.71000568988059"
    },
    {
      "id": "pt.ine.add.PTCONT.2719378",
      "street": "R JULIO DANTAS",
      "house": "",
      "postcode": "2750-670",
      "city": "CASCAIS",
      "lon": "-9.43395099076416",
      "lat": "38.71000568988059"
    },
    {
      "id": "pt.ine.add.PTCONT.2719379",
      "street": "R JULIO DANTAS",
      "house": "",
      "postcode": "2750-670",
      "city": "CASCAIS",
      "lon": "-9.43395099076416",
      "lat": "38.71000568988059"
    },
    {
      "id": "pt.ine.add.PTCONT.2725945",
      "street": "R JULIO DANTAS",
      "house": "",
      "postcode": "2750-670",
      "city": "CASCAIS",
      "lon": "-9.43395099076416",
      "lat": "38.71000568988059"
    },
    {
      "id": "pt.ine.add.PTCONT.2745298",
      "street": "R DIOGO DO COUTO",
      "house": "",
      "postcode": "2750-563",
      "city": "CASCAIS",
      "lon": "-9.433863024320685",
      "lat": "38.70959231488054"
    },
    {
      "id": "pt.ine.add.PTCONT.2745299",
      "street": "R DIOGO DO COUTO",
      "house": "",
      "postcode": "2750-563",
      "city": "CASCAIS",
      "lon": "-9.433863024320685",
      "lat": "38.70959231488054"
    },
    {
      "id": "pt.ine.add.PTCONT.2745300",
      "street": "R DIOGO DO COUTO",
      "house": "",
      "postcode": "2750-563",
      "city": "CASCAIS",
      "lon": "-9.433863024320685",
      "lat": "38.70959231488054"
    },
    {
      "id": "pt.ine.add.PTCONT.2745301",
      "street": "R DIOGO DO COUTO",
      "house": "",
      "postcode": "2750-563",
      "city": "CASCAIS",
      "lon": "-9.433863024320685",
      "lat": "38.70959231488054"
    },
    {
      "id": "pt.ine.add.PTCONT.2745302",
      "street": "R DIOGO DO COUTO",
      "house": "",
      "postcode": "2750-563",
      "city": "CASCAIS",
      "lon": "-9.433863024320685",
      "lat": "38.70959231488054"
    },
    {
      "id": "pt.ine.add.PTCONT.2763992",
      "street": "R EÇA DE QUEIROZ",
      "house": "",
      "postcode": "2750-662",
      "city": "CASCAIS",
      "lon": "-9.433646667398932",
      "lat": "38.70907227579152"
    },
    {
      "id": "pt.ine.add.PTCONT.2817129",
      "street": "R EÇA DE QUEIROZ",
      "house": "28",
      "postcode": "2750-662",
      "city": "CASCAIS",
      "lon": "-9.43349479891665",
      "lat": "38.708938849727"
    },
    {
      "id": "pt.ine.add.PTCONT.2835890",
      "street": "R JULIO DANTAS",
      "house": "",
      "postcode": "2750-670",
      "city": "CASCAIS",
      "lon": "-9.434105704378577",
      "lat": "38.709661676076735"
    },
    {
      "id": "pt.ine.add.PTCONT.2835891",
      "street": "R JULIO DANTAS",
      "house": "",
      "postcode": "2750-670",
      "city": "CASCAIS",
      "lon": "-9.434105704378577",
      "lat": "38.709661676076735"
    },
    {
      "id": "pt.ine.add.PTCONT.2835892",
      "street": "R JULIO DANTAS",
      "house": "",
      "postcode": "2750-670",
      "city": "CASCAIS",
      "lon": "-9.434105704378577",
      "lat": "38.709661676076735"
    },
    {
      "id": "pt.ine.add.PTCONT.2835893",
      "street": "R JULIO DANTAS",
      "house": "",
      "postcode": "2750-670",
      "city": "CASCAIS",
      "lon": "-9.434105704378577",
      "lat": "38.709661676076735"
    },
    {
      "id": "pt.ine.add.PTCONT.2835900",
      "street": "R JULIO DANTAS",
      "house": "",
      "postcode": "2750-670",
      "city": "CASCAIS",
      "lon": "-9.434105704378577",
      "lat": "38.709661676076735"
    },
    {
      "id": "pt.ine.add.PTCONT.2841834",
      "street": "R JULIO DANTAS",
      "house": "",
      "postcode": "2750-670",
      "city": "CASCAIS",
      "lon": "-9.434105704378577",
      "lat": "38.709661676076735"
    }
  ]
}