{
  "data": {
    "distrito": "Ã‰vora",
    "concelho": "Montemor-O-Novo",
    "freguesia": "Santiago do Escoural",
    "OBJECTID": 465,
    "BGRI2021": "07060500154",
    "DT21": "07",
    "DTMN21": "0706",
    "DTMNFR21": "070605",
    "DTMNFRSEC21": "070605001",
    "SECNUM21": "001",
    "SSNUM21": "54",
    "SECSSNUM21": "00154",
    "OBJECTID_1": 61778,
    "DT": "07",
    "CC": "06",
    "fr": "05",
    "SEC": "001",
    "SS": "54"
  },
  "addresses": [
    {
      "id": "pt.ine.add.PTCONT.1378580",
      "street": "MTE DOS SOLTEIROS",
      "house": "",
      "postcode": "7050-556",
      "city": "SANTIAGO DO ESCOURAL",
      "lon": "-8.239024508479826",
      "lat": "38.56541352546623"
    },
    {
      "id": "pt.ine.add.PTCONT.1410036",
      "street": "MTE DE COURELA",
      "house": "",
      "postcode": "7050-556",
      "city": "SANTIAGO DO ESCOURAL",
      "lon": "-8.230122746324454",
      "lat": "38.56692564743337"
    },
    {
      "id": "pt.ine.add.PTCONT.1411824",
      "street": "MTE NOVO",
      "house": "",
      "postcode": "7050-556",
      "city": "SANTIAGO DO ESCOURAL",
      "lon": "-8.231273241675622",
      "lat": "38.56918580107316"
    },
    {
      "id": "pt.ine.add.PTCONT.1411825",
      "street": "MTE NOVO",
      "house": "",
      "postcode": "7050-556",
      "city": "SANTIAGO DO ESCOURAL",
      "lon": "-8.231273241675622",
      "lat": "38.56918580107316"
    },
    {
      "id": "pt.ine.add.PTCONT.1429485",
      "street": "MTE DE VALE DE MOS",
      "house": "",
      "postcode": "7050-556",
      "city": "SANTIAGO DO ESCOURAL",
      "lon": "-8.210919695764359",
      "lat": "38.56070615685829"
    },
    {
      "id": "pt.ine.add.PTCONT.1429486",
      "street": "MTE DE VALE DE MOS",
      "house": "",
      "postcode": "7050-556",
      "city": "SANTIAGO DO ESCOURAL",
      "lon": "-8.210919695764359",
      "lat": "38.56070615685829"
    },
    {
      "id": "pt.ine.add.PTCONT.1429487",
      "street": "MTE DE VALE DE MOS",
      "house": "",
      "postcode": "7050-556",
      "city": "SANTIAGO DO ESCOURAL",
      "lon": "-8.210919695764359",
      "lat": "38.56070615685829"
    },
    {
      "id": "pt.ine.add.PTCONT.1429488",
      "street": "MTE DE VALE DE MOS",
      "house": "",
      "postcode": "7050-556",
      "city": "SANTIAGO DO ESCOURAL",
      "lon": "-8.210919695764359",
      "lat": "38.56070615685829"
    },
    {
      "id": "pt.ine.add.PTCONT.1437426",
      "street": "MTE NOVO",
      "house": "",
      "postcode": "7050-556",
      "city": "SANTIAGO DO ESCOURAL",
      "lon": "-8.230963563225139",
      "lat": "38.56928515293142"
    },
    {
      "id": "pt.ine.add.PTCONT.1447908",
      "street": "MTE DE VALINHOS",
      "house": "",
      "postcode": "7050-556",
      "city": "SANTIAGO DO ESCOURAL",
      "lon": "-8.227458448702695",
      "lat": "38.5651801915428"
    },
    {
      "id": "pt.ine.add.PTCONT.1457079",
      "street": "MTE NOVO",
      "house": "",
      "postcode": "7050-556",
      "city": "SANTIAGO DO ESCOURAL",
      "lon": "-8.231020740449246",
      "lat": "38.569140970469455"
    },
    {
      "id": "pt.ine.add.PTCONT.1463084",
      "street": "MTE DA COURELA DA HORTA",
      "house": "",
      "postcode": "7050-524",
      "city": "SANTIAGO DO ESCOURAL",
      "lon": "-8.229366759668576",
      "lat": "38.56790818913955"
    },
    {
      "id": "pt.ine.add.PTCONT.1463877",
      "street": "MTE DE VALE DE MOS",
      "house": "",
      "postcode": "7050-523",
      "city": "SANTIAGO DO ESCOURAL",
      "lon": "-8.210724476842818",
      "lat": "38.5605441347134"
    },
    {
      "id": "pt.ine.add.PTCONT.1463878",
      "street": "MTE DE VALE DE MOS",
      "house": "",
      "postcode": "7050-523",
      "city": "SANTIAGO DO ESCOURAL",
      "lon": "-8.210724476842818",
      "lat": "38.5605441347134"
    }
  ]
}