{
  "data": {
    "distrito": "Braga",
    "concelho": "Barcelos",
    "freguesia": "Barqueiros",
    "OBJECTID": 538,
    "BGRI2021": "03021500128",
    "DT21": "03",
    "DTMN21": "0302",
    "DTMNFR21": "030215",
    "DTMNFRSEC21": "030215001",
    "SECNUM21": "001",
    "SSNUM21": "28",
    "SECSSNUM21": "00128",
    "OBJECTID_1": 21036,
    "DT": "03",
    "CC": "02",
    "fr": "15",
    "SEC": "001",
    "SS": "28"
  },
  "addresses": [
    {
      "id": "pt.ine.add.PTCONT.526936",
      "street": "R IGREJA",
      "house": "66",
      "postcode": "4740-685",
      "city": "BARQUEIROS BCL",
      "lon": "-8.731068656699268",
      "lat": "41.48894313246772"
    },
    {
      "id": "pt.ine.add.PTCONT.551979",
      "street": "R PADRE AFONSO MEIRA CARRILHO",
      "house": "190",
      "postcode": "4740-685",
      "city": "BARQUEIROS BCL",
      "lon": "-8.731586311173833",
      "lat": "41.48794101738051"
    },
    {
      "id": "pt.ine.add.PTCONT.562926",
      "street": "R S JOﾃグ",
      "house": "1517",
      "postcode": "4740-695",
      "city": "BARQUEIROS BCL",
      "lon": "-8.731724657155642",
      "lat": "41.49126270205247"
    },
    {
      "id": "pt.ine.add.PTCONT.591269",
      "street": "R IGREJA",
      "house": "130",
      "postcode": "4740-685",
      "city": "BARQUEIROS BCL",
      "lon": "-8.73084509892231",
      "lat": "41.48807092507154"
    },
    {
      "id": "pt.ine.add.PTCONT.615065",
      "street": "R DA IGREJA",
      "house": "",
      "postcode": "4740-685",
      "city": "BARQUEIROS BCL",
      "lon": "-8.731494951246352",
      "lat": "41.489724246656955"
    },
    {
      "id": "pt.ine.add.PTCONT.668485",
      "street": "R IGREJA",
      "house": "73",
      "postcode": "4740-685",
      "city": "BARQUEIROS BCL",
      "lon": "-8.730898621806997",
      "lat": "41.48868290589338"
    },
    {
      "id": "pt.ine.add.PTCONT.754874",
      "street": "R IGREJA",
      "house": "66",
      "postcode": "4740-685",
      "city": "BARQUEIROS BCL",
      "lon": "-8.730971789360662",
      "lat": "41.48882658652161"
    },
    {
      "id": "pt.ine.add.PTCONT.763823",
      "street": "R S JOﾃグ",
      "house": "1425",
      "postcode": "4740-695",
      "city": "BARQUEIROS BCL",
      "lon": "-8.731512725007805",
      "lat": "41.490354420599544"
    },
    {
      "id": "pt.ine.add.PTCONT.784792",
      "street": "R S JOﾃグ",
      "house": "",
      "postcode": "4740-695",
      "city": "BARQUEIROS BCL",
      "lon": "-8.73152677058567",
      "lat": "41.490579442654294"
    },
    {
      "id": "pt.ine.add.PTCONT.799886",
      "street": "R PADRE AFONSO MEIRA CARRILHO",
      "house": "150",
      "postcode": "4740-685",
      "city": "BARQUEIROS BCL",
      "lon": "-8.732323510863807",
      "lat": "41.48867549143634"
    },
    {
      "id": "pt.ine.add.PTCONT.832727",
      "street": "R S JOﾃグ",
      "house": "1139",
      "postcode": "4740-695",
      "city": "BARQUEIROS BCL",
      "lon": "-8.730410670619206",
      "lat": "41.4890095779927"
    },
    {
      "id": "pt.ine.add.PTCONT.845849",
      "street": "R CALVARIO",
      "house": "4",
      "postcode": "4740-685",
      "city": "BARQUEIROS BCL",
      "lon": "-8.731759872307029",
      "lat": "41.48988493659963"
    }
  ]
}