{
  "data": {
    "distrito": "Viseu",
    "concelho": "Viseu",
    "freguesia": "Abraveses",
    "OBJECTID": 1643,
    "BGRI2021": "18230100416",
    "DT21": "18",
    "DTMN21": "1823",
    "DTMNFR21": "182301",
    "DTMNFRSEC21": "182301004",
    "SECNUM21": "004",
    "SSNUM21": "16",
    "SECSSNUM21": "00416",
    "OBJECTID_1": 200923,
    "DT": "18",
    "CC": "23",
    "fr": "01",
    "SEC": "004",
    "SS": "16"
  },
  "addresses": [
    {
      "id": "pt.ine.add.PTCONT.5429908",
      "street": "R NSA SRA DA ESPERANÇA",
      "house": "28",
      "postcode": "3515-212",
      "city": "VISEU",
      "lon": "-7.933735856230024",
      "lat": "40.688375954114775"
    },
    {
      "id": "pt.ine.add.PTCONT.5468277",
      "street": "R NSA SRA DO CRASTO",
      "house": "",
      "postcode": "3515-215",
      "city": "VISEU",
      "lon": "-7.934573729876833",
      "lat": "40.68907079182689"
    },
    {
      "id": "pt.ine.add.PTCONT.5487172",
      "street": "R OUTEIRO CANADAS",
      "house": "S N",
      "postcode": "3515-217",
      "city": "VISEU",
      "lon": "-7.934191148717898",
      "lat": "40.69042090032662"
    },
    {
      "id": "pt.ine.add.PTCONT.5526615",
      "street": "R NSA SRA DO CRASTO",
      "house": "",
      "postcode": "3515-215",
      "city": "VISEU",
      "lon": "-7.934442528577039",
      "lat": "40.68943077070887"
    },
    {
      "id": "pt.ine.add.PTCONT.5536948",
      "street": "R OUTEIRO DAS CANADAS",
      "house": "25",
      "postcode": "3515-217",
      "city": "VISEU",
      "lon": "-7.933681985907846",
      "lat": "40.69057310885926"
    },
    {
      "id": "pt.ine.add.PTCONT.5545713",
      "street": "ALVARINHAL",
      "house": "",
      "postcode": "3515-217",
      "city": "VISEU",
      "lon": "-7.934331828860584",
      "lat": "40.69085338800425"
    },
    {
      "id": "pt.ine.add.PTCONT.5558990",
      "street": "R NSA SRA DA ESPERANÇA",
      "house": "11",
      "postcode": "3515-212",
      "city": "VISEU",
      "lon": "-7.933704223999954",
      "lat": "40.691050418194195"
    },
    {
      "id": "pt.ine.add.PTCONT.5562208",
      "street": "R NSA SRA DA ESPERANÇA",
      "house": "15",
      "postcode": "3515-212",
      "city": "VISEU",
      "lon": "-7.933667953895646",
      "lat": "40.691311503769114"
    },
    {
      "id": "pt.ine.add.PTCONT.5583110",
      "street": "R OUTEIRO CANADAS",
      "house": "27",
      "postcode": "3515-217",
      "city": "VISEU",
      "lon": "-7.933680992570377",
      "lat": "40.690906296283316"
    },
    {
      "id": "pt.ine.add.PTCONT.5594303",
      "street": "R NSA SRA DA ESPERANÇA",
      "house": "13",
      "postcode": "3515-212",
      "city": "VISEU",
      "lon": "-7.933881118167938",
      "lat": "40.69123983091918"
    },
    {
      "id": "pt.ine.add.PTCONT.5662400",
      "street": "R NSA SRA DA VITÓRIA",
      "house": "18",
      "postcode": "3515-213",
      "city": "VISEU",
      "lon": "-7.934156889568923",
      "lat": "40.69000660610881"
    }
  ]
}