{
  "data": {
    "distrito": "Lisboa",
    "concelho": "Vila Franca de Xira",
    "freguesia": "União das freguesias de Castanheira do Ribatejo e Cachoeiras",
    "OBJECTID": 1270,
    "BGRI2021": "11141400407",
    "DT21": "11",
    "DTMN21": "1114",
    "DTMNFR21": "111414",
    "DTMNFRSEC21": "111414004",
    "SECNUM21": "004",
    "SSNUM21": "07",
    "SECSSNUM21": "00407",
    "OBJECTID_1": 118063,
    "DT": "11",
    "CC": "14",
    "fr": "14",
    "SEC": "004",
    "SS": "07"
  },
  "addresses": [
    {
      "id": "pt.ine.add.PTCONT.2391957",
      "street": "TV INF D HENRIQUE",
      "house": "",
      "postcode": "2600-581",
      "city": "CACHOEIRAS",
      "lon": "-9.01922119110482",
      "lat": "38.98464866729666"
    },
    {
      "id": "pt.ine.add.PTCONT.2401390",
      "street": "R LUGAR DA FONTE RUA DIREITA",
      "house": "5",
      "postcode": "2600-581",
      "city": "CACHOEIRAS",
      "lon": "-9.01866761022949",
      "lat": "38.984679892723456"
    },
    {
      "id": "pt.ine.add.PTCONT.2495867",
      "street": "R LUGAR DA FONTE RUA DIREITA LARGO ESPÍRITO SANTO",
      "house": "",
      "postcode": "2600-581",
      "city": "CACHOEIRAS",
      "lon": "-9.018759256483866",
      "lat": "38.984625151830265"
    },
    {
      "id": "pt.ine.add.PTCONT.2755563",
      "street": "R DIREITA",
      "house": "31",
      "postcode": "2600-581",
      "city": "CACHOEIRAS",
      "lon": "-9.01886221804796",
      "lat": "38.984552309868704"
    },
    {
      "id": "pt.ine.add.PTCONT.2803765",
      "street": "R DIREITA",
      "house": "47",
      "postcode": "2600-581",
      "city": "CACHOEIRAS",
      "lon": "-9.018438606162883",
      "lat": "38.9848257513447"
    },
    {
      "id": "pt.ine.add.PTCONT.2948963",
      "street": "TV BACELINHO CASA DA JOANA",
      "house": "17",
      "postcode": "2600-581",
      "city": "CACHOEIRAS",
      "lon": "-9.019027257265419",
      "lat": "38.9848302909246"
    },
    {
      "id": "pt.ine.add.PTCONT.2963003",
      "street": "LG ESPÍRITO SANTO",
      "house": "27",
      "postcode": "2600-581",
      "city": "CACHOEIRAS",
      "lon": "-9.019103658444793",
      "lat": "38.98447841638141"
    },
    {
      "id": "pt.ine.add.PTCONT.3065203",
      "street": "R LUGAR DA FONTE RUA DIREITA",
      "house": "29",
      "postcode": "2600-581",
      "city": "CACHOEIRAS",
      "lon": "-9.018930784139547",
      "lat": "38.98449774404637"
    },
    {
      "id": "pt.ine.add.PTCONT.3262237",
      "street": "TV BACELINHOS",
      "house": "3",
      "postcode": "2600-581",
      "city": "CACHOEIRAS",
      "lon": "-9.01855322051779",
      "lat": "38.9847618287874"
    },
    {
      "id": "pt.ine.add.PTCONT.3262238",
      "street": "TV BACELINHOS",
      "house": "3",
      "postcode": "2600-581",
      "city": "CACHOEIRAS",
      "lon": "-9.01855322051779",
      "lat": "38.9847618287874"
    },
    {
      "id": "pt.ine.add.PTCONT.3282732",
      "street": "TV BACELINHO",
      "house": "15",
      "postcode": "2600-581",
      "city": "CACHOEIRAS",
      "lon": "-9.018980423806715",
      "lat": "38.98477660121247"
    },
    {
      "id": "pt.ine.add.PTCONT.3292068",
      "street": "TV INF D HENRIQUE",
      "house": "3",
      "postcode": "2600-581",
      "city": "CACHOEIRAS",
      "lon": "-9.018829057343735",
      "lat": "38.98466965974088"
    }
  ]
}