{
  "data": {
    "distrito": "Lisboa",
    "concelho": "Vila Franca de Xira",
    "freguesia": "União das freguesias de Castanheira do Ribatejo e Cachoeiras",
    "OBJECTID": 1225,
    "BGRI2021": "11141400422",
    "DT21": "11",
    "DTMN21": "1114",
    "DTMNFR21": "111414",
    "DTMNFRSEC21": "111414004",
    "SECNUM21": "004",
    "SSNUM21": "22",
    "SECSSNUM21": "00422",
    "OBJECTID_1": 118067,
    "DT": "11",
    "CC": "14",
    "fr": "14",
    "SEC": "004",
    "SS": "22"
  },
  "addresses": [
    {
      "id": "pt.ine.add.PTCONT.2337008",
      "street": "ESTR RABASCO",
      "house": "",
      "postcode": "2600-584",
      "city": "CACHOEIRAS",
      "lon": "-9.005903542103095",
      "lat": "38.9894059507989"
    },
    {
      "id": "pt.ine.add.PTCONT.2345659",
      "street": "CSL NOVO SANTO ANTONIO",
      "house": "1",
      "postcode": "2600-584",
      "city": "CACHOEIRAS",
      "lon": "-9.004348802165602",
      "lat": "38.98685942595167"
    },
    {
      "id": "pt.ine.add.PTCONT.2363780",
      "street": "CSL NOVO SANTO ANTONIO",
      "house": "1",
      "postcode": "2600-584",
      "city": "CACHOEIRAS",
      "lon": "-9.004095466303678",
      "lat": "38.98690635510284"
    },
    {
      "id": "pt.ine.add.PTCONT.2412181",
      "street": "CSL NOVO SANTO ANTÓNIO",
      "house": "",
      "postcode": "2600-584",
      "city": "CACHOEIRAS",
      "lon": "-9.004406336893172",
      "lat": "38.98778677426741"
    },
    {
      "id": "pt.ine.add.PTCONT.2662632",
      "street": "LUGAR DO RABASCO",
      "house": "",
      "postcode": "2600-581",
      "city": "CACHOEIRAS",
      "lon": "-9.007552415118967",
      "lat": "38.9902132916352"
    },
    {
      "id": "pt.ine.add.PTCONT.2689660",
      "street": "QTA MONTE RABASCO",
      "house": "",
      "postcode": "2600-584",
      "city": "CACHOEIRAS",
      "lon": "-9.007546541125357",
      "lat": "38.98973593565503"
    },
    {
      "id": "pt.ine.add.PTCONT.2822820",
      "street": "CSL RABASCO",
      "house": "",
      "postcode": "2600-584",
      "city": "CACHOEIRAS",
      "lon": "-9.003753383156942",
      "lat": "38.988187980693105"
    },
    {
      "id": "pt.ine.add.PTCONT.2822822",
      "street": "R ALTO CRUZ",
      "house": "5",
      "postcode": "2600-584",
      "city": "CACHOEIRAS",
      "lon": "-9.00413262624545",
      "lat": "38.98711325143353"
    },
    {
      "id": "pt.ine.add.PTCONT.3015570",
      "street": "CAM PENDURICALHOS",
      "house": "",
      "postcode": "2600-584",
      "city": "CACHOEIRAS",
      "lon": "-9.003561385547501",
      "lat": "38.98853170017867"
    },
    {
      "id": "pt.ine.add.PTCONT.3079363",
      "street": "R ALTO CRUZ",
      "house": "7",
      "postcode": "2600-584",
      "city": "CACHOEIRAS",
      "lon": "-9.004169896806012",
      "lat": "38.98732915447147"
    },
    {
      "id": "pt.ine.add.PTCONT.3134622",
      "street": "ESTR RABASCO",
      "house": "",
      "postcode": "2600-584",
      "city": "CACHOEIRAS",
      "lon": "-9.0063447471955",
      "lat": "38.98961883071139"
    },
    {
      "id": "pt.ine.add.PTCONT.3163210",
      "street": "ALTO DA CRUZ SITIO DOS ARCOS",
      "house": "",
      "postcode": "2600-584",
      "city": "CACHOEIRAS",
      "lon": "-9.004014732387864",
      "lat": "38.98785275079851"
    },
    {
      "id": "pt.ine.add.PTCONT.3301703",
      "street": "ESTR LOJA NOVA",
      "house": "",
      "postcode": "2600-584",
      "city": "CACHOEIRAS",
      "lon": "-9.00385479199007",
      "lat": "38.985160685765706"
    },
    {
      "id": "pt.ine.add.PTCONT.3321372",
      "street": "LUGAR DO RABASCO",
      "house": "",
      "postcode": "2600-581",
      "city": "CACHOEIRAS",
      "lon": "-9.008666887184374",
      "lat": "38.989799594145396"
    },
    {
      "id": "pt.ine.add.PTCONT.3347448",
      "street": "ESTR CASAL DO RABASCO",
      "house": "",
      "postcode": "2600-584",
      "city": "CACHOEIRAS",
      "lon": "-9.005590835742446",
      "lat": "38.98931821407661"
    },
    {
      "id": "pt.ine.add.PTCONT.3392217",
      "street": "ESTR LOJA NOVA",
      "house": "",
      "postcode": "2600-584",
      "city": "CACHOEIRAS",
      "lon": "-9.003833587620615",
      "lat": "38.985313972461626"
    },
    {
      "id": "pt.ine.add.PTCONT.3420656",
      "street": "R ALTO DA CRUZ",
      "house": "",
      "postcode": "2600-584",
      "city": "CACHOEIRAS",
      "lon": "-9.004171552681873",
      "lat": "38.98746425540208"
    }
  ]
}