{
  "data": {
    "distrito": "Coimbra",
    "concelho": "Oliveira do Hospital",
    "freguesia": "União das freguesias de Oliveira do Hospital e São Paio de Gramaços",
    "OBJECTID": 556,
    "BGRI2021": "06112400404",
    "DT21": "06",
    "DTMN21": "0611",
    "DTMNFR21": "061124",
    "DTMNFRSEC21": "061124004",
    "SECNUM21": "004",
    "SSNUM21": "04",
    "SECSSNUM21": "00404",
    "OBJECTID_1": 55094,
    "DT": "06",
    "CC": "11",
    "fr": "24",
    "SEC": "004",
    "SS": "04"
  },
  "addresses": [
    {
      "id": "pt.ine.add.PTCONT.1109655",
      "street": "QTA DA PONTE",
      "house": "",
      "postcode": "3400-698",
      "city": "SÃO PAIO DE GRAMAÇOS",
      "lon": "-7.845939258712623",
      "lat": "40.35508244193672"
    },
    {
      "id": "pt.ine.add.PTCONT.1145972",
      "street": "R COMEND MANUEL RODRIGUES LAGOS",
      "house": "",
      "postcode": "3400-055",
      "city": "OLIVEIRA DO HOSPITAL",
      "lon": "-7.851127826847454",
      "lat": "40.35573460750597"
    },
    {
      "id": "pt.ine.add.PTCONT.1146450",
      "street": "QTA DA PONTE",
      "house": "",
      "postcode": "3400-698",
      "city": "SÃO PAIO DE GRAMAÇOS",
      "lon": "-7.84499761570837",
      "lat": "40.35506208888774"
    },
    {
      "id": "pt.ine.add.PTCONT.1148891",
      "street": "AV ZONA INDUSTRIAL",
      "house": "",
      "postcode": "3400-060",
      "city": "OLIVEIRA DO HOSPITAL",
      "lon": "-7.848994005566042",
      "lat": "40.35928660666945"
    },
    {
      "id": "pt.ine.add.PTCONT.1160817",
      "street": "QTA DE MARGARIDO",
      "house": "",
      "postcode": "3400-055",
      "city": "OLIVEIRA DO HOSPITAL",
      "lon": "-7.8501752670965415",
      "lat": "40.35550714058594"
    },
    {
      "id": "pt.ine.add.PTCONT.1164610",
      "street": "R DA PONTE",
      "house": "14",
      "postcode": "3400-698",
      "city": "SÃO PAIO DE GRAMAÇOS",
      "lon": "-7.845354933105701",
      "lat": "40.35408136505058"
    },
    {
      "id": "pt.ine.add.PTCONT.1190954",
      "street": "AV CALOUSTE GULBENKIAN",
      "house": "",
      "postcode": "3400-161",
      "city": "OLIVEIRA DO HOSPITAL",
      "lon": "-7.85122218301368",
      "lat": "40.35851757530584"
    },
    {
      "id": "pt.ine.add.PTCONT.1195804",
      "street": "R COMEND MANUEL RODRIGUES LAGOS",
      "house": "5",
      "postcode": "3400-093",
      "city": "OLIVEIRA DO HOSPITAL",
      "lon": "-7.848752344222828",
      "lat": "40.355161437224055"
    },
    {
      "id": "pt.ine.add.PTCONT.1237100",
      "street": "R ANTÓNIO MONTEIRO",
      "house": "",
      "postcode": "3400-083",
      "city": "OLIVEIRA DO HOSPITAL",
      "lon": "-7.855460213725723",
      "lat": "40.358509815448954"
    },
    {
      "id": "pt.ine.add.PTCONT.1249444",
      "street": "TV ANTÓNIO CANASTRINHO",
      "house": "2",
      "postcode": "3400-176",
      "city": "OLIVEIRA DO HOSPITAL",
      "lon": "-7.853091003703429",
      "lat": "40.35923355903838"
    },
    {
      "id": "pt.ine.add.PTCONT.1300680",
      "street": "R DA PONTE",
      "house": "18",
      "postcode": "3400-698",
      "city": "SÃO PAIO DE GRAMAÇOS",
      "lon": "-7.848578610459269",
      "lat": "40.35448558792377"
    },
    {
      "id": "pt.ine.add.PTCONT.1302066",
      "street": "QTA DE MARGARIDO",
      "house": "",
      "postcode": "3400-055",
      "city": "OLIVEIRA DO HOSPITAL",
      "lon": "-7.853104266162105",
      "lat": "40.35887336630007"
    },
    {
      "id": "pt.ine.add.PTCONT.1306493",
      "street": "TV ANTÓNIO CANASTRINHO",
      "house": "1",
      "postcode": "3400-176",
      "city": "OLIVEIRA DO HOSPITAL",
      "lon": "-7.852832313079276",
      "lat": "40.35916088747196"
    },
    {
      "id": "pt.ine.add.PTCONT.1314931",
      "street": "LOTEAM DA QUINTA DA REGADA",
      "house": "",
      "postcode": "3400-708",
      "city": "SÃO PAIO DE GRAMAÇOS",
      "lon": "-7.845400984993734",
      "lat": "40.354324631562854"
    },
    {
      "id": "pt.ine.add.PTCONT.1334808",
      "street": "QTA DA PONTE",
      "house": "",
      "postcode": "3400-708",
      "city": "SÃO PAIO DE GRAMAÇOS",
      "lon": "-7.847248937261267",
      "lat": "40.35436523608958"
    }
  ]
}