{
  "data": {
    "distrito": "Ã‰vora",
    "concelho": "Reguengos de Monsaraz",
    "freguesia": "Corval",
    "OBJECTID": 423,
    "BGRI2021": "07110200237",
    "DT21": "07",
    "DTMN21": "0711",
    "DTMNFR21": "071102",
    "DTMNFRSEC21": "071102002",
    "SECNUM21": "002",
    "SSNUM21": "37",
    "SECSSNUM21": "00237",
    "OBJECTID_1": 63437,
    "DT": "07",
    "CC": "11",
    "fr": "02",
    "SEC": "002",
    "SS": "37"
  },
  "addresses": [
    {
      "id": "pt.ine.add.PTCONT.1371104",
      "street": "R CHELES",
      "house": "7",
      "postcode": "7200-082",
      "city": "CORVAL",
      "lon": "-7.46870709011796",
      "lat": "38.48998108031447"
    },
    {
      "id": "pt.ine.add.PTCONT.1398182",
      "street": "R PIAS",
      "house": "4",
      "postcode": "7200-082",
      "city": "CORVAL",
      "lon": "-7.468951127391698",
      "lat": "38.489647549950206"
    },
    {
      "id": "pt.ine.add.PTCONT.1414452",
      "street": "R PIAS",
      "house": "12",
      "postcode": "7200-082",
      "city": "CORVAL",
      "lon": "-7.470370612700078",
      "lat": "38.4896628872296"
    },
    {
      "id": "pt.ine.add.PTCONT.1419294",
      "street": "R N SENHORA DE FATIMA",
      "house": "29",
      "postcode": "7200-082",
      "city": "CORVAL",
      "lon": "-7.4693423555812295",
      "lat": "38.48805356846668"
    },
    {
      "id": "pt.ine.add.PTCONT.1419295",
      "street": "R NSA SRA FATIMA",
      "house": "",
      "postcode": "7200-082",
      "city": "CORVAL",
      "lon": "-7.4693423555812295",
      "lat": "38.48805356846668"
    },
    {
      "id": "pt.ine.add.PTCONT.1421853",
      "street": "R CHELES",
      "house": "5",
      "postcode": "7200-082",
      "city": "CORVAL",
      "lon": "-7.468731039468702",
      "lat": "38.48991905818483"
    },
    {
      "id": "pt.ine.add.PTCONT.1423354",
      "street": "R MARMORES",
      "house": "1",
      "postcode": "7200-082",
      "city": "CORVAL",
      "lon": "-7.468917524472097",
      "lat": "38.489384404099596"
    },
    {
      "id": "pt.ine.add.PTCONT.1441166",
      "street": "R CHELES",
      "house": "9",
      "postcode": "7200-082",
      "city": "CORVAL",
      "lon": "-7.468690502438364",
      "lat": "38.490027649746104"
    },
    {
      "id": "pt.ine.add.PTCONT.1443595",
      "street": "R CHELES",
      "house": "11",
      "postcode": "7200-082",
      "city": "CORVAL",
      "lon": "-7.4686614609429585",
      "lat": "38.49009486785243"
    },
    {
      "id": "pt.ine.add.PTCONT.1455273",
      "street": "R PIAS",
      "house": "2",
      "postcode": "7200-082",
      "city": "CORVAL",
      "lon": "-7.468813736436177",
      "lat": "38.489631186267616"
    }
  ]
}