{
  "data": {
    "distrito": "Évora",
    "concelho": "Reguengos de Monsaraz",
    "freguesia": "Corval",
    "OBJECTID": 338,
    "BGRI2021": "07110200241",
    "DT21": "07",
    "DTMN21": "0711",
    "DTMNFR21": "071102",
    "DTMNFRSEC21": "071102002",
    "SECNUM21": "002",
    "SSNUM21": "41",
    "SECSSNUM21": "00241",
    "OBJECTID_1": 63196,
    "DT": "07",
    "CC": "11",
    "fr": "02",
    "SEC": "002",
    "SS": "41"
  },
  "addresses": [
    {
      "id": "pt.ine.add.PTCONT.1376585",
      "street": "MTE CAVALEIRA NOVA",
      "house": "",
      "postcode": "7200-081",
      "city": "CORVAL",
      "lon": "-7.509043654811307",
      "lat": "38.470939598240676"
    },
    {
      "id": "pt.ine.add.PTCONT.1395912",
      "street": "MTE SOBREIRA",
      "house": "",
      "postcode": "7200-081",
      "city": "CORVAL",
      "lon": "-7.49241887249897",
      "lat": "38.461652227293634"
    },
    {
      "id": "pt.ine.add.PTCONT.1404997",
      "street": "MTE CAVALEIRA VELHA A",
      "house": "",
      "postcode": "7200-081",
      "city": "CORVAL",
      "lon": "-7.517154562805296",
      "lat": "38.467126908245916"
    },
    {
      "id": "pt.ine.add.PTCONT.1425248",
      "street": "HORTA DOS BARROCAIS",
      "house": "",
      "postcode": "7200-081",
      "city": "CORVAL",
      "lon": "-7.50378789189436",
      "lat": "38.46258767126868"
    },
    {
      "id": "pt.ine.add.PTCONT.1430428",
      "street": "MTE POÇO",
      "house": "",
      "postcode": "7200-081",
      "city": "CORVAL",
      "lon": "-7.4909970325845014",
      "lat": "38.46177956970822"
    },
    {
      "id": "pt.ine.add.PTCONT.1436668",
      "street": "MTE CAVALEIRA",
      "house": "",
      "postcode": "7200-081",
      "city": "CORVAL",
      "lon": "-7.511956615924655",
      "lat": "38.475999809649956"
    },
    {
      "id": "pt.ine.add.PTCONT.1445260",
      "street": "MTE COLAÇO",
      "house": "",
      "postcode": "7200-081",
      "city": "CORVAL",
      "lon": "-7.501670091358579",
      "lat": "38.4610628545805"
    },
    {
      "id": "pt.ine.add.PTCONT.1452563",
      "street": "MTE CAVALEIRA VELHA B",
      "house": "",
      "postcode": "7200-081",
      "city": "CORVAL",
      "lon": "-7.516972772377906",
      "lat": "38.466945783127315"
    }
  ]
}