{
  "data": {
    "distrito": "Porto",
    "concelho": "Paredes",
    "freguesia": "Vandoma",
    "OBJECTID": 1098,
    "BGRI2021": "13102200141",
    "DT21": "13",
    "DTMN21": "1310",
    "DTMNFR21": "131022",
    "DTMNFRSEC21": "131022001",
    "SECNUM21": "001",
    "SSNUM21": "41",
    "SECSSNUM21": "00141",
    "OBJECTID_1": 135888,
    "DT": "13",
    "CC": "10",
    "fr": "22",
    "SEC": "001",
    "SS": "41"
  },
  "addresses": [
    {
      "id": "pt.ine.add.PTCONT.3684193",
      "street": "R CENTRAL DAS ALMINHAS",
      "house": "34",
      "postcode": "4585-757",
      "city": "VANDOMA",
      "lon": "-8.38894327606769",
      "lat": "41.21387796500523"
    },
    {
      "id": "pt.ine.add.PTCONT.3773321",
      "street": "TV ALMINHAS",
      "house": "10",
      "postcode": "4585-757",
      "city": "VANDOMA",
      "lon": "-8.387025125181847",
      "lat": "41.214305411880815"
    },
    {
      "id": "pt.ine.add.PTCONT.3780811",
      "street": "R CENTRAL DAS ALMINHAS",
      "house": "36",
      "postcode": "4585-757",
      "city": "VANDOMA",
      "lon": "-8.38912210311453",
      "lat": "41.213868563301666"
    },
    {
      "id": "pt.ine.add.PTCONT.3845247",
      "street": "TV ALMINHAS",
      "house": "12",
      "postcode": "4585-757",
      "city": "VANDOMA",
      "lon": "-8.387001659700994",
      "lat": "41.21440451078456"
    },
    {
      "id": "pt.ine.add.PTCONT.3845563",
      "street": "TV ALMINHAS",
      "house": "20",
      "postcode": "4585-757",
      "city": "VANDOMA",
      "lon": "-8.387120379640269",
      "lat": "41.21426918466153"
    },
    {
      "id": "pt.ine.add.PTCONT.3884314",
      "street": "R CENTRAL ALMINHAS",
      "house": "41",
      "postcode": "4585-065",
      "city": "VANDOMA",
      "lon": "-8.389289005968905",
      "lat": "41.21385918784721"
    },
    {
      "id": "pt.ine.add.PTCONT.3895372",
      "street": "TV ALMINHAS",
      "house": "32",
      "postcode": "4585-757",
      "city": "VANDOMA",
      "lon": "-8.38745411818325",
      "lat": "41.214232430884984"
    },
    {
      "id": "pt.ine.add.PTCONT.3900639",
      "street": "TV ALMINHAS",
      "house": "32",
      "postcode": "4585-757",
      "city": "VANDOMA",
      "lon": "-8.38745411818325",
      "lat": "41.214232430884984"
    },
    {
      "id": "pt.ine.add.PTCONT.4157435",
      "street": "TV ALMINHAS",
      "house": "44",
      "postcode": "4585-757",
      "city": "VANDOMA",
      "lon": "-8.387704386930944",
      "lat": "41.214195860707484"
    },
    {
      "id": "pt.ine.add.PTCONT.4216446",
      "street": "R FERNANDO PESSOA",
      "house": "52",
      "postcode": "4585-785",
      "city": "VANDOMA",
      "lon": "-8.386918746874075",
      "lat": "41.214548762156824"
    },
    {
      "id": "pt.ine.add.PTCONT.4249147",
      "street": "AV MONTE DE AZEVIDO",
      "house": "51",
      "postcode": "4585-065",
      "city": "VANDOMA",
      "lon": "-8.387908845340498",
      "lat": "41.21464562289183"
    },
    {
      "id": "pt.ine.add.PTCONT.4284762",
      "street": "TV ALMINHAS",
      "house": "14",
      "postcode": "4585-757",
      "city": "VANDOMA",
      "lon": "-8.38692990542321",
      "lat": "41.214350643232564"
    },
    {
      "id": "pt.ine.add.PTCONT.4386156",
      "street": "AV MONTE AZEVIDO",
      "house": "37",
      "postcode": "4585-757",
      "city": "VANDOMA",
      "lon": "-8.387634551903249",
      "lat": "41.21463722517724"
    }
  ]
}