{
  "data": {
    "distrito": "Leiria",
    "concelho": "Castanheira de Pêra",
    "freguesia": "União das freguesias de Castanheira de Pêra e Coentral",
    "OBJECTID": 143,
    "BGRI2021": "10070300528",
    "DT21": "10",
    "DTMN21": "1007",
    "DTMNFR21": "100703",
    "DTMNFRSEC21": "100703005",
    "SECNUM21": "005",
    "SSNUM21": "28",
    "SECSSNUM21": "00528",
    "OBJECTID_1": 88874,
    "DT": "10",
    "CC": "07",
    "fr": "03",
    "SEC": "005",
    "SS": "28"
  },
  "addresses": [
    {
      "id": "pt.ine.add.PTCONT.1984610",
      "street": "",
      "house": "",
      "postcode": "3280-116",
      "city": "CASTANHEIRA DE PÊRA",
      "lon": "-8.199564631397793",
      "lat": "39.99951484916873"
    },
    {
      "id": "pt.ine.add.PTCONT.1986281",
      "street": "R FÁBRICA",
      "house": "",
      "postcode": "3280-102",
      "city": "CASTANHEIRA DE PÊRA",
      "lon": "-8.203932537131818",
      "lat": "39.999458225169604"
    },
    {
      "id": "pt.ine.add.PTCONT.2021037",
      "street": "R FÁBRICA",
      "house": "",
      "postcode": "3280-102",
      "city": "CASTANHEIRA DE PÊRA",
      "lon": "-8.204119445494745",
      "lat": "39.99901680705283"
    },
    {
      "id": "pt.ine.add.PTCONT.2038971",
      "street": "R FÁBRICA",
      "house": "",
      "postcode": "3280-102",
      "city": "CASTANHEIRA DE PÊRA",
      "lon": "-8.204026648449465",
      "lat": "39.99987245274622"
    },
    {
      "id": "pt.ine.add.PTCONT.2076488",
      "street": "R PRINCIPAL",
      "house": "",
      "postcode": "3280-116",
      "city": "CASTANHEIRA DE PÊRA",
      "lon": "-8.199225222239662",
      "lat": "39.99971317965345"
    },
    {
      "id": "pt.ine.add.PTCONT.2104298",
      "street": "R JOÃO BEBIANO",
      "house": "",
      "postcode": "3280-041",
      "city": "CASTANHEIRA DE PÊRA",
      "lon": "-8.208266222671314",
      "lat": "40.00023903516592"
    },
    {
      "id": "pt.ine.add.PTCONT.2126375",
      "street": "R FABRICA",
      "house": "",
      "postcode": "3280-050",
      "city": "CASTANHEIRA DE PÊRA",
      "lon": "-8.204027785150686",
      "lat": "40.000971208104616"
    },
    {
      "id": "pt.ine.add.PTCONT.2148370",
      "street": "R FÁBRICA",
      "house": "",
      "postcode": "3280-050",
      "city": "CASTANHEIRA DE PÊRA",
      "lon": "-8.204659687583781",
      "lat": "40.00052050988842"
    },
    {
      "id": "pt.ine.add.PTCONT.2170843",
      "street": "ESTR PRINCIPAL",
      "house": "",
      "postcode": "3280-116",
      "city": "CASTANHEIRA DE PÊRA",
      "lon": "-8.200068642829269",
      "lat": "39.99999188759094"
    },
    {
      "id": "pt.ine.add.PTCONT.2203553",
      "street": "",
      "house": "",
      "postcode": "3280-116",
      "city": "CASTANHEIRA DE PÊRA",
      "lon": "-8.201544292449327",
      "lat": "40.00012611862582"
    },
    {
      "id": "pt.ine.add.PTCONT.2212544",
      "street": "R FÁBRICA",
      "house": "",
      "postcode": "3280-050",
      "city": "CASTANHEIRA DE PÊRA",
      "lon": "-8.204191546786808",
      "lat": "40.00079098385419"
    },
    {
      "id": "pt.ine.add.PTCONT.2266527",
      "street": "",
      "house": "",
      "postcode": "3280-116",
      "city": "CASTANHEIRA DE PÊRA",
      "lon": "-8.201649578508793",
      "lat": "40.00001798203627"
    }
  ]
}