{
  "data": {
    "distrito": "Évora",
    "concelho": "Évora",
    "freguesia": "São Bento do Mato",
    "OBJECTID": 1632,
    "BGRI2021": "07050600128",
    "DT21": "07",
    "DTMN21": "0705",
    "DTMNFR21": "070506",
    "DTMNFRSEC21": "070506001",
    "SECNUM21": "001",
    "SSNUM21": "28",
    "SECSSNUM21": "00128",
    "OBJECTID_1": 60330,
    "DT": "07",
    "CC": "05",
    "fr": "06",
    "SEC": "001",
    "SS": "28"
  },
  "addresses": [
    {
      "id": "pt.ine.add.PTCONT.1375453",
      "street": "R COURELAS",
      "house": "",
      "postcode": "7005-127",
      "city": "AZARUJA",
      "lon": "-7.77049285077935",
      "lat": "38.69621356350462"
    },
    {
      "id": "pt.ine.add.PTCONT.1375457",
      "street": "COURELA DA PASMEIRA",
      "house": "",
      "postcode": "7005-127",
      "city": "AZARUJA",
      "lon": "-7.775670850069385",
      "lat": "38.697211662683664"
    },
    {
      "id": "pt.ine.add.PTCONT.1377125",
      "street": "MTE ROSEIRA",
      "house": "",
      "postcode": "7005-127",
      "city": "AZARUJA",
      "lon": "-7.769821959669345",
      "lat": "38.69477017187078"
    },
    {
      "id": "pt.ine.add.PTCONT.1381593",
      "street": "COURELA PASMEIRA",
      "house": "5",
      "postcode": "7005-127",
      "city": "AZARUJA",
      "lon": "-7.775648084714643",
      "lat": "38.6971665521857"
    },
    {
      "id": "pt.ine.add.PTCONT.1397823",
      "street": "COURELA DO DOUTOR",
      "house": "",
      "postcode": "7005-127",
      "city": "AZARUJA",
      "lon": "-7.773482308493862",
      "lat": "38.69349019268408"
    },
    {
      "id": "pt.ine.add.PTCONT.1397824",
      "street": "COURELA DO DOUTOR",
      "house": "",
      "postcode": "7005-127",
      "city": "AZARUJA",
      "lon": "-7.7736546805825135",
      "lat": "38.693764090495705"
    },
    {
      "id": "pt.ine.add.PTCONT.1397825",
      "street": "MTE VINHA",
      "house": "",
      "postcode": "7005-127",
      "city": "AZARUJA",
      "lon": "-7.773276395653042",
      "lat": "38.69585282616413"
    },
    {
      "id": "pt.ine.add.PTCONT.1397826",
      "street": "MTE VINHA",
      "house": "",
      "postcode": "7005-127",
      "city": "AZARUJA",
      "lon": "-7.773276395653042",
      "lat": "38.69585282616413"
    },
    {
      "id": "pt.ine.add.PTCONT.1399509",
      "street": "",
      "house": "",
      "postcode": "7005-127",
      "city": "AZARUJA",
      "lon": "-7.775352332312158",
      "lat": "38.69677803017085"
    },
    {
      "id": "pt.ine.add.PTCONT.1409327",
      "street": "MTE ROSEIRA",
      "house": "",
      "postcode": "7005-127",
      "city": "AZARUJA",
      "lon": "-7.769660491474455",
      "lat": "38.69487776836802"
    },
    {
      "id": "pt.ine.add.PTCONT.1416139",
      "street": "COURELA DAS PEDRAS",
      "house": "",
      "postcode": "7005-127",
      "city": "AZARUJA",
      "lon": "-7.775195628488813",
      "lat": "38.69823687610415"
    },
    {
      "id": "pt.ine.add.PTCONT.1417443",
      "street": "MTE DO RIBEIRO",
      "house": "",
      "postcode": "7005-127",
      "city": "AZARUJA",
      "lon": "-7.771256317381529",
      "lat": "38.697540131128086"
    },
    {
      "id": "pt.ine.add.PTCONT.1432495",
      "street": "COURELA DO PAVIO",
      "house": "",
      "postcode": "7005-127",
      "city": "AZARUJA",
      "lon": "-7.775652322637052",
      "lat": "38.69743588636504"
    },
    {
      "id": "pt.ine.add.PTCONT.1436414",
      "street": "MTE DO RIBEIRO",
      "house": "",
      "postcode": "7005-127",
      "city": "AZARUJA",
      "lon": "-7.772349727765834",
      "lat": "38.697264255778414"
    },
    {
      "id": "pt.ine.add.PTCONT.1437821",
      "street": "COURELA DO DOUTOR",
      "house": "",
      "postcode": "7005-127",
      "city": "AZARUJA",
      "lon": "-7.77358621128117",
      "lat": "38.69366478995945"
    },
    {
      "id": "pt.ine.add.PTCONT.1437822",
      "street": "QTA PASMEIRA",
      "house": "2",
      "postcode": "7005-127",
      "city": "AZARUJA",
      "lon": "-7.775615096149203",
      "lat": "38.69710312832433"
    },
    {
      "id": "pt.ine.add.PTCONT.1458892",
      "street": "CM 1185 - COURELA DO GINO",
      "house": "",
      "postcode": "7005-127",
      "city": "AZARUJA",
      "lon": "-7.770528516991325",
      "lat": "38.695979461339185"
    },
    {
      "id": "pt.ine.add.PTCONT.1462371",
      "street": "MTE DOUTOR",
      "house": "",
      "postcode": "7005-127",
      "city": "AZARUJA",
      "lon": "-7.773517787266374",
      "lat": "38.69355648133355"
    },
    {
      "id": "pt.ine.add.PTCONT.1462915",
      "street": "",
      "house": "",
      "postcode": "7005-127",
      "city": "AZARUJA",
      "lon": "-7.773855272861076",
      "lat": "38.69732293975596"
    }
  ]
}