{
  "data": {
    "distrito": "Évora",
    "concelho": "Estremoz",
    "freguesia": "União das freguesias de Estremoz (Santa Maria e Santo André)",
    "OBJECTID": 199,
    "BGRI2021": "07041400437",
    "DT21": "07",
    "DTMN21": "0704",
    "DTMNFR21": "070414",
    "DTMNFRSEC21": "070414004",
    "SECNUM21": "004",
    "SSNUM21": "37",
    "SECSSNUM21": "00437",
    "OBJECTID_1": 59725,
    "DT": "07",
    "CC": "04",
    "fr": "14",
    "SEC": "004",
    "SS": "37"
  },
  "addresses": [
    {
      "id": "pt.ine.add.PTCONT.1368364",
      "street": "CASA NOVA FONTAÍNHAS",
      "house": "",
      "postcode": "7100-078",
      "city": "SÃO DOMINGOS DE ANA LOURA",
      "lon": "-7.628994568004822",
      "lat": "38.85936493136703"
    },
    {
      "id": "pt.ine.add.PTCONT.1384034",
      "street": "MTE CASAS NOVAS",
      "house": "",
      "postcode": "7100-078",
      "city": "SÃO DOMINGOS DE ANA LOURA",
      "lon": "-7.629064263940847",
      "lat": "38.85928416111097"
    },
    {
      "id": "pt.ine.add.PTCONT.1385726",
      "street": "HORTA DAS FONTAÍNHAS",
      "house": "",
      "postcode": "7100-078",
      "city": "SÃO DOMINGOS DE ANA LOURA",
      "lon": "-7.624302633157132",
      "lat": "38.86138937724242"
    },
    {
      "id": "pt.ine.add.PTCONT.1399461",
      "street": "MTE DO ISAURINDO",
      "house": "",
      "postcode": "7100-078",
      "city": "SÃO DOMINGOS DE ANA LOURA",
      "lon": "-7.623265149555347",
      "lat": "38.856628684758796"
    },
    {
      "id": "pt.ine.add.PTCONT.1404626",
      "street": "",
      "house": "",
      "postcode": "7100-078",
      "city": "SÃO DOMINGOS DE ANA LOURA",
      "lon": "-7.6245420701330975",
      "lat": "38.861741727829845"
    },
    {
      "id": "pt.ine.add.PTCONT.1425613",
      "street": "",
      "house": "",
      "postcode": "7100-078",
      "city": "SÃO DOMINGOS DE ANA LOURA",
      "lon": "-7.624854932145464",
      "lat": "38.86149086880807"
    },
    {
      "id": "pt.ine.add.PTCONT.1428471",
      "street": "MTE GIL",
      "house": "",
      "postcode": "7100-078",
      "city": "SÃO DOMINGOS DE ANA LOURA",
      "lon": "-7.628628645345361",
      "lat": "38.858976011882156"
    },
    {
      "id": "pt.ine.add.PTCONT.1445484",
      "street": "MTE DO ESPANHOL",
      "house": "",
      "postcode": "7100-062",
      "city": "ESTREMOZ",
      "lon": "-7.622901007335628",
      "lat": "38.860833781356675"
    },
    {
      "id": "pt.ine.add.PTCONT.1458686",
      "street": "",
      "house": "",
      "postcode": "7100-078",
      "city": "SÃO DOMINGOS DE ANA LOURA",
      "lon": "-7.625528718223893",
      "lat": "38.86071011243542"
    },
    {
      "id": "pt.ine.add.PTCONT.1461235",
      "street": "CASA NOVA FONTAÍNHAS",
      "house": "",
      "postcode": "7100-078",
      "city": "SÃO DOMINGOS DE ANA LOURA",
      "lon": "-7.629075085066368",
      "lat": "38.85938329465971"
    },
    {
      "id": "pt.ine.add.PTCONT.1461236",
      "street": "MTE ALEGRE DAS FONTAÍNHAS",
      "house": "",
      "postcode": "7100-078",
      "city": "SÃO DOMINGOS DE ANA LOURA",
      "lon": "-7.624761866699547",
      "lat": "38.86161657424412"
    },
    {
      "id": "pt.ine.add.PTCONT.1462852",
      "street": "MTE DO MONTINHO",
      "house": "",
      "postcode": "7100-078",
      "city": "SÃO DOMINGOS DE ANA LOURA",
      "lon": "-7.629565932255502",
      "lat": "38.853494245311005"
    },
    {
      "id": "pt.ine.add.PTCONT.1464697",
      "street": "MTE DO MONTINHO",
      "house": "",
      "postcode": "7100-078",
      "city": "SÃO DOMINGOS DE ANA LOURA",
      "lon": "-7.629669037690751",
      "lat": "38.85357576090806"
    }
  ]
}