{
  "data": {
    "distrito": "Braga",
    "concelho": "Vila Nova de Famalicão",
    "freguesia": "Fradelos",
    "OBJECTID": 1473,
    "BGRI2021": "03121500223",
    "DT21": "03",
    "DTMN21": "0312",
    "DTMNFR21": "031215",
    "DTMNFRSEC21": "031215002",
    "SECNUM21": "002",
    "SSNUM21": "23",
    "SECSSNUM21": "00223",
    "OBJECTID_1": 30602,
    "DT": "03",
    "CC": "12",
    "fr": "15",
    "SEC": "002",
    "SS": "23"
  },
  "addresses": [
    {
      "id": "pt.ine.add.PTCONT.529346",
      "street": "R RIO AVE",
      "house": "700",
      "postcode": "4760-485",
      "city": "FRADELOS VNF",
      "lon": "-8.593775713283357",
      "lat": "41.37141645929069"
    },
    {
      "id": "pt.ine.add.PTCONT.610936",
      "street": "R SANTA LEOCADIA",
      "house": "587",
      "postcode": "4760-485",
      "city": "FRADELOS VNF",
      "lon": "-8.59752530547056",
      "lat": "41.37090616735063"
    },
    {
      "id": "pt.ine.add.PTCONT.610937",
      "street": "R SANTA LEOCADIA",
      "house": "587",
      "postcode": "4760-485",
      "city": "FRADELOS VNF",
      "lon": "-8.59752530547056",
      "lat": "41.37090616735063"
    },
    {
      "id": "pt.ine.add.PTCONT.610938",
      "street": "R SANTA LEOCADIA",
      "house": "587",
      "postcode": "4760-485",
      "city": "FRADELOS VNF",
      "lon": "-8.59752530547056",
      "lat": "41.37090616735063"
    },
    {
      "id": "pt.ine.add.PTCONT.611118",
      "street": "R SANTA LEOCADIA",
      "house": "587",
      "postcode": "4760-485",
      "city": "FRADELOS VNF",
      "lon": "-8.59752530547056",
      "lat": "41.37090616735063"
    },
    {
      "id": "pt.ine.add.PTCONT.611119",
      "street": "R SANTA LEOCADIA",
      "house": "587",
      "postcode": "4760-485",
      "city": "FRADELOS VNF",
      "lon": "-8.59752530547056",
      "lat": "41.37090616735063"
    },
    {
      "id": "pt.ine.add.PTCONT.611120",
      "street": "R SANTA LEOCADIA",
      "house": "587",
      "postcode": "4760-485",
      "city": "FRADELOS VNF",
      "lon": "-8.59752530547056",
      "lat": "41.37090616735063"
    },
    {
      "id": "pt.ine.add.PTCONT.611121",
      "street": "R SANTA LEOCADIA",
      "house": "587",
      "postcode": "4760-485",
      "city": "FRADELOS VNF",
      "lon": "-8.59752530547056",
      "lat": "41.37090616735063"
    },
    {
      "id": "pt.ine.add.PTCONT.611122",
      "street": "R SANTA LEOCADIA",
      "house": "587",
      "postcode": "4760-485",
      "city": "FRADELOS VNF",
      "lon": "-8.59752530547056",
      "lat": "41.37090616735063"
    },
    {
      "id": "pt.ine.add.PTCONT.612067",
      "street": "R SANTA LEOCADIA",
      "house": "587",
      "postcode": "4760-485",
      "city": "FRADELOS VNF",
      "lon": "-8.59752530547056",
      "lat": "41.37090616735063"
    },
    {
      "id": "pt.ine.add.PTCONT.694584",
      "street": "R ESPÍRITO SANTO",
      "house": "632",
      "postcode": "4760-485",
      "city": "FRADELOS VNF",
      "lon": "-8.593874955385624",
      "lat": "41.371929290851355"
    },
    {
      "id": "pt.ine.add.PTCONT.709492",
      "street": "R ESPÍRITO SANTO",
      "house": "814",
      "postcode": "4760-485",
      "city": "FRADELOS VNF",
      "lon": "-8.594164808995101",
      "lat": "41.37065856366858"
    },
    {
      "id": "pt.ine.add.PTCONT.738503",
      "street": "TV CRUZES",
      "house": "34",
      "postcode": "4760-485",
      "city": "FRADELOS VNF",
      "lon": "-8.597587309449077",
      "lat": "41.37122105765813"
    },
    {
      "id": "pt.ine.add.PTCONT.805091",
      "street": "R CRUZES",
      "house": "308",
      "postcode": "4760-485",
      "city": "FRADELOS VNF",
      "lon": "-8.597630828403151",
      "lat": "41.37061761292634"
    },
    {
      "id": "pt.ine.add.PTCONT.807936",
      "street": "R D MARIA II",
      "house": "1155",
      "postcode": "4760-485",
      "city": "FRADELOS VNF",
      "lon": "-8.597238125551726",
      "lat": "41.370862305876614"
    }
  ]
}