{
  "data": {
    "distrito": "Viseu",
    "concelho": "Moimenta da Beira",
    "freguesia": "Moimenta da Beira",
    "OBJECTID": 236,
    "BGRI2021": "18071000304",
    "DT21": "18",
    "DTMN21": "1807",
    "DTMNFR21": "180710",
    "DTMNFRSEC21": "180710003",
    "SECNUM21": "003",
    "SSNUM21": "04",
    "SECSSNUM21": "00304",
    "OBJECTID_1": 192465,
    "DT": "18",
    "CC": "07",
    "fr": "10",
    "SEC": "003",
    "SS": "04"
  },
  "addresses": [
    {
      "id": "pt.ine.add.PTCONT.5474748",
      "street": "R BENTO MOURA",
      "house": "7",
      "postcode": "3620-331",
      "city": "MOIMENTA DA BEIRA",
      "lon": "-7.618856665395755",
      "lat": "40.984310379349225"
    },
    {
      "id": "pt.ine.add.PTCONT.5474749",
      "street": "R BENTO MOURA",
      "house": "9",
      "postcode": "3620-331",
      "city": "MOIMENTA DA BEIRA",
      "lon": "-7.618856665395755",
      "lat": "40.984310379349225"
    },
    {
      "id": "pt.ine.add.PTCONT.5515175",
      "street": "AV 25 DE ABRIL",
      "house": "87",
      "postcode": "3620-304",
      "city": "MOIMENTA DA BEIRA",
      "lon": "-7.617563384204006",
      "lat": "40.984061478504096"
    },
    {
      "id": "pt.ine.add.PTCONT.5531653",
      "street": "R BENTO DE MOURA",
      "house": "17",
      "postcode": "3620-331",
      "city": "MOIMENTA DA BEIRA",
      "lon": "-7.618858973648909",
      "lat": "40.98401323754194"
    },
    {
      "id": "pt.ine.add.PTCONT.5544990",
      "street": "AV 25 DE ABRIL",
      "house": "91",
      "postcode": "3620-304",
      "city": "MOIMENTA DA BEIRA",
      "lon": "-7.617785082314389",
      "lat": "40.98458473704911"
    },
    {
      "id": "pt.ine.add.PTCONT.5556564",
      "street": "R BENTO MOURA",
      "house": "5",
      "postcode": "3620-331",
      "city": "MOIMENTA DA BEIRA",
      "lon": "-7.618855686126415",
      "lat": "40.9844364395052"
    },
    {
      "id": "pt.ine.add.PTCONT.5556565",
      "street": "R BENTO MOURA",
      "house": "7",
      "postcode": "3620-331",
      "city": "MOIMENTA DA BEIRA",
      "lon": "-7.618855686126415",
      "lat": "40.9844364395052"
    },
    {
      "id": "pt.ine.add.PTCONT.5560183",
      "street": "R D AFONSO HENRIQUES",
      "house": "3",
      "postcode": "3620-374",
      "city": "MOIMENTA DA BEIRA",
      "lon": "-7.618851629087295",
      "lat": "40.98495868869322"
    },
    {
      "id": "pt.ine.add.PTCONT.5570702",
      "street": "AV 25 DE ABRIL",
      "house": "95",
      "postcode": "3620-304",
      "city": "MOIMENTA DA BEIRA",
      "lon": "-7.617926339501435",
      "lat": "40.984756455961886"
    },
    {
      "id": "pt.ine.add.PTCONT.5571372",
      "street": "R BENTO DE MOURA",
      "house": "11",
      "postcode": "3620-331",
      "city": "MOIMENTA DA BEIRA",
      "lon": "-7.618881129511359",
      "lat": "40.98422044238713"
    },
    {
      "id": "pt.ine.add.PTCONT.5571373",
      "street": "R BENTO DE MOURA",
      "house": "11",
      "postcode": "3620-331",
      "city": "MOIMENTA DA BEIRA",
      "lon": "-7.618881129511359",
      "lat": "40.98422044238713"
    },
    {
      "id": "pt.ine.add.PTCONT.5593576",
      "street": "R BENTO DE MOURA",
      "house": "13",
      "postcode": "3620-331",
      "city": "MOIMENTA DA BEIRA",
      "lon": "-7.618882038781189",
      "lat": "40.98410338652318"
    },
    {
      "id": "pt.ine.add.PTCONT.5640535",
      "street": "AV 25 DE ABRIL",
      "house": "89",
      "postcode": "3620-304",
      "city": "MOIMENTA DA BEIRA",
      "lon": "-7.617777756079383",
      "lat": "40.98399940472773"
    }
  ]
}