{
  "data": {
    "distrito": "Lisboa",
    "concelho": "Torres Vedras",
    "freguesia": "União das freguesias de Dois Portos e Runa",
    "OBJECTID": 1628,
    "BGRI2021": "11132400346",
    "DT21": "11",
    "DTMN21": "1113",
    "DTMNFR21": "111324",
    "DTMNFRSEC21": "111324003",
    "SECNUM21": "003",
    "SSNUM21": "46",
    "SECSSNUM21": "00346",
    "OBJECTID_1": 115312,
    "DT": "11",
    "CC": "13",
    "fr": "24",
    "SEC": "003",
    "SS": "46"
  },
  "addresses": [
    {
      "id": "pt.ine.add.PTCONT.2282715",
      "street": "R GEN FRANCA BORGES",
      "house": "8",
      "postcode": "2565-182",
      "city": "DOIS PORTOS",
      "lon": "-9.182430534553566",
      "lat": "39.0242788391936"
    },
    {
      "id": "pt.ine.add.PTCONT.2613626",
      "street": "R GEN FRANCA BORGES",
      "house": "2",
      "postcode": "2565-182",
      "city": "DOIS PORTOS",
      "lon": "-9.180586904390323",
      "lat": "39.02376397334996"
    },
    {
      "id": "pt.ine.add.PTCONT.2679626",
      "street": "R VALERIO DA COSTA",
      "house": "",
      "postcode": "2565-182",
      "city": "DOIS PORTOS",
      "lon": "-9.180247825482617",
      "lat": "39.02347878101493"
    },
    {
      "id": "pt.ine.add.PTCONT.2968230",
      "street": "R VÁRZEA",
      "house": "",
      "postcode": "2565-182",
      "city": "DOIS PORTOS",
      "lon": "-9.180766073101942",
      "lat": "39.02416769725265"
    },
    {
      "id": "pt.ine.add.PTCONT.3079069",
      "street": "R VALERIO COSTA",
      "house": "",
      "postcode": "2565-182",
      "city": "DOIS PORTOS",
      "lon": "-9.179958784235016",
      "lat": "39.02345435324919"
    },
    {
      "id": "pt.ine.add.PTCONT.3088663",
      "street": "CSL FELITAO",
      "house": "",
      "postcode": "2565-263",
      "city": "DOIS PORTOS",
      "lon": "-9.189658039767151",
      "lat": "39.03350922030473"
    },
    {
      "id": "pt.ine.add.PTCONT.3097567",
      "street": "",
      "house": "",
      "postcode": "2565-263",
      "city": "DOIS PORTOS",
      "lon": "-9.184209658406042",
      "lat": "39.031351638357336"
    }
  ]
}