{
  "data": {
    "distrito": "Vila Real",
    "concelho": "Chaves",
    "freguesia": "Redondelo",
    "OBJECTID": 688,
    "BGRI2021": "17032400112",
    "DT21": "17",
    "DTMN21": "1703",
    "DTMNFR21": "170324",
    "DTMNFRSEC21": "170324001",
    "SECNUM21": "001",
    "SSNUM21": "12",
    "SECSSNUM21": "00112",
    "OBJECTID_1": 181222,
    "DT": "17",
    "CC": "03",
    "fr": "24",
    "SEC": "001",
    "SS": "12"
  },
  "addresses": [
    {
      "id": "pt.ine.add.PTCONT.5289979",
      "street": "R VISC DO ROSÁRIO",
      "house": "3",
      "postcode": "5400-727",
      "city": "REDONDELO",
      "lon": "-7.566239938420976",
      "lat": "41.708915501959794"
    },
    {
      "id": "pt.ine.add.PTCONT.5292755",
      "street": "TV DA EIRA",
      "house": "",
      "postcode": "5400-727",
      "city": "REDONDELO",
      "lon": "-7.565793336407887",
      "lat": "41.709147388314705"
    },
    {
      "id": "pt.ine.add.PTCONT.5297118",
      "street": "TV DA EIRA",
      "house": "4",
      "postcode": "5400-727",
      "city": "REDONDELO",
      "lon": "-7.566214247996142",
      "lat": "41.70910444812874"
    },
    {
      "id": "pt.ine.add.PTCONT.5297895",
      "street": "TV DA EIRA",
      "house": "",
      "postcode": "5400-727",
      "city": "REDONDELO",
      "lon": "-7.565973003678002",
      "lat": "41.70921129944675"
    },
    {
      "id": "pt.ine.add.PTCONT.5306201",
      "street": "TV VISC DO ROSÁRIO",
      "house": "",
      "postcode": "5400-727",
      "city": "REDONDELO",
      "lon": "-7.565926685657458",
      "lat": "41.70901299448247"
    },
    {
      "id": "pt.ine.add.PTCONT.5337988",
      "street": "TV VISC DO ROSÁRIO",
      "house": "5",
      "postcode": "5400-727",
      "city": "REDONDELO",
      "lon": "-7.566083905513527",
      "lat": "41.70889672522031"
    },
    {
      "id": "pt.ine.add.PTCONT.5337989",
      "street": "TV DA EIRA",
      "house": "2",
      "postcode": "5400-727",
      "city": "REDONDELO",
      "lon": "-7.566286969116003",
      "lat": "41.70903277907571"
    },
    {
      "id": "pt.ine.add.PTCONT.5341476",
      "street": "TV DO RIGUEIRO",
      "house": "",
      "postcode": "5400-727",
      "city": "REDONDELO",
      "lon": "-7.5666784776777956",
      "lat": "41.71097045554846"
    },
    {
      "id": "pt.ine.add.PTCONT.5343126",
      "street": "R DO RIGUEIRO",
      "house": "2",
      "postcode": "5400-727",
      "city": "REDONDELO",
      "lon": "-7.5662537650390185",
      "lat": "41.71007701787796"
    },
    {
      "id": "pt.ine.add.PTCONT.5371228",
      "street": "BC DO RIGUEIRO",
      "house": "",
      "postcode": "5400-727",
      "city": "REDONDELO",
      "lon": "-7.565900202867382",
      "lat": "41.709291971375734"
    },
    {
      "id": "pt.ine.add.PTCONT.5388381",
      "street": "R JOÃO SOUSA VILHENA",
      "house": "",
      "postcode": "5400-727",
      "city": "REDONDELO",
      "lon": "-7.565759587808557",
      "lat": "41.708886121032926"
    },
    {
      "id": "pt.ine.add.PTCONT.5390517",
      "street": "BC DO RIGUEIRO",
      "house": "",
      "postcode": "5400-727",
      "city": "REDONDELO",
      "lon": "-7.565939333454481",
      "lat": "41.70894102913501"
    },
    {
      "id": "pt.ine.add.PTCONT.5397489",
      "street": "R VISC DO ROSÁRIO",
      "house": "1",
      "postcode": "5400-727",
      "city": "REDONDELO",
      "lon": "-7.566874268601719",
      "lat": "41.70919773689378"
    },
    {
      "id": "pt.ine.add.PTCONT.5410011",
      "street": "R VISC DO ROSÁRIO",
      "house": "7",
      "postcode": "5400-727",
      "city": "REDONDELO",
      "lon": "-7.565939966528692",
      "lat": "41.708869004487404"
    },
    {
      "id": "pt.ine.add.PTCONT.5417185",
      "street": "R VISC DO ROSÁRIO",
      "house": "3 B",
      "postcode": "5400-727",
      "city": "REDONDELO",
      "lon": "-7.566180023108004",
      "lat": "41.70889719944643"
    }
  ]
}