{
  "data": {
    "distrito": "Leiria",
    "concelho": "Caldas da Rainha",
    "freguesia": "Foz do Arelho",
    "OBJECTID": 266,
    "BGRI2021": "10060600217",
    "DT21": "10",
    "DTMN21": "1006",
    "DTMNFR21": "100606",
    "DTMNFRSEC21": "100606002",
    "SECNUM21": "002",
    "SSNUM21": "17",
    "SECSSNUM21": "00217",
    "OBJECTID_1": 88258,
    "DT": "10",
    "CC": "06",
    "fr": "06",
    "SEC": "002",
    "SS": "17"
  },
  "addresses": [
    {
      "id": "pt.ine.add.PTCONT.2016988",
      "street": "R FONTE",
      "house": "9",
      "postcode": "2500-469",
      "city": "FOZ DO ARELHO",
      "lon": "-9.21256607734982",
      "lat": "39.43601437040559"
    },
    {
      "id": "pt.ine.add.PTCONT.2016989",
      "street": "R FONTE",
      "house": "9",
      "postcode": "2500-469",
      "city": "FOZ DO ARELHO",
      "lon": "-9.21256607734982",
      "lat": "39.43601437040559"
    },
    {
      "id": "pt.ine.add.PTCONT.2016990",
      "street": "R FONTE",
      "house": "9",
      "postcode": "2500-469",
      "city": "FOZ DO ARELHO",
      "lon": "-9.21256607734982",
      "lat": "39.43601437040559"
    },
    {
      "id": "pt.ine.add.PTCONT.2020376",
      "street": "R FONTE",
      "house": "6",
      "postcode": "2500-469",
      "city": "FOZ DO ARELHO",
      "lon": "-9.212709052437406",
      "lat": "39.43624721920393"
    },
    {
      "id": "pt.ine.add.PTCONT.2024025",
      "street": "R HORTAS",
      "house": "3",
      "postcode": "2500-473",
      "city": "FOZ DO ARELHO",
      "lon": "-9.213020807025032",
      "lat": "39.4361272370119"
    },
    {
      "id": "pt.ine.add.PTCONT.2103900",
      "street": "R FONTE",
      "house": "5",
      "postcode": "2500-469",
      "city": "FOZ DO ARELHO",
      "lon": "-9.21246461461616",
      "lat": "39.43621346087091"
    },
    {
      "id": "pt.ine.add.PTCONT.2109960",
      "street": "R JOÃO EMILIO DA SILVA",
      "house": "34",
      "postcode": "2500-493",
      "city": "FOZ DO ARELHO",
      "lon": "-9.21283707814425",
      "lat": "39.43626404426974"
    },
    {
      "id": "pt.ine.add.PTCONT.2109961",
      "street": "R JOÃO EMILIO DA SILVA",
      "house": "34",
      "postcode": "2500-493",
      "city": "FOZ DO ARELHO",
      "lon": "-9.21283707814425",
      "lat": "39.43626404426974"
    },
    {
      "id": "pt.ine.add.PTCONT.2140539",
      "street": "R FONTE",
      "house": "8",
      "postcode": "2500-469",
      "city": "FOZ DO ARELHO",
      "lon": "-9.212730332969974",
      "lat": "39.43612092697061"
    },
    {
      "id": "pt.ine.add.PTCONT.2140540",
      "street": "R FONTE",
      "house": "8",
      "postcode": "2500-469",
      "city": "FOZ DO ARELHO",
      "lon": "-9.212730332969974",
      "lat": "39.43612092697061"
    },
    {
      "id": "pt.ine.add.PTCONT.2140541",
      "street": "R FONTE",
      "house": "8",
      "postcode": "2500-469",
      "city": "FOZ DO ARELHO",
      "lon": "-9.212730332969974",
      "lat": "39.43612092697061"
    },
    {
      "id": "pt.ine.add.PTCONT.2140542",
      "street": "R FONTE",
      "house": "8",
      "postcode": "2500-469",
      "city": "FOZ DO ARELHO",
      "lon": "-9.212730332969974",
      "lat": "39.43612092697061"
    },
    {
      "id": "pt.ine.add.PTCONT.2153508",
      "street": "R DIREITA",
      "house": "",
      "postcode": "2500-476",
      "city": "FOZ DO ARELHO",
      "lon": "-9.21189263991235",
      "lat": "39.436029625527304"
    },
    {
      "id": "pt.ine.add.PTCONT.2195281",
      "street": "R JOÃO EMILIO DA SILVA",
      "house": "38",
      "postcode": "2500-493",
      "city": "FOZ DO ARELHO",
      "lon": "-9.212149107073673",
      "lat": "39.43609029375848"
    },
    {
      "id": "pt.ine.add.PTCONT.2224022",
      "street": "R JOÃO EMÍLIO DA SILVA",
      "house": "32",
      "postcode": "2500-493",
      "city": "FOZ DO ARELHO",
      "lon": "-9.21298846981778",
      "lat": "39.43628965901086"
    },
    {
      "id": "pt.ine.add.PTCONT.2227638",
      "street": "R FONTE",
      "house": "10",
      "postcode": "2500-469",
      "city": "FOZ DO ARELHO",
      "lon": "-9.21280981935923",
      "lat": "39.43600310116779"
    },
    {
      "id": "pt.ine.add.PTCONT.2227639",
      "street": "R FONTE",
      "house": "10",
      "postcode": "2500-469",
      "city": "FOZ DO ARELHO",
      "lon": "-9.21280981935923",
      "lat": "39.43600310116779"
    },
    {
      "id": "pt.ine.add.PTCONT.2239087",
      "street": "R FONTE",
      "house": "7",
      "postcode": "2500-469",
      "city": "FOZ DO ARELHO",
      "lon": "-9.21307720523162",
      "lat": "39.436018632166665"
    },
    {
      "id": "pt.ine.add.PTCONT.2268320",
      "street": "R FONTE",
      "house": "9",
      "postcode": "2500-469",
      "city": "FOZ DO ARELHO",
      "lon": "-9.21256607734982",
      "lat": "39.43601437040559"
    }
  ]
}