{
  "data": {
    "distrito": "Lisboa",
    "concelho": "Cascais",
    "freguesia": "União das freguesias de Cascais e Estoril",
    "OBJECTID": 276,
    "BGRI2021": "11050803509",
    "DT21": "11",
    "DTMN21": "1105",
    "DTMNFR21": "110508",
    "DTMNFRSEC21": "110508035",
    "SECNUM21": "035",
    "SSNUM21": "09",
    "SECSSNUM21": "03509",
    "OBJECTID_1": 100808,
    "DT": "11",
    "CC": "05",
    "fr": "08",
    "SEC": "035",
    "SS": "09"
  },
  "addresses": [
    {
      "id": "pt.ine.add.PTCONT.3009037",
      "street": "AV ACÁCIAS",
      "house": "394",
      "postcode": "2765-389",
      "city": "ESTORIL",
      "lon": "-9.40739519394457",
      "lat": "38.70487551178421"
    },
    {
      "id": "pt.ine.add.PTCONT.3035341",
      "street": "R CONDE MOSER",
      "house": "21",
      "postcode": "2765-428",
      "city": "ESTORIL",
      "lon": "-9.407194706974702",
      "lat": "38.705238005483785"
    },
    {
      "id": "pt.ine.add.PTCONT.3035342",
      "street": "R CONDE MOSER",
      "house": "21",
      "postcode": "2765-428",
      "city": "ESTORIL",
      "lon": "-9.407194706974702",
      "lat": "38.705238005483785"
    },
    {
      "id": "pt.ine.add.PTCONT.3055306",
      "street": "AV ACÁCIAS",
      "house": "26",
      "postcode": "2765-389",
      "city": "ESTORIL",
      "lon": "-9.407292552883703",
      "lat": "38.70492166903629"
    },
    {
      "id": "pt.ine.add.PTCONT.2607948",
      "street": "AV ACÁCIAS",
      "house": "5",
      "postcode": "2765-390",
      "city": "ESTORIL",
      "lon": "-9.407167244595763",
      "lat": "38.70498608864804"
    },
    {
      "id": "pt.ine.add.PTCONT.2818057",
      "street": "AV SABOIA GRANDE HOTEL",
      "house": "",
      "postcode": "2765-277",
      "city": "ESTORIL",
      "lon": "-9.407875996291923",
      "lat": "38.70476217781699"
    },
    {
      "id": "pt.ine.add.PTCONT.2891254",
      "street": "PASSEIO",
      "house": "84",
      "postcode": "2765-404",
      "city": "ESTORIL",
      "lon": "-9.408147197815598",
      "lat": "38.70449799668712"
    },
    {
      "id": "pt.ine.add.PTCONT.2899819",
      "street": "AV SABOIA",
      "house": "486",
      "postcode": "2765-277",
      "city": "ESTORIL",
      "lon": "-9.408507010372091",
      "lat": "38.704692241948955"
    },
    {
      "id": "pt.ine.add.PTCONT.2899820",
      "street": "AV SABOIA",
      "house": "486",
      "postcode": "2765-277",
      "city": "ESTORIL",
      "lon": "-9.408507010372091",
      "lat": "38.704692241948955"
    },
    {
      "id": "pt.ine.add.PTCONT.2899821",
      "street": "AV SABOIA",
      "house": "486",
      "postcode": "2765-277",
      "city": "ESTORIL",
      "lon": "-9.408507010372091",
      "lat": "38.704692241948955"
    },
    {
      "id": "pt.ine.add.PTCONT.2899822",
      "street": "AV SABOIA",
      "house": "486",
      "postcode": "2765-277",
      "city": "ESTORIL",
      "lon": "-9.408507010372091",
      "lat": "38.704692241948955"
    },
    {
      "id": "pt.ine.add.PTCONT.2899823",
      "street": "AV SABOIA",
      "house": "486",
      "postcode": "2765-277",
      "city": "ESTORIL",
      "lon": "-9.408507010372091",
      "lat": "38.704692241948955"
    },
    {
      "id": "pt.ine.add.PTCONT.2899824",
      "street": "AV SABOIA",
      "house": "486",
      "postcode": "2765-277",
      "city": "ESTORIL",
      "lon": "-9.408507010372091",
      "lat": "38.704692241948955"
    },
    {
      "id": "pt.ine.add.PTCONT.2899825",
      "street": "AV SABOIA",
      "house": "486",
      "postcode": "2765-277",
      "city": "ESTORIL",
      "lon": "-9.408507010372091",
      "lat": "38.704692241948955"
    },
    {
      "id": "pt.ine.add.PTCONT.2899826",
      "street": "AV SABOIA",
      "house": "486",
      "postcode": "2765-277",
      "city": "ESTORIL",
      "lon": "-9.408507010372091",
      "lat": "38.704692241948955"
    },
    {
      "id": "pt.ine.add.PTCONT.2899827",
      "street": "AV SABOIA",
      "house": "486",
      "postcode": "2765-277",
      "city": "ESTORIL",
      "lon": "-9.408507010372091",
      "lat": "38.704692241948955"
    },
    {
      "id": "pt.ine.add.PTCONT.2899828",
      "street": "AV SABOIA",
      "house": "486",
      "postcode": "2765-277",
      "city": "ESTORIL",
      "lon": "-9.408507010372091",
      "lat": "38.704692241948955"
    },
    {
      "id": "pt.ine.add.PTCONT.2899829",
      "street": "AV SABOIA",
      "house": "486",
      "postcode": "2765-277",
      "city": "ESTORIL",
      "lon": "-9.408507010372091",
      "lat": "38.704692241948955"
    },
    {
      "id": "pt.ine.add.PTCONT.2899830",
      "street": "AV SABOIA",
      "house": "486",
      "postcode": "2765-277",
      "city": "ESTORIL",
      "lon": "-9.408507010372091",
      "lat": "38.704692241948955"
    },
    {
      "id": "pt.ine.add.PTCONT.2899831",
      "street": "AV SABOIA",
      "house": "486",
      "postcode": "2765-277",
      "city": "ESTORIL",
      "lon": "-9.408507010372091",
      "lat": "38.704692241948955"
    },
    {
      "id": "pt.ine.add.PTCONT.2899833",
      "street": "AV SABOIA",
      "house": "486",
      "postcode": "2765-277",
      "city": "ESTORIL",
      "lon": "-9.408507010372091",
      "lat": "38.704692241948955"
    },
    {
      "id": "pt.ine.add.PTCONT.2899834",
      "street": "AV SABOIA",
      "house": "486",
      "postcode": "2765-277",
      "city": "ESTORIL",
      "lon": "-9.408507010372091",
      "lat": "38.704692241948955"
    },
    {
      "id": "pt.ine.add.PTCONT.2899835",
      "street": "AV SABOIA",
      "house": "486",
      "postcode": "2765-277",
      "city": "ESTORIL",
      "lon": "-9.408507010372091",
      "lat": "38.704692241948955"
    },
    {
      "id": "pt.ine.add.PTCONT.2899836",
      "street": "AV SABOIA",
      "house": "486",
      "postcode": "2765-277",
      "city": "ESTORIL",
      "lon": "-9.408507010372091",
      "lat": "38.704692241948955"
    },
    {
      "id": "pt.ine.add.PTCONT.2899837",
      "street": "AV SABOIA",
      "house": "486",
      "postcode": "2765-277",
      "city": "ESTORIL",
      "lon": "-9.408507010372091",
      "lat": "38.704692241948955"
    },
    {
      "id": "pt.ine.add.PTCONT.2899838",
      "street": "AV SABOIA",
      "house": "486",
      "postcode": "2765-277",
      "city": "ESTORIL",
      "lon": "-9.408507010372091",
      "lat": "38.704692241948955"
    },
    {
      "id": "pt.ine.add.PTCONT.2899839",
      "street": "AV SABOIA",
      "house": "486",
      "postcode": "2765-277",
      "city": "ESTORIL",
      "lon": "-9.408507010372091",
      "lat": "38.704692241948955"
    },
    {
      "id": "pt.ine.add.PTCONT.2899840",
      "street": "AV SABOIA",
      "house": "486",
      "postcode": "2765-277",
      "city": "ESTORIL",
      "lon": "-9.408507010372091",
      "lat": "38.704692241948955"
    },
    {
      "id": "pt.ine.add.PTCONT.2899841",
      "street": "AV SABOIA",
      "house": "486",
      "postcode": "2765-277",
      "city": "ESTORIL",
      "lon": "-9.408507010372091",
      "lat": "38.704692241948955"
    },
    {
      "id": "pt.ine.add.PTCONT.2899842",
      "street": "AV SABOIA",
      "house": "486",
      "postcode": "2765-277",
      "city": "ESTORIL",
      "lon": "-9.408507010372091",
      "lat": "38.704692241948955"
    },
    {
      "id": "pt.ine.add.PTCONT.2899843",
      "street": "AV SABOIA",
      "house": "486",
      "postcode": "2765-277",
      "city": "ESTORIL",
      "lon": "-9.408507010372091",
      "lat": "38.704692241948955"
    },
    {
      "id": "pt.ine.add.PTCONT.2899844",
      "street": "AV SABOIA",
      "house": "486",
      "postcode": "2765-277",
      "city": "ESTORIL",
      "lon": "-9.408507010372091",
      "lat": "38.704692241948955"
    },
    {
      "id": "pt.ine.add.PTCONT.2906202",
      "street": "AV SABOIA",
      "house": "486",
      "postcode": "2765-277",
      "city": "ESTORIL",
      "lon": "-9.408507010372091",
      "lat": "38.704692241948955"
    },
    {
      "id": "pt.ine.add.PTCONT.2906217",
      "street": "AV SABOIA",
      "house": "486",
      "postcode": "2765-277",
      "city": "ESTORIL",
      "lon": "-9.408507010372091",
      "lat": "38.704692241948955"
    },
    {
      "id": "pt.ine.add.PTCONT.2907889",
      "street": "AV SABOIA",
      "house": "486",
      "postcode": "2765-277",
      "city": "ESTORIL",
      "lon": "-9.408507010372091",
      "lat": "38.704692241948955"
    }
  ]
}