{
  "data": {
    "distrito": "Viseu",
    "concelho": "Viseu",
    "freguesia": "São João de Lourosa",
    "OBJECTID": 277,
    "BGRI2021": "18232700216",
    "DT21": "18",
    "DTMN21": "1823",
    "DTMNFR21": "182327",
    "DTMNFRSEC21": "182327002",
    "SECNUM21": "002",
    "SSNUM21": "16",
    "SECSSNUM21": "00216",
    "OBJECTID_1": 201155,
    "DT": "18",
    "CC": "23",
    "fr": "27",
    "SEC": "002",
    "SS": "16"
  },
  "addresses": [
    {
      "id": "pt.ine.add.PTCONT.5432025",
      "street": "R DEVESA",
      "house": "",
      "postcode": "3500-882",
      "city": "VISEU",
      "lon": "-7.925170228491863",
      "lat": "40.6200296279103"
    },
    {
      "id": "pt.ine.add.PTCONT.5456002",
      "street": "R PASSO",
      "house": "",
      "postcode": "3500-882",
      "city": "VISEU",
      "lon": "-7.9269697954901766",
      "lat": "40.61897924279589"
    },
    {
      "id": "pt.ine.add.PTCONT.5492119",
      "street": "R PEGO",
      "house": "",
      "postcode": "3500-882",
      "city": "VISEU",
      "lon": "-7.926262090619941",
      "lat": "40.61853672154198"
    },
    {
      "id": "pt.ine.add.PTCONT.5492209",
      "street": "R LAJES DO VALE",
      "house": "",
      "postcode": "3500-883",
      "city": "VISEU",
      "lon": "-7.928930036649116",
      "lat": "40.61947801210723"
    },
    {
      "id": "pt.ine.add.PTCONT.5494650",
      "street": "R PEGO",
      "house": "",
      "postcode": "3500-882",
      "city": "VISEU",
      "lon": "-7.925208334517904",
      "lat": "40.61917420038974"
    },
    {
      "id": "pt.ine.add.PTCONT.5497348",
      "street": "R PEGO",
      "house": "",
      "postcode": "3500-882",
      "city": "VISEU",
      "lon": "-7.924911715383423",
      "lat": "40.61955188542611"
    },
    {
      "id": "pt.ine.add.PTCONT.5502081",
      "street": "R PEGO",
      "house": "",
      "postcode": "3500-882",
      "city": "VISEU",
      "lon": "-7.926108266131162",
      "lat": "40.61859948251738"
    },
    {
      "id": "pt.ine.add.PTCONT.5505028",
      "street": "LAGES DO VALE",
      "house": "",
      "postcode": "3500-883",
      "city": "VISEU",
      "lon": "-7.928183503051157",
      "lat": "40.62013407116219"
    },
    {
      "id": "pt.ine.add.PTCONT.5526339",
      "street": "R DEVESA",
      "house": "9",
      "postcode": "3500-882",
      "city": "VISEU",
      "lon": "-7.925442375947186",
      "lat": "40.61992205490471"
    },
    {
      "id": "pt.ine.add.PTCONT.5539896",
      "street": "R PEGO",
      "house": "",
      "postcode": "3500-882",
      "city": "VISEU",
      "lon": "-7.925254293890007",
      "lat": "40.619597528575824"
    },
    {
      "id": "pt.ine.add.PTCONT.5563292",
      "street": "",
      "house": "",
      "postcode": "3500-883",
      "city": "VISEU",
      "lon": "-7.925771718813754",
      "lat": "40.62042693901263"
    },
    {
      "id": "pt.ine.add.PTCONT.5611094",
      "street": "R PEGO",
      "house": "",
      "postcode": "3500-882",
      "city": "VISEU",
      "lon": "-7.924627638721874",
      "lat": "40.619695456544406"
    }
  ]
}