{
  "data": {
    "distrito": "Leiria",
    "concelho": "Peniche",
    "freguesia": "Peniche",
    "OBJECTID": 467,
    "BGRI2021": "10140701723",
    "DT21": "10",
    "DTMN21": "1014",
    "DTMNFR21": "101407",
    "DTMNFRSEC21": "101407017",
    "SECNUM21": "017",
    "SSNUM21": "23",
    "SECSSNUM21": "01723",
    "OBJECTID_1": 94586,
    "DT": "10",
    "CC": "14",
    "fr": "07",
    "SEC": "017",
    "SS": "23"
  },
  "addresses": [
    {
      "id": "pt.ine.add.PTCONT.1980880",
      "street": "TV CALVÁRIO",
      "house": "2",
      "postcode": "2520-323",
      "city": "PENICHE",
      "lon": "-9.380065144441874",
      "lat": "39.36623037893768"
    },
    {
      "id": "pt.ine.add.PTCONT.2065958",
      "street": "R CALVÁRIO",
      "house": "6",
      "postcode": "2520-398",
      "city": "PENICHE",
      "lon": "-9.379959773374074",
      "lat": "39.36617746754045"
    },
    {
      "id": "pt.ine.add.PTCONT.2125854",
      "street": "R LIBERDADE",
      "house": "25",
      "postcode": "2520-323",
      "city": "PENICHE",
      "lon": "-9.379723675727035",
      "lat": "39.36660331514589"
    },
    {
      "id": "pt.ine.add.PTCONT.2127950",
      "street": "R LIBERDADE",
      "house": "19",
      "postcode": "2520-323",
      "city": "PENICHE",
      "lon": "-9.379629265067294",
      "lat": "39.366514258973716"
    },
    {
      "id": "pt.ine.add.PTCONT.2136780",
      "street": "R 1 DE MAIO",
      "house": "31",
      "postcode": "2520-267",
      "city": "PENICHE",
      "lon": "-9.379999221357311",
      "lat": "39.36643824094883"
    },
    {
      "id": "pt.ine.add.PTCONT.2222672",
      "street": "R 1 DE MAIO",
      "house": "25",
      "postcode": "2520-267",
      "city": "PENICHE",
      "lon": "-9.379919614732787",
      "lat": "39.36652916162781"
    },
    {
      "id": "pt.ine.add.PTCONT.2226782",
      "street": "TV CALVÁRIO",
      "house": "4",
      "postcode": "2520-323",
      "city": "PENICHE",
      "lon": "-9.379787998443787",
      "lat": "39.36630540280594"
    },
    {
      "id": "pt.ine.add.PTCONT.2229701",
      "street": "R LIBERDADE",
      "house": "27",
      "postcode": "2520-323",
      "city": "PENICHE",
      "lon": "-9.379770721014747",
      "lat": "39.36663883815417"
    },
    {
      "id": "pt.ine.add.PTCONT.2235502",
      "street": "R LIBERDADE",
      "house": "2",
      "postcode": "2520-324",
      "city": "PENICHE",
      "lon": "-9.379663107886355",
      "lat": "39.36645985583274"
    },
    {
      "id": "pt.ine.add.PTCONT.2242188",
      "street": "TV CALVÁRIO",
      "house": "7",
      "postcode": "2520-323",
      "city": "PENICHE",
      "lon": "-9.379879206119755",
      "lat": "39.36621435790827"
    }
  ]
}