{
  "data": {
    "distrito": "Leiria",
    "concelho": "Peniche",
    "freguesia": "Peniche",
    "OBJECTID": 468,
    "BGRI2021": "10140701724",
    "DT21": "10",
    "DTMN21": "1014",
    "DTMNFR21": "101407",
    "DTMNFRSEC21": "101407017",
    "SECNUM21": "017",
    "SSNUM21": "24",
    "SECSSNUM21": "01724",
    "OBJECTID_1": 94773,
    "DT": "10",
    "CC": "14",
    "fr": "07",
    "SEC": "017",
    "SS": "24"
  },
  "addresses": [
    {
      "id": "pt.ine.add.PTCONT.1996728",
      "street": "TV PRAIA GAMBOA",
      "house": "",
      "postcode": "2520-507",
      "city": "PENICHE",
      "lon": "-9.37345224470674",
      "lat": "39.36431957027668"
    },
    {
      "id": "pt.ine.add.PTCONT.2075042",
      "street": "TERR CALAFATES",
      "house": "",
      "postcode": "2520-535",
      "city": "PENICHE",
      "lon": "-9.373135199609813",
      "lat": "39.364106786953364"
    },
    {
      "id": "pt.ine.add.PTCONT.2077287",
      "street": "TV EXPORTADORA",
      "house": "",
      "postcode": "2520-497",
      "city": "PENICHE",
      "lon": "-9.373223413476808",
      "lat": "39.36450214473751"
    },
    {
      "id": "pt.ine.add.PTCONT.2141259",
      "street": "TV SALVA-VIDAS",
      "house": "",
      "postcode": "2520-534",
      "city": "PENICHE",
      "lon": "-9.373409823917456",
      "lat": "39.36454519172173"
    },
    {
      "id": "pt.ine.add.PTCONT.2141260",
      "street": "TV SALVA-VIDAS",
      "house": "",
      "postcode": "2520-534",
      "city": "PENICHE",
      "lon": "-9.373409823917456",
      "lat": "39.36454519172173"
    },
    {
      "id": "pt.ine.add.PTCONT.2141261",
      "street": "TV SALVA-VIDAS",
      "house": "",
      "postcode": "2520-534",
      "city": "PENICHE",
      "lon": "-9.373409823917456",
      "lat": "39.36454519172173"
    },
    {
      "id": "pt.ine.add.PTCONT.2141262",
      "street": "TV SALVA-VIDAS",
      "house": "",
      "postcode": "2520-534",
      "city": "PENICHE",
      "lon": "-9.373409823917456",
      "lat": "39.36454519172173"
    },
    {
      "id": "pt.ine.add.PTCONT.2171631",
      "street": "TV FIALHO",
      "house": "",
      "postcode": "2520-530",
      "city": "PENICHE",
      "lon": "-9.37334226188607",
      "lat": "39.364005505631404"
    },
    {
      "id": "pt.ine.add.PTCONT.2239909",
      "street": "TV EXPORTADORA",
      "house": "",
      "postcode": "2520-497",
      "city": "PENICHE",
      "lon": "-9.373337988534386",
      "lat": "39.36441986263427"
    },
    {
      "id": "pt.ine.add.PTCONT.2245317",
      "street": "TV SALVA-VIDAS",
      "house": "",
      "postcode": "2520-534",
      "city": "PENICHE",
      "lon": "-9.373558723442118",
      "lat": "39.36443552320978"
    },
    {
      "id": "pt.ine.add.PTCONT.2245318",
      "street": "TERR CALAFATES",
      "house": "",
      "postcode": "2520-535",
      "city": "PENICHE",
      "lon": "-9.373262808468754",
      "lat": "39.36410542695931"
    }
  ]
}