{
  "data": {
    "distrito": "Leiria",
    "concelho": "Leiria",
    "freguesia": "Milagres",
    "OBJECTID": 1270,
    "BGRI2021": "10091500112",
    "DT21": "10",
    "DTMN21": "1009",
    "DTMNFR21": "100915",
    "DTMNFRSEC21": "100915001",
    "SECNUM21": "001",
    "SSNUM21": "12",
    "SECSSNUM21": "00112",
    "OBJECTID_1": 90049,
    "DT": "10",
    "CC": "09",
    "fr": "15",
    "SEC": "001",
    "SS": "12"
  },
  "addresses": [
    {
      "id": "pt.ine.add.PTCONT.1985103",
      "street": "R FORMOSA",
      "house": "349",
      "postcode": "2415-020",
      "city": "LEIRIA",
      "lon": "-8.796042373531169",
      "lat": "39.789710497376596"
    },
    {
      "id": "pt.ine.add.PTCONT.2004821",
      "street": "R CARREIRA",
      "house": "40",
      "postcode": "2415-020",
      "city": "LEIRIA",
      "lon": "-8.795924251371423",
      "lat": "39.789567069448424"
    },
    {
      "id": "pt.ine.add.PTCONT.2063568",
      "street": "R BREJO",
      "house": "61",
      "postcode": "2415-020",
      "city": "LEIRIA",
      "lon": "-8.795848669932667",
      "lat": "39.79020695665166"
    },
    {
      "id": "pt.ine.add.PTCONT.2094172",
      "street": "R FORMOSA",
      "house": "321",
      "postcode": "2415-020",
      "city": "LEIRIA",
      "lon": "-8.795986424186092",
      "lat": "39.78996299663112"
    },
    {
      "id": "pt.ine.add.PTCONT.2123028",
      "street": "R CARREIRA",
      "house": "90",
      "postcode": "2415-020",
      "city": "LEIRIA",
      "lon": "-8.795977607560317",
      "lat": "39.78904439250929"
    },
    {
      "id": "pt.ine.add.PTCONT.2158102",
      "street": "R CÃ“NEGO AMILCAR",
      "house": "71",
      "postcode": "2415-020",
      "city": "LEIRIA",
      "lon": "-8.795264710276628",
      "lat": "39.790183270940226"
    },
    {
      "id": "pt.ine.add.PTCONT.2179805",
      "street": "R CARREIRA",
      "house": "46",
      "postcode": "2415-020",
      "city": "LEIRIA",
      "lon": "-8.796003980563144",
      "lat": "39.78935946645506"
    }
  ]
}