{
  "data": {
    "distrito": "Bragança",
    "concelho": "Carrazeda de Ansiães",
    "freguesia": "União das freguesias de Lavandeira, Beira Grande e Selores",
    "OBJECTID": 81,
    "BGRI2021": "04032300128",
    "DT21": "04",
    "DTMN21": "0403",
    "DTMNFR21": "040323",
    "DTMNFRSEC21": "040323001",
    "SECNUM21": "001",
    "SSNUM21": "28",
    "SECSSNUM21": "00128",
    "OBJECTID_1": 34815,
    "DT": "04",
    "CC": "03",
    "fr": "23",
    "SEC": "001",
    "SS": "28"
  },
  "addresses": [
    {
      "id": "pt.ine.add.PTCONT.854952",
      "street": "R DO ADRO",
      "house": "",
      "postcode": "5140-252",
      "city": "SELORES",
      "lon": "-7.292660590850117",
      "lat": "41.204089977127005"
    },
    {
      "id": "pt.ine.add.PTCONT.856294",
      "street": "R DO ADRO",
      "house": "",
      "postcode": "5140-252",
      "city": "SELORES",
      "lon": "-7.292004579037839",
      "lat": "41.20411220006876"
    },
    {
      "id": "pt.ine.add.PTCONT.858466",
      "street": "EM 632",
      "house": "28",
      "postcode": "5140-252",
      "city": "SELORES",
      "lon": "-7.2875868998349524",
      "lat": "41.20461109561499"
    },
    {
      "id": "pt.ine.add.PTCONT.864022",
      "street": "R DO OLMO",
      "house": "",
      "postcode": "5140-252",
      "city": "SELORES",
      "lon": "-7.292247663035201",
      "lat": "41.20468123895589"
    },
    {
      "id": "pt.ine.add.PTCONT.868367",
      "street": "R DA REGADA",
      "house": "",
      "postcode": "5140-252",
      "city": "SELORES",
      "lon": "-7.288677406207938",
      "lat": "41.206032754004305"
    },
    {
      "id": "pt.ine.add.PTCONT.881049",
      "street": "R DO OLMO",
      "house": "",
      "postcode": "5140-252",
      "city": "SELORES",
      "lon": "-7.292320228122388",
      "lat": "41.204600731130064"
    },
    {
      "id": "pt.ine.add.PTCONT.905451",
      "street": "R DO ADRO",
      "house": "",
      "postcode": "5140-252",
      "city": "SELORES",
      "lon": "-7.292743002547307",
      "lat": "41.20417161623159"
    },
    {
      "id": "pt.ine.add.PTCONT.939895",
      "street": "SIT MURADEZ",
      "house": "",
      "postcode": "5140-252",
      "city": "SELORES",
      "lon": "-7.284223391207711",
      "lat": "41.22685365132043"
    },
    {
      "id": "pt.ine.add.PTCONT.939896",
      "street": "SIT MURADEZ",
      "house": "",
      "postcode": "5140-252",
      "city": "SELORES",
      "lon": "-7.284223391207711",
      "lat": "41.22685365132043"
    },
    {
      "id": "pt.ine.add.PTCONT.946999",
      "street": "R DO OLMO",
      "house": "",
      "postcode": "5140-252",
      "city": "SELORES",
      "lon": "-7.292550073994178",
      "lat": "41.20434128768915"
    }
  ]
}