{
  "data": {
    "distrito": "Viseu",
    "concelho": "Mortágua",
    "freguesia": "Espinho",
    "OBJECTID": 412,
    "BGRI2021": "18080400107",
    "DT21": "18",
    "DTMN21": "1808",
    "DTMNFR21": "180804",
    "DTMNFRSEC21": "180804001",
    "SECNUM21": "001",
    "SSNUM21": "07",
    "SECSSNUM21": "00107",
    "OBJECTID_1": 193139,
    "DT": "18",
    "CC": "08",
    "fr": "04",
    "SEC": "001",
    "SS": "07"
  },
  "addresses": [
    {
      "id": "pt.ine.add.PTCONT.5427460",
      "street": "R PRINCIPAL",
      "house": "3",
      "postcode": "3450-069",
      "city": "ESPINHO MRT",
      "lon": "-8.291301296869348",
      "lat": "40.39274006117843"
    },
    {
      "id": "pt.ine.add.PTCONT.5461525",
      "street": "R RABAÇAL",
      "house": "8",
      "postcode": "3450-069",
      "city": "ESPINHO MRT",
      "lon": "-8.292503496678718",
      "lat": "40.39308962793544"
    },
    {
      "id": "pt.ine.add.PTCONT.5538777",
      "street": "EN 234",
      "house": "8",
      "postcode": "3450-072",
      "city": "ESPINHO MRT",
      "lon": "-8.292883940972265",
      "lat": "40.3896039424244"
    },
    {
      "id": "pt.ine.add.PTCONT.5547766",
      "street": "ESTR MUNICIPAL",
      "house": "26",
      "postcode": "3450-072",
      "city": "ESPINHO MRT",
      "lon": "-8.295717584219137",
      "lat": "40.39251780138969"
    },
    {
      "id": "pt.ine.add.PTCONT.5562084",
      "street": "R VALE",
      "house": "5",
      "postcode": "3450-072",
      "city": "ESPINHO MRT",
      "lon": "-8.292165994201534",
      "lat": "40.38981206062364"
    },
    {
      "id": "pt.ine.add.PTCONT.5570809",
      "street": "R RABAÇAL",
      "house": "1",
      "postcode": "3450-069",
      "city": "ESPINHO MRT",
      "lon": "-8.292514722778025",
      "lat": "40.39285546737771"
    },
    {
      "id": "pt.ine.add.PTCONT.5634187",
      "street": "R RABAÇAL",
      "house": "3",
      "postcode": "3450-069",
      "city": "ESPINHO MRT",
      "lon": "-8.292514170669186",
      "lat": "40.39262132304626"
    },
    {
      "id": "pt.ine.add.PTCONT.5642282",
      "street": "R VALE",
      "house": "3",
      "postcode": "3450-072",
      "city": "ESPINHO MRT",
      "lon": "-8.292401462205191",
      "lat": "40.38977571416536"
    },
    {
      "id": "pt.ine.add.PTCONT.5651604",
      "street": "ESTR MUNICIPAL",
      "house": "16",
      "postcode": "3450-072",
      "city": "ESPINHO MRT",
      "lon": "-8.294830261809487",
      "lat": "40.39086201865875"
    }
  ]
}