{
  "data": {
    "distrito": "Viseu",
    "concelho": "Mortágua",
    "freguesia": "Espinho",
    "OBJECTID": 73,
    "BGRI2021": "18080400183",
    "DT21": "18",
    "DTMN21": "1808",
    "DTMNFR21": "180804",
    "DTMNFRSEC21": "180804001",
    "SECNUM21": "001",
    "SSNUM21": "83",
    "SECSSNUM21": "00183",
    "OBJECTID_1": 193137,
    "DT": "18",
    "CC": "08",
    "fr": "04",
    "SEC": "001",
    "SS": "83"
  },
  "addresses": [
    {
      "id": "pt.ine.add.PTCONT.5453116",
      "street": "R PRI NCI",
      "house": "",
      "postcode": "3450-058",
      "city": "ESPINHO MRT",
      "lon": "-8.306483494686967",
      "lat": "40.45703578520297"
    },
    {
      "id": "pt.ine.add.PTCONT.5485738",
      "street": "R PRINCIPAL",
      "house": "8",
      "postcode": "3450-058",
      "city": "ESPINHO MRT",
      "lon": "-8.304197317007283",
      "lat": "40.457417421597555"
    },
    {
      "id": "pt.ine.add.PTCONT.5489126",
      "street": "R BARROLE",
      "house": "3",
      "postcode": "3450-058",
      "city": "ESPINHO MRT",
      "lon": "-8.30602440203842",
      "lat": "40.45730663722065"
    },
    {
      "id": "pt.ine.add.PTCONT.5512750",
      "street": "R OUTEIRO",
      "house": "1",
      "postcode": "3450-058",
      "city": "ESPINHO MRT",
      "lon": "-8.303678285858055",
      "lat": "40.45730111740524"
    },
    {
      "id": "pt.ine.add.PTCONT.5531133",
      "street": "R PRI NCI",
      "house": "",
      "postcode": "3450-058",
      "city": "ESPINHO MRT",
      "lon": "-8.306589761112933",
      "lat": "40.45709866412521"
    },
    {
      "id": "pt.ine.add.PTCONT.5534154",
      "street": "R CABEÇO DO BACELO",
      "house": "",
      "postcode": "3450-058",
      "city": "ESPINHO MRT",
      "lon": "-8.304598432505772",
      "lat": "40.45752489296918"
    },
    {
      "id": "pt.ine.add.PTCONT.5551631",
      "street": "R BARROLE",
      "house": "",
      "postcode": "3450-058",
      "city": "ESPINHO MRT",
      "lon": "-8.30626049084162",
      "lat": "40.45742335504412"
    },
    {
      "id": "pt.ine.add.PTCONT.5599018",
      "street": "R CABEÇO DO BACELO",
      "house": "2",
      "postcode": "3450-058",
      "city": "ESPINHO MRT",
      "lon": "-8.304915164908175",
      "lat": "40.45690304460855"
    },
    {
      "id": "pt.ine.add.PTCONT.5602632",
      "street": "R STA CRISTINA",
      "house": "4",
      "postcode": "3450-058",
      "city": "ESPINHO MRT",
      "lon": "-8.303701044715877",
      "lat": "40.456976886572576"
    },
    {
      "id": "pt.ine.add.PTCONT.5660772",
      "street": "R OUTEIRO",
      "house": "3",
      "postcode": "3450-058",
      "city": "ESPINHO MRT",
      "lon": "-8.303948894926135",
      "lat": "40.45708458628996"
    },
    {
      "id": "pt.ine.add.PTCONT.5662827",
      "street": "R CABEÇO DO BACELO",
      "house": "5",
      "postcode": "3450-058",
      "city": "ESPINHO MRT",
      "lon": "-8.304750434937615",
      "lat": "40.457029366033865"
    },
    {
      "id": "pt.ine.add.PTCONT.5667966",
      "street": "R OUTEIRO",
      "house": "",
      "postcode": "3450-058",
      "city": "ESPINHO MRT",
      "lon": "-8.303855332238799",
      "lat": "40.45738190533469"
    }
  ]
}