{
  "data": {
    "distrito": "Porto",
    "concelho": "Valongo",
    "freguesia": "Ermesinde",
    "OBJECTID": 211,
    "BGRI2021": "13150302303",
    "DT21": "13",
    "DTMN21": "1315",
    "DTMNFR21": "131503",
    "DTMNFRSEC21": "131503023",
    "SECNUM21": "023",
    "SSNUM21": "03",
    "SECSSNUM21": "02303",
    "OBJECTID_1": 142052,
    "DT": "13",
    "CC": "15",
    "fr": "03",
    "SEC": "023",
    "SS": "03"
  },
  "addresses": [
    {
      "id": "pt.ine.add.PTCONT.3626767",
      "street": "R CABINDA",
      "house": "105",
      "postcode": "4445-359",
      "city": "ERMESINDE",
      "lon": "-8.555139122292491",
      "lat": "41.215090628970366"
    },
    {
      "id": "pt.ine.add.PTCONT.3626768",
      "street": "R CABINDA",
      "house": "105",
      "postcode": "4445-359",
      "city": "ERMESINDE",
      "lon": "-8.555139122292491",
      "lat": "41.215090628970366"
    },
    {
      "id": "pt.ine.add.PTCONT.3628886",
      "street": "R CABINDA",
      "house": "105",
      "postcode": "4445-359",
      "city": "ERMESINDE",
      "lon": "-8.555139122292491",
      "lat": "41.215090628970366"
    },
    {
      "id": "pt.ine.add.PTCONT.3697767",
      "street": "R SERAFIM FERREIRA DOS SANTOS",
      "house": "19",
      "postcode": "4445-666",
      "city": "ERMESINDE",
      "lon": "-8.55511342218899",
      "lat": "41.21480258663829"
    },
    {
      "id": "pt.ine.add.PTCONT.3697768",
      "street": "R SERAFIM FERREIRA DOS SANTOS",
      "house": "19",
      "postcode": "4445-666",
      "city": "ERMESINDE",
      "lon": "-8.55511342218899",
      "lat": "41.21480258663829"
    },
    {
      "id": "pt.ine.add.PTCONT.3697769",
      "street": "R SERAFIM FERREIRA DOS SANTOS",
      "house": "19",
      "postcode": "4445-666",
      "city": "ERMESINDE",
      "lon": "-8.55511342218899",
      "lat": "41.21480258663829"
    },
    {
      "id": "pt.ine.add.PTCONT.3697770",
      "street": "R SERAFIM FERREIRA DOS SANTOS",
      "house": "19",
      "postcode": "4445-666",
      "city": "ERMESINDE",
      "lon": "-8.55511342218899",
      "lat": "41.21480258663829"
    },
    {
      "id": "pt.ine.add.PTCONT.3697771",
      "street": "R SERAFIM FERREIRA DOS SANTOS",
      "house": "19",
      "postcode": "4445-666",
      "city": "ERMESINDE",
      "lon": "-8.55511342218899",
      "lat": "41.21480258663829"
    },
    {
      "id": "pt.ine.add.PTCONT.3697772",
      "street": "R SERAFIM FERREIRA DOS SANTOS",
      "house": "19",
      "postcode": "4445-666",
      "city": "ERMESINDE",
      "lon": "-8.55511342218899",
      "lat": "41.21480258663829"
    },
    {
      "id": "pt.ine.add.PTCONT.3699492",
      "street": "R SERAFIM FERREIRA DOS SANTOS",
      "house": "19",
      "postcode": "4445-666",
      "city": "ERMESINDE",
      "lon": "-8.55511342218899",
      "lat": "41.21480258663829"
    },
    {
      "id": "pt.ine.add.PTCONT.3699759",
      "street": "R SERAFIM FERREIRA DOS SANTOS",
      "house": "19",
      "postcode": "4445-666",
      "city": "ERMESINDE",
      "lon": "-8.55511342218899",
      "lat": "41.21480258663829"
    },
    {
      "id": "pt.ine.add.PTCONT.3949901",
      "street": "PCT SA DA BANDEIRA",
      "house": "70",
      "postcode": "4445-587",
      "city": "ERMESINDE",
      "lon": "-8.554794189049423",
      "lat": "41.215226956554666"
    },
    {
      "id": "pt.ine.add.PTCONT.3949902",
      "street": "PCT SA DA BANDEIRA",
      "house": "70",
      "postcode": "4445-587",
      "city": "ERMESINDE",
      "lon": "-8.554794189049423",
      "lat": "41.215226956554666"
    },
    {
      "id": "pt.ine.add.PTCONT.3997505",
      "street": "R CABINDA",
      "house": "107",
      "postcode": "4445-359",
      "city": "ERMESINDE",
      "lon": "-8.555150583462982",
      "lat": "41.21501855283945"
    },
    {
      "id": "pt.ine.add.PTCONT.3997506",
      "street": "R CABINDA",
      "house": "107",
      "postcode": "4445-359",
      "city": "ERMESINDE",
      "lon": "-8.555150583462982",
      "lat": "41.21501855283945"
    },
    {
      "id": "pt.ine.add.PTCONT.3997507",
      "street": "R CABINDA",
      "house": "107",
      "postcode": "4445-359",
      "city": "ERMESINDE",
      "lon": "-8.555150583462982",
      "lat": "41.21501855283945"
    },
    {
      "id": "pt.ine.add.PTCONT.4049228",
      "street": "R ENG ARMANDO DE MAGALHÃES",
      "house": "49 45",
      "postcode": "4445-415",
      "city": "ERMESINDE",
      "lon": "-8.55442523262508",
      "lat": "41.21533635820143"
    },
    {
      "id": "pt.ine.add.PTCONT.4049229",
      "street": "R ENG ARMANDO DE MAGALHÃES",
      "house": "45",
      "postcode": "4445-415",
      "city": "ERMESINDE",
      "lon": "-8.55442523262508",
      "lat": "41.21533635820143"
    },
    {
      "id": "pt.ine.add.PTCONT.4049230",
      "street": "R ENG ARMANDO DE MAGALHÃES",
      "house": "49 45",
      "postcode": "4445-415",
      "city": "ERMESINDE",
      "lon": "-8.55442523262508",
      "lat": "41.21533635820143"
    },
    {
      "id": "pt.ine.add.PTCONT.4086263",
      "street": "R SERAFIM FERREIRA DOS SANTOS",
      "house": "39",
      "postcode": "4445-666",
      "city": "ERMESINDE",
      "lon": "-8.554839572545582",
      "lat": "41.21486661972047"
    },
    {
      "id": "pt.ine.add.PTCONT.4086270",
      "street": "R SERAFIM FERREIRA DOS SANTOS",
      "house": "39",
      "postcode": "4445-666",
      "city": "ERMESINDE",
      "lon": "-8.554839572545582",
      "lat": "41.21486661972047"
    },
    {
      "id": "pt.ine.add.PTCONT.4086271",
      "street": "R SERAFIM FERREIRA DOS SANTOS",
      "house": "39",
      "postcode": "4445-666",
      "city": "ERMESINDE",
      "lon": "-8.554839572545582",
      "lat": "41.21486661972047"
    },
    {
      "id": "pt.ine.add.PTCONT.4086272",
      "street": "R SERAFIM FERREIRA DOS SANTOS",
      "house": "39",
      "postcode": "4445-666",
      "city": "ERMESINDE",
      "lon": "-8.554839572545582",
      "lat": "41.21486661972047"
    },
    {
      "id": "pt.ine.add.PTCONT.4086273",
      "street": "R SERAFIM FERREIRA SANTOS",
      "house": "29",
      "postcode": "4445-666",
      "city": "ERMESINDE",
      "lon": "-8.554839572545582",
      "lat": "41.21486661972047"
    },
    {
      "id": "pt.ine.add.PTCONT.4086274",
      "street": "R SERAFIM FERREIRA DOS SANTOS",
      "house": "39",
      "postcode": "4445-666",
      "city": "ERMESINDE",
      "lon": "-8.554839572545582",
      "lat": "41.21486661972047"
    },
    {
      "id": "pt.ine.add.PTCONT.4086275",
      "street": "R SERAFIM FERREIRA DOS SANTOS",
      "house": "39",
      "postcode": "4445-666",
      "city": "ERMESINDE",
      "lon": "-8.554839572545582",
      "lat": "41.21486661972047"
    },
    {
      "id": "pt.ine.add.PTCONT.4086276",
      "street": "R SERAFIM FERREIRA DOS SANTOS",
      "house": "39",
      "postcode": "4445-666",
      "city": "ERMESINDE",
      "lon": "-8.554839572545582",
      "lat": "41.21486661972047"
    },
    {
      "id": "pt.ine.add.PTCONT.4134369",
      "street": "R ENG ARMANDO DE MAGALHÃES",
      "house": "35",
      "postcode": "4445-415",
      "city": "ERMESINDE",
      "lon": "-8.554424770429058",
      "lat": "41.21526432576717"
    },
    {
      "id": "pt.ine.add.PTCONT.4134370",
      "street": "R ENG ARMANDO DE MAGALHÃES",
      "house": "37 35",
      "postcode": "4445-415",
      "city": "ERMESINDE",
      "lon": "-8.554424770429058",
      "lat": "41.21526432576717"
    },
    {
      "id": "pt.ine.add.PTCONT.4134374",
      "street": "R ENG ARMANDO DE MAGALHÃES",
      "house": "35",
      "postcode": "4445-415",
      "city": "ERMESINDE",
      "lon": "-8.554424770429058",
      "lat": "41.21526432576717"
    },
    {
      "id": "pt.ine.add.PTCONT.4171894",
      "street": "PCT SA DA BANDEIRA",
      "house": "72",
      "postcode": "4445-587",
      "city": "ERMESINDE",
      "lon": "-8.554675178442466",
      "lat": "41.215263409350605"
    },
    {
      "id": "pt.ine.add.PTCONT.4171895",
      "street": "PCT SA DA BANDEIRA",
      "house": "72",
      "postcode": "4445-587",
      "city": "ERMESINDE",
      "lon": "-8.554675178442466",
      "lat": "41.215263409350605"
    },
    {
      "id": "pt.ine.add.PTCONT.4171896",
      "street": "PCT SA DA BANDEIRA",
      "house": "72",
      "postcode": "4445-587",
      "city": "ERMESINDE",
      "lon": "-8.554675178442466",
      "lat": "41.215263409350605"
    },
    {
      "id": "pt.ine.add.PTCONT.4316696",
      "street": "PCT SA DA BANDEIRA",
      "house": "91",
      "postcode": "4445-587",
      "city": "ERMESINDE",
      "lon": "-8.554901217506549",
      "lat": "41.21518154325801"
    },
    {
      "id": "pt.ine.add.PTCONT.4316697",
      "street": "PCT SA DA BANDEIRA",
      "house": "91",
      "postcode": "4445-587",
      "city": "ERMESINDE",
      "lon": "-8.554901217506549",
      "lat": "41.21518154325801"
    },
    {
      "id": "pt.ine.add.PTCONT.4316698",
      "street": "PCT SA DA BANDEIRA",
      "house": "91",
      "postcode": "4445-587",
      "city": "ERMESINDE",
      "lon": "-8.554901217506549",
      "lat": "41.21518154325801"
    },
    {
      "id": "pt.ine.add.PTCONT.4316715",
      "street": "PCT SA DA BANDEIRA",
      "house": "91",
      "postcode": "4445-587",
      "city": "ERMESINDE",
      "lon": "-8.554901217506549",
      "lat": "41.21518154325801"
    },
    {
      "id": "pt.ine.add.PTCONT.4316716",
      "street": "PCT SA DA BANDEIRA",
      "house": "91",
      "postcode": "4445-587",
      "city": "ERMESINDE",
      "lon": "-8.554901217506549",
      "lat": "41.21518154325801"
    },
    {
      "id": "pt.ine.add.PTCONT.4318750",
      "street": "PCT SA DA BANDEIRA",
      "house": "91",
      "postcode": "4445-587",
      "city": "ERMESINDE",
      "lon": "-8.554901217506549",
      "lat": "41.21518154325801"
    },
    {
      "id": "pt.ine.add.PTCONT.4326466",
      "street": "R SERAFIM FERREIRA DOS SANTOS",
      "house": "59",
      "postcode": "4445-666",
      "city": "ERMESINDE",
      "lon": "-8.554589570624218",
      "lat": "41.21493056487032"
    },
    {
      "id": "pt.ine.add.PTCONT.4326467",
      "street": "R SERAFIM FERREIRA DOS SANTOS",
      "house": "59",
      "postcode": "4445-666",
      "city": "ERMESINDE",
      "lon": "-8.554589570624218",
      "lat": "41.21493056487032"
    },
    {
      "id": "pt.ine.add.PTCONT.4326468",
      "street": "R SERAFIM FERREIRA DOS SANTOS",
      "house": "59",
      "postcode": "4445-666",
      "city": "ERMESINDE",
      "lon": "-8.554589570624218",
      "lat": "41.21493056487032"
    },
    {
      "id": "pt.ine.add.PTCONT.4326469",
      "street": "R SERAFIM FERREIRA DOS SANTOS",
      "house": "59",
      "postcode": "4445-666",
      "city": "ERMESINDE",
      "lon": "-8.554589570624218",
      "lat": "41.21493056487032"
    },
    {
      "id": "pt.ine.add.PTCONT.4326470",
      "street": "R SERAFIM FERREIRA DOS SANTOS",
      "house": "59",
      "postcode": "4445-666",
      "city": "ERMESINDE",
      "lon": "-8.554589570624218",
      "lat": "41.21493056487032"
    },
    {
      "id": "pt.ine.add.PTCONT.4326471",
      "street": "R SERAFIM FERREIRA DOS SANTOS",
      "house": "59",
      "postcode": "4445-666",
      "city": "ERMESINDE",
      "lon": "-8.554589570624218",
      "lat": "41.21493056487032"
    },
    {
      "id": "pt.ine.add.PTCONT.4326472",
      "street": "R SERAFIM FERREIRA DOS SANTOS",
      "house": "59",
      "postcode": "4445-666",
      "city": "ERMESINDE",
      "lon": "-8.554589570624218",
      "lat": "41.21493056487032"
    },
    {
      "id": "pt.ine.add.PTCONT.4326473",
      "street": "R SERAFIM FERREIRA DOS SANTOS",
      "house": "59",
      "postcode": "4445-666",
      "city": "ERMESINDE",
      "lon": "-8.554589570624218",
      "lat": "41.21493056487032"
    },
    {
      "id": "pt.ine.add.PTCONT.4326474",
      "street": "R SERAFIM FERREIRA DOS SANTOS",
      "house": "59",
      "postcode": "4445-666",
      "city": "ERMESINDE",
      "lon": "-8.554589570624218",
      "lat": "41.21493056487032"
    },
    {
      "id": "pt.ine.add.PTCONT.4326475",
      "street": "R SERAFIM FERREIRA DOS SANTOS",
      "house": "59",
      "postcode": "4445-666",
      "city": "ERMESINDE",
      "lon": "-8.554589570624218",
      "lat": "41.21493056487032"
    },
    {
      "id": "pt.ine.add.PTCONT.4326476",
      "street": "R SERAFIM FERREIRA DOS SANTOS",
      "house": "59",
      "postcode": "4445-666",
      "city": "ERMESINDE",
      "lon": "-8.554589570624218",
      "lat": "41.21493056487032"
    },
    {
      "id": "pt.ine.add.PTCONT.4326477",
      "street": "R SERAFIM FERREIRA DOS SANTOS",
      "house": "59",
      "postcode": "4445-666",
      "city": "ERMESINDE",
      "lon": "-8.554589570624218",
      "lat": "41.21493056487032"
    },
    {
      "id": "pt.ine.add.PTCONT.4326484",
      "street": "R SERAFIM FERREIRA DOS SANTOS",
      "house": "59",
      "postcode": "4445-666",
      "city": "ERMESINDE",
      "lon": "-8.554589570624218",
      "lat": "41.21493056487032"
    },
    {
      "id": "pt.ine.add.PTCONT.4326486",
      "street": "R SERAFIM FERREIRA DOS SANTOS",
      "house": "59",
      "postcode": "4445-666",
      "city": "ERMESINDE",
      "lon": "-8.554589570624218",
      "lat": "41.21493056487032"
    },
    {
      "id": "pt.ine.add.PTCONT.4326487",
      "street": "R SERAFIM FERREIRA DOS SANTOS",
      "house": "59",
      "postcode": "4445-666",
      "city": "ERMESINDE",
      "lon": "-8.554589570624218",
      "lat": "41.21493056487032"
    }
  ]
}