{
  "data": {
    "distrito": "Beja",
    "concelho": "Ferreira do Alentejo",
    "freguesia": "União das freguesias de Alfundão e Peroguarda",
    "OBJECTID": 275,
    "BGRI2021": "02080700111",
    "DT21": "02",
    "DTMN21": "0208",
    "DTMNFR21": "020807",
    "DTMNFRSEC21": "020807001",
    "SECNUM21": "001",
    "SSNUM21": "11",
    "SECSSNUM21": "00111",
    "OBJECTID_1": 15078,
    "DT": "02",
    "CC": "08",
    "fr": "07",
    "SEC": "001",
    "SS": "11"
  },
  "addresses": [
    {
      "id": "pt.ine.add.PTCONT.457294",
      "street": "R FRANCISCO JOSE SEVINATE PONTES",
      "house": "8",
      "postcode": "7900-470",
      "city": "PEROGUARDA",
      "lon": "-8.046314418804963",
      "lat": "38.09203245633993"
    },
    {
      "id": "pt.ine.add.PTCONT.374514",
      "street": "R D DIOGO PASSANHA",
      "house": "17",
      "postcode": "7900-467",
      "city": "PEROGUARDA",
      "lon": "-8.046789004553506",
      "lat": "38.09187932149484"
    },
    {
      "id": "pt.ine.add.PTCONT.380112",
      "street": "R FRANCISCO JOSE SEVINATE PONTES",
      "house": "2A",
      "postcode": "7900-470",
      "city": "PEROGUARDA",
      "lon": "-8.04637360018588",
      "lat": "38.09216707693058"
    },
    {
      "id": "pt.ine.add.PTCONT.388178",
      "street": "R FRANCISCO JOSE SEVINATE PONTES",
      "house": "4",
      "postcode": "7900-470",
      "city": "PEROGUARDA",
      "lon": "-8.04638157502401",
      "lat": "38.09208244544688"
    },
    {
      "id": "pt.ine.add.PTCONT.389552",
      "street": "R LISBOA",
      "house": "2",
      "postcode": "7900-463",
      "city": "PEROGUARDA",
      "lon": "-8.046975693449399",
      "lat": "38.0918805801159"
    },
    {
      "id": "pt.ine.add.PTCONT.392189",
      "street": "R LISBOA",
      "house": "4",
      "postcode": "7900-463",
      "city": "PEROGUARDA",
      "lon": "-8.04704265703678",
      "lat": "38.092022201683164"
    },
    {
      "id": "pt.ine.add.PTCONT.409196",
      "street": "R D DIOGO PASSANHA",
      "house": "19",
      "postcode": "7900-467",
      "city": "PEROGUARDA",
      "lon": "-8.046713899259714",
      "lat": "38.09190881902225"
    },
    {
      "id": "pt.ine.add.PTCONT.436772",
      "street": "R 25 DE ABRIL",
      "house": "4",
      "postcode": "7900-457",
      "city": "PEROGUARDA",
      "lon": "-8.046406836563452",
      "lat": "38.09223968368042"
    },
    {
      "id": "pt.ine.add.PTCONT.441668",
      "street": "R FRANCISCO JOSE SEVINATE PONTES",
      "house": "2",
      "postcode": "7900-470",
      "city": "PEROGUARDA",
      "lon": "-8.046368165778981",
      "lat": "38.09212482180351"
    }
  ]
}