{
  "data": {
    "distrito": "Vila Real",
    "concelho": "Alijó",
    "freguesia": "Santa Eugénia",
    "OBJECTID": 456,
    "BGRI2021": "17011300101",
    "DT21": "17",
    "DTMN21": "1701",
    "DTMNFR21": "170113",
    "DTMNFRSEC21": "170113001",
    "SECNUM21": "001",
    "SSNUM21": "01",
    "SECSSNUM21": "00101",
    "OBJECTID_1": 179960,
    "DT": "17",
    "CC": "01",
    "fr": "13",
    "SEC": "001",
    "SS": "01"
  },
  "addresses": [
    {
      "id": "pt.ine.add.PTCONT.5298080",
      "street": "R DR ERNESTO MORAIS",
      "house": "11",
      "postcode": "5070-411",
      "city": "SANTA EUGÉNIA",
      "lon": "-7.411309002238616",
      "lat": "41.34517881475781"
    },
    {
      "id": "pt.ine.add.PTCONT.5298734",
      "street": "R CABO",
      "house": "15",
      "postcode": "5070-411",
      "city": "SANTA EUGÉNIA",
      "lon": "-7.411859469277831",
      "lat": "41.34510122981986"
    },
    {
      "id": "pt.ine.add.PTCONT.5298969",
      "street": "R DR ERNESTO MORAIS",
      "house": "15",
      "postcode": "5070-411",
      "city": "SANTA EUGÉNIA",
      "lon": "-7.411333791549882",
      "lat": "41.3450979342091"
    },
    {
      "id": "pt.ine.add.PTCONT.5308242",
      "street": "R CABO",
      "house": "13A",
      "postcode": "5070-411",
      "city": "SANTA EUGÉNIA",
      "lon": "-7.411821739779354",
      "lat": "41.3452720694042"
    },
    {
      "id": "pt.ine.add.PTCONT.5328089",
      "street": "R CABO",
      "house": "17",
      "postcode": "5070-411",
      "city": "SANTA EUGÉNIA",
      "lon": "-7.411899682269838",
      "lat": "41.344705305713006"
    },
    {
      "id": "pt.ine.add.PTCONT.5332394",
      "street": "R VEIGA",
      "house": "16",
      "postcode": "5070-411",
      "city": "SANTA EUGÉNIA",
      "lon": "-7.413042090233573",
      "lat": "41.34620712340979"
    },
    {
      "id": "pt.ine.add.PTCONT.5335734",
      "street": "R DR ERNESTO MORAIS",
      "house": "17",
      "postcode": "5070-411",
      "city": "SANTA EUGÉNIA",
      "lon": "-7.411492783378109",
      "lat": "41.344765783133525"
    },
    {
      "id": "pt.ine.add.PTCONT.5371202",
      "street": "R DR ERNESTO MORAIS",
      "house": "13",
      "postcode": "5070-411",
      "city": "SANTA EUGÉNIA",
      "lon": "-7.4115349063157625",
      "lat": "41.34527927537462"
    },
    {
      "id": "pt.ine.add.PTCONT.5390156",
      "street": "R CABO",
      "house": "13",
      "postcode": "5070-411",
      "city": "SANTA EUGÉNIA",
      "lon": "-7.411758923076211",
      "lat": "41.34555079975002"
    },
    {
      "id": "pt.ine.add.PTCONT.5390157",
      "street": "R CABO",
      "house": "13",
      "postcode": "5070-411",
      "city": "SANTA EUGÉNIA",
      "lon": "-7.411758923076211",
      "lat": "41.34555079975002"
    },
    {
      "id": "pt.ine.add.PTCONT.5400215",
      "street": "R ERNESTO MORAIS",
      "house": "19",
      "postcode": "5070-411",
      "city": "SANTA EUGÉNIA",
      "lon": "-7.4116519723302545",
      "lat": "41.344415625045535"
    }
  ]
}