{
  "data": {
    "distrito": "Portalegre",
    "concelho": "Elvas",
    "freguesia": "Assunção, Ajuda, Salvador e Santo Ildefonso",
    "OBJECTID": 247,
    "BGRI2021": "12071200303",
    "DT21": "12",
    "DTMN21": "1207",
    "DTMNFR21": "120712",
    "DTMNFRSEC21": "120712003",
    "SECNUM21": "003",
    "SSNUM21": "03",
    "SECSSNUM21": "00303",
    "OBJECTID_1": 121646,
    "DT": "12",
    "CC": "07",
    "fr": "12",
    "SEC": "003",
    "SS": "03"
  },
  "addresses": [
    {
      "id": "pt.ine.add.PTCONT.3464403",
      "street": "LG MISERICÓRDIA",
      "house": "15A",
      "postcode": "7350-117",
      "city": "ELVAS",
      "lon": "-7.165427091235623",
      "lat": "38.87961941646705"
    },
    {
      "id": "pt.ine.add.PTCONT.3473829",
      "street": "R ANTÓNIO TOMAS PIRES",
      "house": "13",
      "postcode": "7350-140",
      "city": "ELVAS",
      "lon": "-7.165758475903174",
      "lat": "38.87958803758979"
    },
    {
      "id": "pt.ine.add.PTCONT.3475534",
      "street": "LG MISERICÓRDIA",
      "house": "161 IGA",
      "postcode": "7350-117",
      "city": "ELVAS",
      "lon": "-7.165223385600744",
      "lat": "38.87966757025894"
    },
    {
      "id": "pt.ine.add.PTCONT.3475535",
      "street": "LG MISERICÓRDIA",
      "house": "161 IGA",
      "postcode": "7350-117",
      "city": "ELVAS",
      "lon": "-7.165223385600744",
      "lat": "38.87966757025894"
    },
    {
      "id": "pt.ine.add.PTCONT.3483665",
      "street": "R ANTÓNIO TOMAS PIRES",
      "house": "2A",
      "postcode": "7350-140",
      "city": "ELVAS",
      "lon": "-7.165575954774931",
      "lat": "38.87961216750615"
    },
    {
      "id": "pt.ine.add.PTCONT.3483666",
      "street": "R ANTÓNIO TOMAS PIRES",
      "house": "2A",
      "postcode": "7350-140",
      "city": "ELVAS",
      "lon": "-7.165575954774931",
      "lat": "38.87961216750615"
    },
    {
      "id": "pt.ine.add.PTCONT.3487620",
      "street": "R DE SÃO FRANCISCO",
      "house": "8A",
      "postcode": "7350-140",
      "city": "ELVAS",
      "lon": "-7.16563917040029",
      "lat": "38.87966759299395"
    },
    {
      "id": "pt.ine.add.PTCONT.3491494",
      "street": "R S FRANCISCO",
      "house": "5",
      "postcode": "7350-425",
      "city": "ELVAS",
      "lon": "-7.165408932147672",
      "lat": "38.87979389394594"
    },
    {
      "id": "pt.ine.add.PTCONT.3499683",
      "street": "R S FRANCISCO",
      "house": "3",
      "postcode": "7350-425",
      "city": "ELVAS",
      "lon": "-7.165281610468294",
      "lat": "38.87985284327256"
    },
    {
      "id": "pt.ine.add.PTCONT.3524673",
      "street": "R S FRANCISCO",
      "house": "6B",
      "postcode": "7350-425",
      "city": "ELVAS",
      "lon": "-7.165545919967803",
      "lat": "38.87972372626183"
    },
    {
      "id": "pt.ine.add.PTCONT.3525290",
      "street": "R S FRANCISCO",
      "house": "4",
      "postcode": "7350-425",
      "city": "ELVAS",
      "lon": "-7.1653637534166075",
      "lat": "38.8798161557855"
    }
  ]
}