{
  "data": {
    "distrito": "Portalegre",
    "concelho": "Elvas",
    "freguesia": "Assunção, Ajuda, Salvador e Santo Ildefonso",
    "OBJECTID": 137,
    "BGRI2021": "12071200318",
    "DT21": "12",
    "DTMN21": "1207",
    "DTMNFR21": "120712",
    "DTMNFRSEC21": "120712003",
    "SECNUM21": "003",
    "SSNUM21": "18",
    "SECSSNUM21": "00318",
    "OBJECTID_1": 121626,
    "DT": "12",
    "CC": "07",
    "fr": "12",
    "SEC": "003",
    "SS": "18"
  },
  "addresses": [
    {
      "id": "pt.ine.add.PTCONT.3537297",
      "street": "R SAPATEIROS",
      "house": "3B",
      "postcode": "7350-180",
      "city": "ELVAS",
      "lon": "-7.16335057308819",
      "lat": "38.88080878840633"
    },
    {
      "id": "pt.ine.add.PTCONT.3538966",
      "street": "R SAPATEIROS",
      "house": "9",
      "postcode": "7350-180",
      "city": "ELVAS",
      "lon": "-7.163396886093892",
      "lat": "38.88105280772052"
    },
    {
      "id": "pt.ine.add.PTCONT.3472575",
      "street": "R SAPATEIROS",
      "house": "3A",
      "postcode": "7350-180",
      "city": "ELVAS",
      "lon": "-7.163357325775299",
      "lat": "38.88078254211822"
    },
    {
      "id": "pt.ine.add.PTCONT.3473828",
      "street": "R SAPATEIROS",
      "house": "10",
      "postcode": "7350-180",
      "city": "ELVAS",
      "lon": "-7.163421101034611",
      "lat": "38.88110619904691"
    },
    {
      "id": "pt.ine.add.PTCONT.3477295",
      "street": "ARCO DOS PREGOS",
      "house": "3",
      "postcode": "7350-090",
      "city": "ELVAS",
      "lon": "-7.16350983316025",
      "lat": "38.88117222610329"
    },
    {
      "id": "pt.ine.add.PTCONT.3484329",
      "street": "R MARTINS MENDES",
      "house": "29",
      "postcode": "7350-090",
      "city": "ELVAS",
      "lon": "-7.163469091378255",
      "lat": "38.881208530051225"
    },
    {
      "id": "pt.ine.add.PTCONT.3489633",
      "street": "R MARTINS MENDES",
      "house": "30B",
      "postcode": "7350-293",
      "city": "ELVAS",
      "lon": "-7.163542443357085",
      "lat": "38.88131661944233"
    },
    {
      "id": "pt.ine.add.PTCONT.3489634",
      "street": "R MARTINS MENDES",
      "house": "304",
      "postcode": "7350-293",
      "city": "ELVAS",
      "lon": "-7.163542443357085",
      "lat": "38.88131661944233"
    },
    {
      "id": "pt.ine.add.PTCONT.3489635",
      "street": "R MARTINS MENDES",
      "house": "30",
      "postcode": "7350-293",
      "city": "ELVAS",
      "lon": "-7.163542443357085",
      "lat": "38.88131661944233"
    },
    {
      "id": "pt.ine.add.PTCONT.3490941",
      "street": "R ARCO DOS PREGOS",
      "house": "6",
      "postcode": "7350-090",
      "city": "ELVAS",
      "lon": "-7.163559908437854",
      "lat": "38.88109114509431"
    },
    {
      "id": "pt.ine.add.PTCONT.3506031",
      "street": "R PORTAS DO SOL",
      "house": "5130D",
      "postcode": "7350-425",
      "city": "ELVAS",
      "lon": "-7.163751080164755",
      "lat": "38.88122827504443"
    },
    {
      "id": "pt.ine.add.PTCONT.3506495",
      "street": "R MARTINS MENDES",
      "house": "30 A",
      "postcode": "7350-425",
      "city": "ELVAS",
      "lon": "-7.163751080164755",
      "lat": "38.88122827504443"
    },
    {
      "id": "pt.ine.add.PTCONT.3508669",
      "street": "R SAPATEIROS",
      "house": "5",
      "postcode": "7350-180",
      "city": "ELVAS",
      "lon": "-7.163352973045809",
      "lat": "38.88089216252579"
    },
    {
      "id": "pt.ine.add.PTCONT.3509185",
      "street": "R SAPATEIROS",
      "house": "5A",
      "postcode": "7350-180",
      "city": "ELVAS",
      "lon": "-7.163352973045809",
      "lat": "38.88089216252579"
    },
    {
      "id": "pt.ine.add.PTCONT.3515982",
      "street": "ARCO DOS PREGOS",
      "house": "4",
      "postcode": "7350-090",
      "city": "ELVAS",
      "lon": "-7.163472714897434",
      "lat": "38.881189261229245"
    },
    {
      "id": "pt.ine.add.PTCONT.3520277",
      "street": "ARCO DOS PREGOS",
      "house": "2",
      "postcode": "7350-090",
      "city": "ELVAS",
      "lon": "-7.163560103420671",
      "lat": "38.88116549323821"
    },
    {
      "id": "pt.ine.add.PTCONT.3520864",
      "street": "R DAS PORTAS DO SOL",
      "house": "6",
      "postcode": "7350-021",
      "city": "ELVAS",
      "lon": "-7.163704688935853",
      "lat": "38.88116478765209"
    },
    {
      "id": "pt.ine.add.PTCONT.3522761",
      "street": "R SAPATEIROS",
      "house": "4A",
      "postcode": "7350-180",
      "city": "ELVAS",
      "lon": "-7.163346209130435",
      "lat": "38.880856075709666"
    },
    {
      "id": "pt.ine.add.PTCONT.3526398",
      "street": "R DR ANTONIO PIRES ANTUNES",
      "house": "7 A",
      "postcode": "7350-185",
      "city": "ELVAS",
      "lon": "-7.163482632791824",
      "lat": "38.880728767498034"
    },
    {
      "id": "pt.ine.add.PTCONT.3528677",
      "street": "R SAPATEIROS",
      "house": "9A",
      "postcode": "7350-180",
      "city": "ELVAS",
      "lon": "-7.163396886093892",
      "lat": "38.88105280772052"
    }
  ]
}