{
  "data": {
    "distrito": "Viana do Castelo",
    "concelho": "Ponte de Lima",
    "freguesia": "Estorãos",
    "OBJECTID": 1282,
    "BGRI2021": "16071700132",
    "DT21": "16",
    "DTMN21": "1607",
    "DTMNFR21": "160717",
    "DTMNFRSEC21": "160717001",
    "SECNUM21": "001",
    "SSNUM21": "32",
    "SECSSNUM21": "00132",
    "OBJECTID_1": 176314,
    "DT": "16",
    "CC": "07",
    "fr": "17",
    "SEC": "001",
    "SS": "32"
  },
  "addresses": [
    {
      "id": "pt.ine.add.PTCONT.5158828",
      "street": "GRAMELA",
      "house": "",
      "postcode": "4990-590",
      "city": "ESTORÃOS PTL",
      "lon": "-8.65300159049094",
      "lat": "41.80183670212399"
    },
    {
      "id": "pt.ine.add.PTCONT.5165861",
      "street": "R GRAMELA",
      "house": "",
      "postcode": "4990-590",
      "city": "ESTORÃOS PTL",
      "lon": "-8.652868654910367",
      "lat": "41.80176527699366"
    },
    {
      "id": "pt.ine.add.PTCONT.5166966",
      "street": "R COSTA",
      "house": "",
      "postcode": "4990-590",
      "city": "ESTORÃOS PTL",
      "lon": "-8.653854492015363",
      "lat": "41.80017622516969"
    },
    {
      "id": "pt.ine.add.PTCONT.5174885",
      "street": "R BREIA",
      "house": "",
      "postcode": "4990-590",
      "city": "ESTORÃOS PTL",
      "lon": "-8.650820299490668",
      "lat": "41.798425284900006"
    },
    {
      "id": "pt.ine.add.PTCONT.5193158",
      "street": "R GRAMELA",
      "house": "",
      "postcode": "4990-590",
      "city": "ESTORÃOS PTL",
      "lon": "-8.653061168916649",
      "lat": "41.801764405796064"
    },
    {
      "id": "pt.ine.add.PTCONT.5216895",
      "street": "R GRAMELA",
      "house": "",
      "postcode": "4990-590",
      "city": "ESTORÃOS PTL",
      "lon": "-8.652410925265528",
      "lat": "41.80170432374998"
    },
    {
      "id": "pt.ine.add.PTCONT.5222308",
      "street": "R COSTA",
      "house": "",
      "postcode": "4990-590",
      "city": "ESTORÃOS PTL",
      "lon": "-8.654800754275415",
      "lat": "41.798164187256226"
    },
    {
      "id": "pt.ine.add.PTCONT.5228150",
      "street": "R BREIA",
      "house": "",
      "postcode": "4990-590",
      "city": "ESTORÃOS PTL",
      "lon": "-8.651154648761027",
      "lat": "41.79960321509507"
    },
    {
      "id": "pt.ine.add.PTCONT.5236425",
      "street": "R GRAMELA",
      "house": "",
      "postcode": "4990-590",
      "city": "ESTORÃOS PTL",
      "lon": "-8.651681957115827",
      "lat": "41.800834293190846"
    },
    {
      "id": "pt.ine.add.PTCONT.5259869",
      "street": "R COSTA",
      "house": "",
      "postcode": "4990-590",
      "city": "ESTORÃOS PTL",
      "lon": "-8.654526512255739",
      "lat": "41.79847154590361"
    },
    {
      "id": "pt.ine.add.PTCONT.5271388",
      "street": "R GAFARIM",
      "house": "",
      "postcode": "4990-590",
      "city": "ESTORÃOS PTL",
      "lon": "-8.652227083894783",
      "lat": "41.79681634161847"
    },
    {
      "id": "pt.ine.add.PTCONT.5277993",
      "street": "R DE GAFARIM",
      "house": "56",
      "postcode": "4990-590",
      "city": "ESTORÃOS PTL",
      "lon": "-8.65128545913725",
      "lat": "41.79642444573242"
    },
    {
      "id": "pt.ine.add.PTCONT.5278171",
      "street": "R BREIA",
      "house": "",
      "postcode": "4990-590",
      "city": "ESTORÃOS PTL",
      "lon": "-8.651219013562972",
      "lat": "41.800125118432845"
    },
    {
      "id": "pt.ine.add.PTCONT.5278172",
      "street": "R GAFARIM",
      "house": "",
      "postcode": "4990-590",
      "city": "ESTORÃOS PTL",
      "lon": "-8.65367294063675",
      "lat": "41.79707089581622"
    }
  ]
}