{
  "data": {
    "distrito": "Lisboa",
    "concelho": "Lisboa",
    "freguesia": "Santa Maria Maior",
    "OBJECTID": 2094,
    "BGRI2021": "11066501004",
    "DT21": "11",
    "DTMN21": "1106",
    "DTMNFR21": "110665",
    "DTMNFRSEC21": "110665010",
    "SECNUM21": "010",
    "SSNUM21": "04",
    "SECSSNUM21": "01004",
    "OBJECTID_1": 104242,
    "DT": "11",
    "CC": "06",
    "fr": "65",
    "SEC": "010",
    "SS": "04"
  },
  "addresses": [
    {
      "id": "pt.ine.add.PTCONT.2388973",
      "street": "BC MARQUES DE ANGEJA",
      "house": "2",
      "postcode": "1100-333",
      "city": "LISBOA",
      "lon": "-9.13015127078381",
      "lat": "38.71011289550419"
    },
    {
      "id": "pt.ine.add.PTCONT.2453150",
      "street": "R S JOÃO DA PRAÇA",
      "house": "38",
      "postcode": "1100-520",
      "city": "LISBOA",
      "lon": "-9.130188107686958",
      "lat": "38.70989219946829"
    },
    {
      "id": "pt.ine.add.PTCONT.2453154",
      "street": "R S JOÃO DA PRAÇA",
      "house": "38",
      "postcode": "1100-520",
      "city": "LISBOA",
      "lon": "-9.130188107686958",
      "lat": "38.70989219946829"
    },
    {
      "id": "pt.ine.add.PTCONT.2453155",
      "street": "R S JOÃO DA PRAÇA",
      "house": "38",
      "postcode": "1100-520",
      "city": "LISBOA",
      "lon": "-9.130188107686958",
      "lat": "38.70989219946829"
    },
    {
      "id": "pt.ine.add.PTCONT.2453156",
      "street": "R S JOÃO DA PRAÇA",
      "house": "38",
      "postcode": "1100-520",
      "city": "LISBOA",
      "lon": "-9.130188107686958",
      "lat": "38.70989219946829"
    },
    {
      "id": "pt.ine.add.PTCONT.2453157",
      "street": "R S JOÃO DA PRAÇA",
      "house": "38",
      "postcode": "1100-520",
      "city": "LISBOA",
      "lon": "-9.130188107686958",
      "lat": "38.70989219946829"
    },
    {
      "id": "pt.ine.add.PTCONT.2453158",
      "street": "R S JOÃO DA PRAÇA",
      "house": "38",
      "postcode": "1100-520",
      "city": "LISBOA",
      "lon": "-9.130188107686958",
      "lat": "38.70989219946829"
    },
    {
      "id": "pt.ine.add.PTCONT.2453159",
      "street": "R S JOÃO DA PRAÇA",
      "house": "38",
      "postcode": "1100-520",
      "city": "LISBOA",
      "lon": "-9.130188107686958",
      "lat": "38.70989219946829"
    },
    {
      "id": "pt.ine.add.PTCONT.2453160",
      "street": "R S JOÃO DA PRAÇA",
      "house": "38",
      "postcode": "1100-520",
      "city": "LISBOA",
      "lon": "-9.130188107686958",
      "lat": "38.70989219946829"
    },
    {
      "id": "pt.ine.add.PTCONT.2457312",
      "street": "R S JOÃO DA PRAÇA",
      "house": "38",
      "postcode": "1100-520",
      "city": "LISBOA",
      "lon": "-9.130188107686958",
      "lat": "38.70989219946829"
    },
    {
      "id": "pt.ine.add.PTCONT.2459222",
      "street": "R S JOÃO DA PRAÇA",
      "house": "38",
      "postcode": "1100-520",
      "city": "LISBOA",
      "lon": "-9.130188107686958",
      "lat": "38.70989219946829"
    },
    {
      "id": "pt.ine.add.PTCONT.2467630",
      "street": "TV MERCEEIRAS",
      "house": "2",
      "postcode": "1100-348",
      "city": "LISBOA",
      "lon": "-9.131547306447676",
      "lat": "38.710078774144506"
    },
    {
      "id": "pt.ine.add.PTCONT.2467631",
      "street": "TV MERCEEIRAS",
      "house": "2",
      "postcode": "1100-348",
      "city": "LISBOA",
      "lon": "-9.131547306447676",
      "lat": "38.710078774144506"
    },
    {
      "id": "pt.ine.add.PTCONT.2467632",
      "street": "TV MERCEEIRAS",
      "house": "2",
      "postcode": "1100-348",
      "city": "LISBOA",
      "lon": "-9.131547306447676",
      "lat": "38.710078774144506"
    },
    {
      "id": "pt.ine.add.PTCONT.2534378",
      "street": "BC MARQUES DE ANGEJA",
      "house": "7A",
      "postcode": "1100-333",
      "city": "LISBOA",
      "lon": "-9.130204470424863",
      "lat": "38.710150380397515"
    },
    {
      "id": "pt.ine.add.PTCONT.2588609",
      "street": "R BARÃO",
      "house": "12",
      "postcode": "1100-073",
      "city": "LISBOA",
      "lon": "-9.131178705262673",
      "lat": "38.71002787387735"
    },
    {
      "id": "pt.ine.add.PTCONT.2588599",
      "street": "R BARÃO",
      "house": "18",
      "postcode": "1100-073",
      "city": "LISBOA",
      "lon": "-9.131178705262673",
      "lat": "38.71002787387735"
    },
    {
      "id": "pt.ine.add.PTCONT.2588600",
      "street": "R BARÃO",
      "house": "18",
      "postcode": "1100-073",
      "city": "LISBOA",
      "lon": "-9.131178705262673",
      "lat": "38.71002787387735"
    },
    {
      "id": "pt.ine.add.PTCONT.2588601",
      "street": "R BARÃO",
      "house": "18",
      "postcode": "1100-073",
      "city": "LISBOA",
      "lon": "-9.131178705262673",
      "lat": "38.71002787387735"
    },
    {
      "id": "pt.ine.add.PTCONT.2588602",
      "street": "R BARÃO",
      "house": "16",
      "postcode": "1100-073",
      "city": "LISBOA",
      "lon": "-9.131178705262673",
      "lat": "38.71002787387735"
    },
    {
      "id": "pt.ine.add.PTCONT.2588603",
      "street": "R BARÃO",
      "house": "16",
      "postcode": "1100-073",
      "city": "LISBOA",
      "lon": "-9.131178705262673",
      "lat": "38.71002787387735"
    },
    {
      "id": "pt.ine.add.PTCONT.2588604",
      "street": "R BARÃO",
      "house": "16",
      "postcode": "1100-073",
      "city": "LISBOA",
      "lon": "-9.131178705262673",
      "lat": "38.71002787387735"
    },
    {
      "id": "pt.ine.add.PTCONT.2588605",
      "street": "R BARÃO",
      "house": "16",
      "postcode": "1100-073",
      "city": "LISBOA",
      "lon": "-9.131178705262673",
      "lat": "38.71002787387735"
    },
    {
      "id": "pt.ine.add.PTCONT.2588606",
      "street": "R BARÃO",
      "house": "16",
      "postcode": "1100-073",
      "city": "LISBOA",
      "lon": "-9.131178705262673",
      "lat": "38.71002787387735"
    },
    {
      "id": "pt.ine.add.PTCONT.2588607",
      "street": "R BARÃO",
      "house": "16",
      "postcode": "1100-073",
      "city": "LISBOA",
      "lon": "-9.131178705262673",
      "lat": "38.71002787387735"
    },
    {
      "id": "pt.ine.add.PTCONT.2588608",
      "street": "R BARÃO",
      "house": "16",
      "postcode": "1100-073",
      "city": "LISBOA",
      "lon": "-9.131178705262673",
      "lat": "38.71002787387735"
    },
    {
      "id": "pt.ine.add.PTCONT.2588610",
      "street": "R BARÃO",
      "house": "12",
      "postcode": "1100-073",
      "city": "LISBOA",
      "lon": "-9.131178705262673",
      "lat": "38.71002787387735"
    },
    {
      "id": "pt.ine.add.PTCONT.2588611",
      "street": "R BARÃO",
      "house": "12",
      "postcode": "1100-073",
      "city": "LISBOA",
      "lon": "-9.131178705262673",
      "lat": "38.71002787387735"
    },
    {
      "id": "pt.ine.add.PTCONT.2588612",
      "street": "R BARÃO",
      "house": "12",
      "postcode": "1100-073",
      "city": "LISBOA",
      "lon": "-9.131178705262673",
      "lat": "38.71002787387735"
    },
    {
      "id": "pt.ine.add.PTCONT.2588613",
      "street": "R BARÃO",
      "house": "12",
      "postcode": "1100-073",
      "city": "LISBOA",
      "lon": "-9.131178705262673",
      "lat": "38.71002787387735"
    },
    {
      "id": "pt.ine.add.PTCONT.2588614",
      "street": "R BARÃO",
      "house": "12",
      "postcode": "1100-073",
      "city": "LISBOA",
      "lon": "-9.131178705262673",
      "lat": "38.71002787387735"
    },
    {
      "id": "pt.ine.add.PTCONT.2588620",
      "street": "R BARÃO",
      "house": "12",
      "postcode": "1100-073",
      "city": "LISBOA",
      "lon": "-9.131178705262673",
      "lat": "38.71002787387735"
    },
    {
      "id": "pt.ine.add.PTCONT.2588621",
      "street": "R BARÃO",
      "house": "12",
      "postcode": "1100-073",
      "city": "LISBOA",
      "lon": "-9.131178705262673",
      "lat": "38.71002787387735"
    },
    {
      "id": "pt.ine.add.PTCONT.2588622",
      "street": "R BARÃO",
      "house": "12",
      "postcode": "1100-073",
      "city": "LISBOA",
      "lon": "-9.131178705262673",
      "lat": "38.71002787387735"
    },
    {
      "id": "pt.ine.add.PTCONT.2588623",
      "street": "R BARÃO",
      "house": "12",
      "postcode": "1100-073",
      "city": "LISBOA",
      "lon": "-9.131178705262673",
      "lat": "38.71002787387735"
    },
    {
      "id": "pt.ine.add.PTCONT.2588624",
      "street": "R BARÃO",
      "house": "16",
      "postcode": "1100-073",
      "city": "LISBOA",
      "lon": "-9.131178705262673",
      "lat": "38.71002787387735"
    },
    {
      "id": "pt.ine.add.PTCONT.2588658",
      "street": "R BARÃO",
      "house": "18",
      "postcode": "1100-073",
      "city": "LISBOA",
      "lon": "-9.131178705262673",
      "lat": "38.71002787387735"
    },
    {
      "id": "pt.ine.add.PTCONT.2588659",
      "street": "R BARÃO",
      "house": "18",
      "postcode": "1100-073",
      "city": "LISBOA",
      "lon": "-9.131178705262673",
      "lat": "38.71002787387735"
    },
    {
      "id": "pt.ine.add.PTCONT.2588660",
      "street": "R BARÃO",
      "house": "18",
      "postcode": "1100-073",
      "city": "LISBOA",
      "lon": "-9.131178705262673",
      "lat": "38.71002787387735"
    },
    {
      "id": "pt.ine.add.PTCONT.2592184",
      "street": "R BARÃO",
      "house": "18",
      "postcode": "1100-073",
      "city": "LISBOA",
      "lon": "-9.131178705262673",
      "lat": "38.71002787387735"
    },
    {
      "id": "pt.ine.add.PTCONT.2592890",
      "street": "TV DAS MERCEEIRAS",
      "house": "8",
      "postcode": "1100-348",
      "city": "LISBOA",
      "lon": "-9.131178705262673",
      "lat": "38.71002787387735"
    },
    {
      "id": "pt.ine.add.PTCONT.2592891",
      "street": "TV DAS MERCEEIRAS",
      "house": "8",
      "postcode": "1100-348",
      "city": "LISBOA",
      "lon": "-9.131178705262673",
      "lat": "38.71002787387735"
    },
    {
      "id": "pt.ine.add.PTCONT.2592892",
      "street": "TV DAS MERCEEIRAS",
      "house": "8",
      "postcode": "1100-348",
      "city": "LISBOA",
      "lon": "-9.131178705262673",
      "lat": "38.71002787387735"
    },
    {
      "id": "pt.ine.add.PTCONT.2592893",
      "street": "TV DAS MERCEEIRAS",
      "house": "8",
      "postcode": "1100-348",
      "city": "LISBOA",
      "lon": "-9.131178705262673",
      "lat": "38.71002787387735"
    },
    {
      "id": "pt.ine.add.PTCONT.2659906",
      "street": "R S JOÃO DA PRAÇA",
      "house": "60",
      "postcode": "1100-520",
      "city": "LISBOA",
      "lon": "-9.130367843870525",
      "lat": "38.71003708997014"
    },
    {
      "id": "pt.ine.add.PTCONT.2659907",
      "street": "R S JOÃO DA PRAÇA",
      "house": "60",
      "postcode": "1100-520",
      "city": "LISBOA",
      "lon": "-9.130367843870525",
      "lat": "38.71003708997014"
    },
    {
      "id": "pt.ine.add.PTCONT.2659908",
      "street": "R S JOÃO DA PRAÇA",
      "house": "60",
      "postcode": "1100-520",
      "city": "LISBOA",
      "lon": "-9.130367843870525",
      "lat": "38.71003708997014"
    },
    {
      "id": "pt.ine.add.PTCONT.2668243",
      "street": "BC MARQUES DE ANGEJA",
      "house": "2",
      "postcode": "1100-333",
      "city": "LISBOA",
      "lon": "-9.130329179374522",
      "lat": "38.71011619384466"
    },
    {
      "id": "pt.ine.add.PTCONT.2910746",
      "street": "R BARÃO",
      "house": "6",
      "postcode": "1100-073",
      "city": "LISBOA",
      "lon": "-9.130856836936985",
      "lat": "38.7100306210521"
    },
    {
      "id": "pt.ine.add.PTCONT.2910747",
      "street": "R BARÃO",
      "house": "6",
      "postcode": "1100-073",
      "city": "LISBOA",
      "lon": "-9.130856836936985",
      "lat": "38.7100306210521"
    },
    {
      "id": "pt.ine.add.PTCONT.2910748",
      "street": "R BARÃO",
      "house": "6",
      "postcode": "1100-073",
      "city": "LISBOA",
      "lon": "-9.130856836936985",
      "lat": "38.7100306210521"
    },
    {
      "id": "pt.ine.add.PTCONT.2910749",
      "street": "R BARÃO",
      "house": "6",
      "postcode": "1100-073",
      "city": "LISBOA",
      "lon": "-9.130856836936985",
      "lat": "38.7100306210521"
    },
    {
      "id": "pt.ine.add.PTCONT.2910750",
      "street": "R BARÃO",
      "house": "6",
      "postcode": "1100-073",
      "city": "LISBOA",
      "lon": "-9.130856836936985",
      "lat": "38.7100306210521"
    },
    {
      "id": "pt.ine.add.PTCONT.2910751",
      "street": "R BARÃO",
      "house": "6",
      "postcode": "1100-073",
      "city": "LISBOA",
      "lon": "-9.130856836936985",
      "lat": "38.7100306210521"
    },
    {
      "id": "pt.ine.add.PTCONT.2910752",
      "street": "R BARÃO",
      "house": "6",
      "postcode": "1100-073",
      "city": "LISBOA",
      "lon": "-9.130856836936985",
      "lat": "38.7100306210521"
    },
    {
      "id": "pt.ine.add.PTCONT.2910753",
      "street": "R BARÃO",
      "house": "6",
      "postcode": "1100-073",
      "city": "LISBOA",
      "lon": "-9.130856836936985",
      "lat": "38.7100306210521"
    },
    {
      "id": "pt.ine.add.PTCONT.2910754",
      "street": "R BARÃO",
      "house": "6",
      "postcode": "1100-073",
      "city": "LISBOA",
      "lon": "-9.130856836936985",
      "lat": "38.7100306210521"
    },
    {
      "id": "pt.ine.add.PTCONT.2910755",
      "street": "R BARÃO",
      "house": "6",
      "postcode": "1100-073",
      "city": "LISBOA",
      "lon": "-9.130856836936985",
      "lat": "38.7100306210521"
    },
    {
      "id": "pt.ine.add.PTCONT.2914874",
      "street": "R BARÃO",
      "house": "6",
      "postcode": "1100-073",
      "city": "LISBOA",
      "lon": "-9.130856836936985",
      "lat": "38.7100306210521"
    },
    {
      "id": "pt.ine.add.PTCONT.2946731",
      "street": "R S JOÃO DA PRAÇA",
      "house": "32",
      "postcode": "1100-520",
      "city": "LISBOA",
      "lon": "-9.130016804358377",
      "lat": "38.70997473132378"
    },
    {
      "id": "pt.ine.add.PTCONT.2946732",
      "street": "R S JOÃO DA PRAÇA",
      "house": "32",
      "postcode": "1100-520",
      "city": "LISBOA",
      "lon": "-9.130016804358377",
      "lat": "38.70997473132378"
    },
    {
      "id": "pt.ine.add.PTCONT.2946733",
      "street": "R S JOÃO DA PRAÇA",
      "house": "32",
      "postcode": "1100-520",
      "city": "LISBOA",
      "lon": "-9.130016804358377",
      "lat": "38.70997473132378"
    },
    {
      "id": "pt.ine.add.PTCONT.3109970",
      "street": "R AUGUSTO ROSA",
      "house": "17",
      "postcode": "1100-058",
      "city": "LISBOA",
      "lon": "-9.13188255016859",
      "lat": "38.71021102930296"
    },
    {
      "id": "pt.ine.add.PTCONT.3109971",
      "street": "R AUGUSTO ROSA",
      "house": "17",
      "postcode": "1100-058",
      "city": "LISBOA",
      "lon": "-9.13188255016859",
      "lat": "38.71021102930296"
    },
    {
      "id": "pt.ine.add.PTCONT.3109972",
      "street": "R AUGUSTO ROSA",
      "house": "17",
      "postcode": "1100-058",
      "city": "LISBOA",
      "lon": "-9.13188255016859",
      "lat": "38.71021102930296"
    },
    {
      "id": "pt.ine.add.PTCONT.3110313",
      "street": "R AUGUSTO ROSA",
      "house": "17",
      "postcode": "1100-058",
      "city": "LISBOA",
      "lon": "-9.13188255016859",
      "lat": "38.71021102930296"
    },
    {
      "id": "pt.ine.add.PTCONT.3110323",
      "street": "R AUGUSTO ROSA",
      "house": "17",
      "postcode": "1100-058",
      "city": "LISBOA",
      "lon": "-9.13188255016859",
      "lat": "38.71021102930296"
    },
    {
      "id": "pt.ine.add.PTCONT.3110622",
      "street": "R AUGUSTO ROSA",
      "house": "17",
      "postcode": "1100-058",
      "city": "LISBOA",
      "lon": "-9.13188255016859",
      "lat": "38.71021102930296"
    },
    {
      "id": "pt.ine.add.PTCONT.3113262",
      "street": "R S JOÃO DA PRAÇA",
      "house": "54",
      "postcode": "1100-520",
      "city": "LISBOA",
      "lon": "-9.13033506907215",
      "lat": "38.70989781461627"
    },
    {
      "id": "pt.ine.add.PTCONT.3113263",
      "street": "R S JOÃO DA PRAÇA",
      "house": "54",
      "postcode": "1100-520",
      "city": "LISBOA",
      "lon": "-9.13033506907215",
      "lat": "38.70989781461627"
    },
    {
      "id": "pt.ine.add.PTCONT.3113264",
      "street": "R S JOÃO DA PRAÇA",
      "house": "54",
      "postcode": "1100-520",
      "city": "LISBOA",
      "lon": "-9.13033506907215",
      "lat": "38.70989781461627"
    },
    {
      "id": "pt.ine.add.PTCONT.3113265",
      "street": "R S JOÃO DA PRAÇA",
      "house": "54",
      "postcode": "1100-520",
      "city": "LISBOA",
      "lon": "-9.13033506907215",
      "lat": "38.70989781461627"
    },
    {
      "id": "pt.ine.add.PTCONT.3119873",
      "street": "R S JOÃO DA PRAÇA",
      "house": "54",
      "postcode": "1100-520",
      "city": "LISBOA",
      "lon": "-9.13033506907215",
      "lat": "38.70989781461627"
    },
    {
      "id": "pt.ine.add.PTCONT.3224815",
      "street": "R AUGUSTO ROSA",
      "house": "5 29",
      "postcode": "1100-058",
      "city": "LISBOA",
      "lon": "-9.131996500645654",
      "lat": "38.71013799262983"
    },
    {
      "id": "pt.ine.add.PTCONT.3224816",
      "street": "R AUGUSTO ROSA",
      "house": "5 29",
      "postcode": "1100-058",
      "city": "LISBOA",
      "lon": "-9.131996500645654",
      "lat": "38.71013799262983"
    },
    {
      "id": "pt.ine.add.PTCONT.3437762",
      "street": "R S JOÃO DA PRAÇA",
      "house": "60",
      "postcode": "1100-520",
      "city": "LISBOA",
      "lon": "-9.130367843870525",
      "lat": "38.71003708997014"
    }
  ]
}