{
  "data": {
    "distrito": "Lisboa",
    "concelho": "Sintra",
    "freguesia": "Uni達o das freguesias de Sintra (Santa Maria e S達o Miguel, S達o Martinho e S達o Pedro de Penaferrim)",
    "OBJECTID": 47,
    "BGRI2021": "11112800501",
    "DT21": "11",
    "DTMN21": "1111",
    "DTMNFR21": "111128",
    "DTMNFRSEC21": "111128005",
    "SECNUM21": "005",
    "SSNUM21": "01",
    "SECSSNUM21": "00501",
    "OBJECTID_1": 112706,
    "DT": "11",
    "CC": "11",
    "fr": "28",
    "SEC": "005",
    "SS": "01"
  },
  "addresses": [
    {
      "id": "pt.ine.add.PTCONT.2573114",
      "street": "R CRUZ",
      "house": "10",
      "postcode": "2710-305",
      "city": "SINTRA",
      "lon": "-9.382643897805066",
      "lat": "38.76816046203101"
    },
    {
      "id": "pt.ine.add.PTCONT.2777052",
      "street": "CC QUINTINHA",
      "house": "165",
      "postcode": "2710-338",
      "city": "SINTRA",
      "lon": "-9.382378963765952",
      "lat": "38.76880283726395"
    },
    {
      "id": "pt.ine.add.PTCONT.2802200",
      "street": "CC QUINTINHA",
      "house": "6",
      "postcode": "2710-338",
      "city": "SINTRA",
      "lon": "-9.382202009993136",
      "lat": "38.76855251481703"
    },
    {
      "id": "pt.ine.add.PTCONT.2884213",
      "street": "R CRUZ",
      "house": "",
      "postcode": "2710-305",
      "city": "SINTRA",
      "lon": "-9.382417124128176",
      "lat": "38.76835204713498"
    },
    {
      "id": "pt.ine.add.PTCONT.2884212",
      "street": "R CRUZ",
      "house": "",
      "postcode": "2710-305",
      "city": "SINTRA",
      "lon": "-9.382417124128176",
      "lat": "38.76835204713498"
    },
    {
      "id": "pt.ine.add.PTCONT.3059488",
      "street": "CC QUINTINHA",
      "house": "2",
      "postcode": "2710-338",
      "city": "SINTRA",
      "lon": "-9.382014810131686",
      "lat": "38.768374362740154"
    },
    {
      "id": "pt.ine.add.PTCONT.3059489",
      "street": "R ANTONIO DOS REIS",
      "house": "82",
      "postcode": "2710-299",
      "city": "SINTRA",
      "lon": "-9.382014810131686",
      "lat": "38.768374362740154"
    },
    {
      "id": "pt.ine.add.PTCONT.3088275",
      "street": "R CRUZ",
      "house": "8",
      "postcode": "2710-305",
      "city": "SINTRA",
      "lon": "-9.382472285975426",
      "lat": "38.76821634274639"
    },
    {
      "id": "pt.ine.add.PTCONT.3142716",
      "street": "R CRUZ",
      "house": "14",
      "postcode": "2710-305",
      "city": "SINTRA",
      "lon": "-9.382871455992987",
      "lat": "38.76801390631802"
    },
    {
      "id": "pt.ine.add.PTCONT.3264874",
      "street": "CC QUINTINHA",
      "house": "4",
      "postcode": "2710-338",
      "city": "SINTRA",
      "lon": "-9.382121641206627",
      "lat": "38.768562381483285"
    },
    {
      "id": "pt.ine.add.PTCONT.3327778",
      "street": "R CRUZ",
      "house": "",
      "postcode": "2710-305",
      "city": "SINTRA",
      "lon": "-9.38248583187905",
      "lat": "38.76833329729473"
    },
    {
      "id": "pt.ine.add.PTCONT.3327779",
      "street": "R CRUZ",
      "house": "",
      "postcode": "2710-305",
      "city": "SINTRA",
      "lon": "-9.38248583187905",
      "lat": "38.76833329729473"
    },
    {
      "id": "pt.ine.add.PTCONT.3338052",
      "street": "R CRUZEIRO",
      "house": "20",
      "postcode": "2710-306",
      "city": "SINTRA",
      "lon": "-9.38304605317958",
      "lat": "38.76812913831963"
    },
    {
      "id": "pt.ine.add.PTCONT.3338053",
      "street": "R CRUZEIRO",
      "house": "20",
      "postcode": "2710-306",
      "city": "SINTRA",
      "lon": "-9.38304605317958",
      "lat": "38.76812913831963"
    }
  ]
}