{
  "data": {
    "distrito": "Lisboa",
    "concelho": "Sintra",
    "freguesia": "União das freguesias de Sintra (Santa Maria e São Miguel, São Martinho e São Pedro de Penaferrim)",
    "OBJECTID": 549,
    "BGRI2021": "11112800514",
    "DT21": "11",
    "DTMN21": "1111",
    "DTMNFR21": "111128",
    "DTMNFRSEC21": "111128005",
    "SECNUM21": "005",
    "SSNUM21": "14",
    "SECSSNUM21": "00514",
    "OBJECTID_1": 114023,
    "DT": "11",
    "CC": "11",
    "fr": "28",
    "SEC": "005",
    "SS": "14"
  },
  "addresses": [
    {
      "id": "pt.ine.add.PTCONT.2270791",
      "street": "ENCOSTA DE S EUFEMIA",
      "house": "12",
      "postcode": "2710-477",
      "city": "SINTRA",
      "lon": "-9.383625492730225",
      "lat": "38.78615621435997"
    },
    {
      "id": "pt.ine.add.PTCONT.2318054",
      "street": "R RIO DA BICA",
      "house": "42",
      "postcode": "2710-498",
      "city": "SINTRA",
      "lon": "-9.381281104467604",
      "lat": "38.787009982413764"
    },
    {
      "id": "pt.ine.add.PTCONT.2344548",
      "street": "ENCOSTA DE S EUFEMIA",
      "house": "8",
      "postcode": "2710-477",
      "city": "SINTRA",
      "lon": "-9.383260587484145",
      "lat": "38.786349279130086"
    },
    {
      "id": "pt.ine.add.PTCONT.2362962",
      "street": "R RIO DA BICA",
      "house": "21",
      "postcode": "2710-498",
      "city": "SINTRA",
      "lon": "-9.381944369369762",
      "lat": "38.78742625319557"
    },
    {
      "id": "pt.ine.add.PTCONT.2481911",
      "street": "TV RIO DA BICA",
      "house": "11",
      "postcode": "2710-499",
      "city": "SINTRA",
      "lon": "-9.38356976515675",
      "lat": "38.78889512564252"
    },
    {
      "id": "pt.ine.add.PTCONT.2509320",
      "street": "R RIO DA BICA",
      "house": "23",
      "postcode": "2710-498",
      "city": "SINTRA",
      "lon": "-9.381828830752498",
      "lat": "38.78740046518731"
    },
    {
      "id": "pt.ine.add.PTCONT.2526985",
      "street": "CC JOSE JOAQUIM GONÇALVES",
      "house": "30",
      "postcode": "2710-477",
      "city": "SINTRA",
      "lon": "-9.381349871691643",
      "lat": "38.78633367646784"
    },
    {
      "id": "pt.ine.add.PTCONT.2555072",
      "street": "R RIO DA BICA CASA DA MINA",
      "house": "28",
      "postcode": "2710-498",
      "city": "SINTRA",
      "lon": "-9.38240369513264",
      "lat": "38.78736729724192"
    },
    {
      "id": "pt.ine.add.PTCONT.2597396",
      "street": "R RIO DA BICA CASA DAS AMOREIRAS",
      "house": "31-33",
      "postcode": "2710-498",
      "city": "SINTRA",
      "lon": "-9.381469452061198",
      "lat": "38.78725117590032"
    },
    {
      "id": "pt.ine.add.PTCONT.2597397",
      "street": "R RIO DA BICA CASA DAS AMOREIRAS",
      "house": "31-33",
      "postcode": "2710-498",
      "city": "SINTRA",
      "lon": "-9.381469452061198",
      "lat": "38.78725117590032"
    },
    {
      "id": "pt.ine.add.PTCONT.2597591",
      "street": "R RIO DA BICA CASA DAS AMOREIRAS",
      "house": "31-33",
      "postcode": "2710-498",
      "city": "SINTRA",
      "lon": "-9.381469452061198",
      "lat": "38.78725117590032"
    },
    {
      "id": "pt.ine.add.PTCONT.2627645",
      "street": "TV RIO DA BICA",
      "house": "7",
      "postcode": "2710-499",
      "city": "SINTRA",
      "lon": "-9.383219680055554",
      "lat": "38.78861963579544"
    },
    {
      "id": "pt.ine.add.PTCONT.2627646",
      "street": "R RIO DA BICA",
      "house": "35",
      "postcode": "2710-498",
      "city": "SINTRA",
      "lon": "-9.381251295921398",
      "lat": "38.78728052934886"
    },
    {
      "id": "pt.ine.add.PTCONT.2679034",
      "street": "R RIO DA BICA",
      "house": "32",
      "postcode": "2710-498",
      "city": "SINTRA",
      "lon": "-9.38205896515903",
      "lat": "38.78739800547103"
    },
    {
      "id": "pt.ine.add.PTCONT.2697628",
      "street": "R CANIL",
      "house": "15D",
      "postcode": "2710-477",
      "city": "SINTRA",
      "lon": "-9.381660157464852",
      "lat": "38.7876274581125"
    },
    {
      "id": "pt.ine.add.PTCONT.2697629",
      "street": "R RIO BICA",
      "house": "38",
      "postcode": "2710-498",
      "city": "SINTRA",
      "lon": "-9.381513750957408",
      "lat": "38.78715161881415"
    },
    {
      "id": "pt.ine.add.PTCONT.2821992",
      "street": "R RIO DA BICA SAGRADA FAMILIA",
      "house": "21",
      "postcode": "2710-498",
      "city": "SINTRA",
      "lon": "-9.382060065219102",
      "lat": "38.78746104702419"
    },
    {
      "id": "pt.ine.add.PTCONT.2821993",
      "street": "R RIO DA BICA SAGRADA FAMILIA",
      "house": "21",
      "postcode": "2710-498",
      "city": "SINTRA",
      "lon": "-9.382060065219102",
      "lat": "38.78746104702419"
    },
    {
      "id": "pt.ine.add.PTCONT.2827792",
      "street": "TV RIO DA BICA CASAL DE S JOSE",
      "house": "1",
      "postcode": "2710-499",
      "city": "SINTRA",
      "lon": "-9.383031637471055",
      "lat": "38.78839645720645"
    },
    {
      "id": "pt.ine.add.PTCONT.2839861",
      "street": "CC JOSE JOAQUIM GONÇALVES",
      "house": "32",
      "postcode": "2710-477",
      "city": "SINTRA",
      "lon": "-9.381628071096813",
      "lat": "38.78644780316397"
    },
    {
      "id": "pt.ine.add.PTCONT.3059355",
      "street": "R MIGUEL TORGA",
      "house": "8",
      "postcode": "2710-477",
      "city": "SINTRA",
      "lon": "-9.383443276333795",
      "lat": "38.786266255784014"
    },
    {
      "id": "pt.ine.add.PTCONT.3069565",
      "street": "ENCOSTA DE S EUFEMIA QTA DOS GOLFINHOS DOURADOS",
      "house": "2",
      "postcode": "2710-477",
      "city": "SINTRA",
      "lon": "-9.382156430238446",
      "lat": "38.78638811054022"
    },
    {
      "id": "pt.ine.add.PTCONT.3236224",
      "street": "ENCOSTA DE S EUFEMIA",
      "house": "4",
      "postcode": "2710-477",
      "city": "SINTRA",
      "lon": "-9.382476884626145",
      "lat": "38.78628560068191"
    },
    {
      "id": "pt.ine.add.PTCONT.3254062",
      "street": "TV RIO DA BICA",
      "house": "5",
      "postcode": "2710-499",
      "city": "SINTRA",
      "lon": "-9.383115174109562",
      "lat": "38.78856670819717"
    },
    {
      "id": "pt.ine.add.PTCONT.3281913",
      "street": "TV RIO DA BICA",
      "house": "7",
      "postcode": "2710-499",
      "city": "SINTRA",
      "lon": "-9.38316261739102",
      "lat": "38.78864726914618"
    },
    {
      "id": "pt.ine.add.PTCONT.3346640",
      "street": "CC JOSE JOAQUIM GONÇALVES",
      "house": "8",
      "postcode": "2710-477",
      "city": "SINTRA",
      "lon": "-9.380835124664047",
      "lat": "38.78783443886501"
    },
    {
      "id": "pt.ine.add.PTCONT.3355631",
      "street": "R RIO BICA",
      "house": "25",
      "postcode": "2710-498",
      "city": "SINTRA",
      "lon": "-9.381689650362574",
      "lat": "38.78733889923694"
    },
    {
      "id": "pt.ine.add.PTCONT.3355632",
      "street": "R RIO BICA",
      "house": "27",
      "postcode": "2710-498",
      "city": "SINTRA",
      "lon": "-9.381689650362574",
      "lat": "38.78733889923694"
    }
  ]
}