{
  "data": {
    "distrito": "Setúbal",
    "concelho": "Grândola",
    "freguesia": "União das freguesias de Grândola e Santa Margarida da Serra",
    "OBJECTID": 33,
    "BGRI2021": "15050600710",
    "DT21": "15",
    "DTMN21": "1505",
    "DTMNFR21": "150506",
    "DTMNFRSEC21": "150506007",
    "SECNUM21": "007",
    "SSNUM21": "10",
    "SECSSNUM21": "00710",
    "OBJECTID_1": 163685,
    "DT": "15",
    "CC": "05",
    "fr": "06",
    "SEC": "007",
    "SS": "10"
  },
  "addresses": [
    {
      "id": "pt.ine.add.PTCONT.4705578",
      "street": "MTE VALE CAVALOS",
      "house": "",
      "postcode": "7570-777",
      "city": "SANTA MARGARIDA DA SERRA",
      "lon": "-8.600348791394932",
      "lat": "38.11700515546659"
    },
    {
      "id": "pt.ine.add.PTCONT.4735092",
      "street": "MTE A DOS MATOS",
      "house": "",
      "postcode": "7570-777",
      "city": "SANTA MARGARIDA DA SERRA",
      "lon": "-8.589975786423357",
      "lat": "38.109783223879354"
    },
    {
      "id": "pt.ine.add.PTCONT.4796166",
      "street": "MTE CANTARINHAS",
      "house": "",
      "postcode": "7570-777",
      "city": "SANTA MARGARIDA DA SERRA",
      "lon": "-8.590492935390005",
      "lat": "38.11957404888072"
    },
    {
      "id": "pt.ine.add.PTCONT.4808721",
      "street": "MTE CORTE MADEIROS",
      "house": "",
      "postcode": "7570-777",
      "city": "SANTA MARGARIDA DA SERRA",
      "lon": "-8.598869676070555",
      "lat": "38.10262213770997"
    },
    {
      "id": "pt.ine.add.PTCONT.4810273",
      "street": "MTE CORTE MADEIROS",
      "house": "",
      "postcode": "7570-777",
      "city": "SANTA MARGARIDA DA SERRA",
      "lon": "-8.598869676070555",
      "lat": "38.10262213770997"
    },
    {
      "id": "pt.ine.add.PTCONT.4871882",
      "street": "MTE AMENDOEIRA",
      "house": "",
      "postcode": "7570-777",
      "city": "SANTA MARGARIDA DA SERRA",
      "lon": "-8.597418985631855",
      "lat": "38.11325284663295"
    },
    {
      "id": "pt.ine.add.PTCONT.5005356",
      "street": "MTE OUTEIRO DAS TEMAS",
      "house": "",
      "postcode": "7570-777",
      "city": "SANTA MARGARIDA DA SERRA",
      "lon": "-8.600975902052708",
      "lat": "38.100914870073474"
    },
    {
      "id": "pt.ine.add.PTCONT.5108428",
      "street": "MTE VÁRZEA REDONDA",
      "house": "",
      "postcode": "7570-777",
      "city": "SANTA MARGARIDA DA SERRA",
      "lon": "-8.588570421889685",
      "lat": "38.11666258714647"
    }
  ]
}