{
  "data": {
    "distrito": "Setúbal",
    "concelho": "Grândola",
    "freguesia": "União das freguesias de Grândola e Santa Margarida da Serra",
    "OBJECTID": 5,
    "BGRI2021": "15050600712",
    "DT21": "15",
    "DTMN21": "1505",
    "DTMNFR21": "150506",
    "DTMNFRSEC21": "150506007",
    "SECNUM21": "007",
    "SSNUM21": "12",
    "SECSSNUM21": "00712",
    "OBJECTID_1": 163686,
    "DT": "15",
    "CC": "05",
    "fr": "06",
    "SEC": "007",
    "SS": "12"
  },
  "addresses": [
    {
      "id": "pt.ine.add.PTCONT.4671623",
      "street": "NOVO NOVO CHAFARIS",
      "house": "",
      "postcode": "7570-777",
      "city": "SANTA MARGARIDA DA SERRA",
      "lon": "-8.60386631956117",
      "lat": "38.121274172149874"
    },
    {
      "id": "pt.ine.add.PTCONT.4676725",
      "street": "R ANTÓNIO INÁCIO",
      "house": "",
      "postcode": "7570-777",
      "city": "SANTA MARGARIDA DA SERRA",
      "lon": "-8.600161995158588",
      "lat": "38.11936483640191"
    },
    {
      "id": "pt.ine.add.PTCONT.4707967",
      "street": "EN 120",
      "house": "",
      "postcode": "7570-777",
      "city": "SANTA MARGARIDA DA SERRA",
      "lon": "-8.60253982356876",
      "lat": "38.12287946919958"
    },
    {
      "id": "pt.ine.add.PTCONT.4711353",
      "street": "MTE DA VENTOINHA",
      "house": "",
      "postcode": "7570-777",
      "city": "SANTA MARGARIDA DA SERRA",
      "lon": "-8.603406387646327",
      "lat": "38.12203658667556"
    },
    {
      "id": "pt.ine.add.PTCONT.4735091",
      "street": "LG FEIRA",
      "house": "",
      "postcode": "7570-777",
      "city": "SANTA MARGARIDA DA SERRA",
      "lon": "-8.599629712496304",
      "lat": "38.119500179623934"
    },
    {
      "id": "pt.ine.add.PTCONT.4741520",
      "street": "R PADARIA",
      "house": "1",
      "postcode": "7570-777",
      "city": "SANTA MARGARIDA DA SERRA",
      "lon": "-8.601167855708029",
      "lat": "38.11973020397744"
    },
    {
      "id": "pt.ine.add.PTCONT.4781482",
      "street": "EN 120",
      "house": "3071",
      "postcode": "7570-777",
      "city": "SANTA MARGARIDA DA SERRA",
      "lon": "-8.604677327559992",
      "lat": "38.11907343443353"
    },
    {
      "id": "pt.ine.add.PTCONT.4885273",
      "street": "LG FEIRA",
      "house": "",
      "postcode": "7570-777",
      "city": "SANTA MARGARIDA DA SERRA",
      "lon": "-8.600080048257247",
      "lat": "38.11903182767154"
    },
    {
      "id": "pt.ine.add.PTCONT.4907147",
      "street": "R PADARIA",
      "house": "",
      "postcode": "7570-777",
      "city": "SANTA MARGARIDA DA SERRA",
      "lon": "-8.600689447290145",
      "lat": "38.1196563204395"
    },
    {
      "id": "pt.ine.add.PTCONT.4913472",
      "street": "CERCA NOVA",
      "house": "",
      "postcode": "7570-777",
      "city": "SANTA MARGARIDA DA SERRA",
      "lon": "-8.603274706021107",
      "lat": "38.12106413792887"
    },
    {
      "id": "pt.ine.add.PTCONT.4915374",
      "street": "R ANTÓNIO INÁCIO",
      "house": "",
      "postcode": "7570-777",
      "city": "SANTA MARGARIDA DA SERRA",
      "lon": "-8.600183941249197",
      "lat": "38.119229613559696"
    },
    {
      "id": "pt.ine.add.PTCONT.4940351",
      "street": "MTE CHAFARIS",
      "house": "",
      "postcode": "7570-777",
      "city": "SANTA MARGARIDA DA SERRA",
      "lon": "-8.604390402210576",
      "lat": "38.119539242226054"
    },
    {
      "id": "pt.ine.add.PTCONT.4990918",
      "street": "R ANTÓNIO INÁCIO",
      "house": "",
      "postcode": "7570-777",
      "city": "SANTA MARGARIDA DA SERRA",
      "lon": "-8.599924128807915",
      "lat": "38.119618034884695"
    },
    {
      "id": "pt.ine.add.PTCONT.5016660",
      "street": "CERCA NOVA",
      "house": "",
      "postcode": "7570-777",
      "city": "SANTA MARGARIDA DA SERRA",
      "lon": "-8.601652708948272",
      "lat": "38.12102056100946"
    },
    {
      "id": "pt.ine.add.PTCONT.5016661",
      "street": "R ANTÓNIO INÁCIO",
      "house": "",
      "postcode": "7570-777",
      "city": "SANTA MARGARIDA DA SERRA",
      "lon": "-8.600083949665832",
      "lat": "38.1196444268609"
    },
    {
      "id": "pt.ine.add.PTCONT.5021882",
      "street": "MTE CHAFARIS",
      "house": "",
      "postcode": "7570-777",
      "city": "SANTA MARGARIDA DA SERRA",
      "lon": "-8.60417640234711",
      "lat": "38.119851407776565"
    },
    {
      "id": "pt.ine.add.PTCONT.5024123",
      "street": "LG 25 DE ABRIL",
      "house": "",
      "postcode": "7570-777",
      "city": "SANTA MARGARIDA DA SERRA",
      "lon": "-8.60317929252549",
      "lat": "38.12219064913222"
    },
    {
      "id": "pt.ine.add.PTCONT.5024124",
      "street": "LG 25 DE ABRIL",
      "house": "",
      "postcode": "7570-777",
      "city": "SANTA MARGARIDA DA SERRA",
      "lon": "-8.60317929252549",
      "lat": "38.12219064913222"
    },
    {
      "id": "pt.ine.add.PTCONT.5024125",
      "street": "LG 25 DE ABRIL",
      "house": "",
      "postcode": "7570-777",
      "city": "SANTA MARGARIDA DA SERRA",
      "lon": "-8.60317929252549",
      "lat": "38.12219064913222"
    },
    {
      "id": "pt.ine.add.PTCONT.5042381",
      "street": "VENDINHA SUL",
      "house": "CCI 3052",
      "postcode": "7570-777",
      "city": "SANTA MARGARIDA DA SERRA",
      "lon": "-8.602998216217705",
      "lat": "38.12240759033638"
    },
    {
      "id": "pt.ine.add.PTCONT.5095430",
      "street": "CERCA NOVA",
      "house": "",
      "postcode": "7570-777",
      "city": "SANTA MARGARIDA DA SERRA",
      "lon": "-8.601885639546452",
      "lat": "38.12107935902226"
    },
    {
      "id": "pt.ine.add.PTCONT.5101257",
      "street": "EN 120",
      "house": "",
      "postcode": "7570-777",
      "city": "SANTA MARGARIDA DA SERRA",
      "lon": "-8.60274775938858",
      "lat": "38.12250230108227"
    },
    {
      "id": "pt.ine.add.PTCONT.5101258",
      "street": "EN 120",
      "house": "",
      "postcode": "7570-777",
      "city": "SANTA MARGARIDA DA SERRA",
      "lon": "-8.60274775938858",
      "lat": "38.12250230108227"
    },
    {
      "id": "pt.ine.add.PTCONT.5103412",
      "street": "NOVO CHAFARIS",
      "house": "",
      "postcode": "7570-777",
      "city": "SANTA MARGARIDA DA SERRA",
      "lon": "-8.603847784976141",
      "lat": "38.12096250495025"
    },
    {
      "id": "pt.ine.add.PTCONT.5131822",
      "street": "MTE CHAFARIS",
      "house": "",
      "postcode": "7570-777",
      "city": "SANTA MARGARIDA DA SERRA",
      "lon": "-8.60417640234711",
      "lat": "38.119851407776565"
    }
  ]
}