{
  "data": {
    "distrito": "Setúbal",
    "concelho": "Grândola",
    "freguesia": "União das freguesias de Grândola e Santa Margarida da Serra",
    "OBJECTID": 267,
    "BGRI2021": "15050600738",
    "DT21": "15",
    "DTMN21": "1505",
    "DTMNFR21": "150506",
    "DTMNFRSEC21": "150506007",
    "SECNUM21": "007",
    "SSNUM21": "38",
    "SECSSNUM21": "00738",
    "OBJECTID_1": 163333,
    "DT": "15",
    "CC": "05",
    "fr": "06",
    "SEC": "007",
    "SS": "38"
  },
  "addresses": [
    {
      "id": "pt.ine.add.PTCONT.4855436",
      "street": "IC",
      "house": "",
      "postcode": "7570-127",
      "city": "GRÂNDOLA",
      "lon": "-8.467140328476592",
      "lat": "38.13006165374615"
    },
    {
      "id": "pt.ine.add.PTCONT.4890484",
      "street": "MTE SE DAO LOURENÇO",
      "house": "",
      "postcode": "7570-127",
      "city": "GRÂNDOLA",
      "lon": "-8.479613500532787",
      "lat": "38.13300352461959"
    },
    {
      "id": "pt.ine.add.PTCONT.4911983",
      "street": "COURELA MONTE NOVO",
      "house": "",
      "postcode": "7570-127",
      "city": "GRÂNDOLA",
      "lon": "-8.494419301530206",
      "lat": "38.14478711516668"
    },
    {
      "id": "pt.ine.add.PTCONT.5005352",
      "street": "MTE S LOURENÇO NORTE",
      "house": "",
      "postcode": "7570-127",
      "city": "GRÂNDOLA",
      "lon": "-8.477290158733483",
      "lat": "38.132275609745996"
    },
    {
      "id": "pt.ine.add.PTCONT.5076758",
      "street": "MTE S LOURENÇO NORTE",
      "house": "",
      "postcode": "7570-127",
      "city": "GRÂNDOLA",
      "lon": "-8.477157054475668",
      "lat": "38.13213810077855"
    },
    {
      "id": "pt.ine.add.PTCONT.5125670",
      "street": "MTE S LOURENÇO NORTE",
      "house": "",
      "postcode": "7570-127",
      "city": "GRÂNDOLA",
      "lon": "-8.477929551792625",
      "lat": "38.13241787951256"
    },
    {
      "id": "pt.ine.add.PTCONT.5128780",
      "street": "ESTR IC1 MONTE PEDROES",
      "house": "",
      "postcode": "7570-121",
      "city": "GRÂNDOLA",
      "lon": "-8.467005065528555",
      "lat": "38.130413391541964"
    },
    {
      "id": "pt.ine.add.PTCONT.5132017",
      "street": "IC",
      "house": "",
      "postcode": "7570-127",
      "city": "GRÂNDOLA",
      "lon": "-8.467300210548581",
      "lat": "38.13010681909725"
    }
  ]
}