{
  "data": {
    "distrito": "Leiria",
    "concelho": "Óbidos",
    "freguesia": "Santa Maria, São Pedro e Sobral da Lagoa",
    "OBJECTID": 28,
    "BGRI2021": "10121000215",
    "DT21": "10",
    "DTMN21": "1012",
    "DTMNFR21": "101210",
    "DTMNFRSEC21": "101210002",
    "SECNUM21": "002",
    "SSNUM21": "15",
    "SECSSNUM21": "00215",
    "OBJECTID_1": 93623,
    "DT": "10",
    "CC": "12",
    "fr": "10",
    "SEC": "002",
    "SS": "15"
  },
  "addresses": [
    {
      "id": "pt.ine.add.PTCONT.1989901",
      "street": "R 11 DE JANEIRO",
      "house": "4",
      "postcode": "2510-171",
      "city": "ÓBIDOS",
      "lon": "-9.163898453383688",
      "lat": "39.35789813267962"
    },
    {
      "id": "pt.ine.add.PTCONT.2011818",
      "street": "R 11 DE JANEIRO",
      "house": "3",
      "postcode": "2510-171",
      "city": "ÓBIDOS",
      "lon": "-9.163700051764108",
      "lat": "39.35781882775827"
    },
    {
      "id": "pt.ine.add.PTCONT.2046800",
      "street": "R FUNDADORES PINHAL",
      "house": "8",
      "postcode": "2510-171",
      "city": "ÓBIDOS",
      "lon": "-9.163996504819698",
      "lat": "39.357464932447115"
    },
    {
      "id": "pt.ine.add.PTCONT.2067386",
      "street": "R ESTAÇÃO",
      "house": "",
      "postcode": "2510-171",
      "city": "ÓBIDOS",
      "lon": "-9.163975156959319",
      "lat": "39.35759121829738"
    },
    {
      "id": "pt.ine.add.PTCONT.2099439",
      "street": "R 11 DE JANEIRO",
      "house": "5",
      "postcode": "2510-171",
      "city": "ÓBIDOS",
      "lon": "-9.163666705636478",
      "lat": "39.35791819907839"
    },
    {
      "id": "pt.ine.add.PTCONT.2172559",
      "street": "R PONTE",
      "house": "2",
      "postcode": "2510-171",
      "city": "ÓBIDOS",
      "lon": "-9.163818704954902",
      "lat": "39.357997915061404"
    },
    {
      "id": "pt.ine.add.PTCONT.2184589",
      "street": "R 11 DE JANEIRO",
      "house": "",
      "postcode": "2510-171",
      "city": "ÓBIDOS",
      "lon": "-9.163621758776072",
      "lat": "39.358017673119555"
    },
    {
      "id": "pt.ine.add.PTCONT.2189106",
      "street": "R 11 DE JANEIRO",
      "house": "1",
      "postcode": "2510-171",
      "city": "ÓBIDOS",
      "lon": "-9.16374446900999",
      "lat": "39.357683330736755"
    },
    {
      "id": "pt.ine.add.PTCONT.2198988",
      "street": "R ESTAÇÃO",
      "house": "6",
      "postcode": "2510-171",
      "city": "ÓBIDOS",
      "lon": "-9.163942870291425",
      "lat": "39.35776263558862"
    },
    {
      "id": "pt.ine.add.PTCONT.2224621",
      "street": "R FUNDADORES PINHAL",
      "house": "6",
      "postcode": "2510-171",
      "city": "ÓBIDOS",
      "lon": "-9.163868501703385",
      "lat": "39.357439045597175"
    }
  ]
}