{
  "data": {
    "distrito": "Setúbal",
    "concelho": "Grândola",
    "freguesia": "Melides",
    "OBJECTID": 39,
    "BGRI2021": "15050300115",
    "DT21": "15",
    "DTMN21": "1505",
    "DTMNFR21": "150503",
    "DTMNFRSEC21": "150503001",
    "SECNUM21": "001",
    "SSNUM21": "15",
    "SECSSNUM21": "00115",
    "OBJECTID_1": 163444,
    "DT": "15",
    "CC": "05",
    "fr": "03",
    "SEC": "001",
    "SS": "15"
  },
  "addresses": [
    {
      "id": "pt.ine.add.PTCONT.4678729",
      "street": "ESTR PRAIA DE MELIDES",
      "house": "",
      "postcode": "7570-660",
      "city": "MELIDES",
      "lon": "-8.766169822916307",
      "lat": "38.133670846864625"
    },
    {
      "id": "pt.ine.add.PTCONT.4687058",
      "street": "",
      "house": "",
      "postcode": "7570-606",
      "city": "MELIDES",
      "lon": "-8.765746557011237",
      "lat": "38.13082086791468"
    },
    {
      "id": "pt.ine.add.PTCONT.4755163",
      "street": "ESTR PRAIA DE MELIDES",
      "house": "",
      "postcode": "7570-660",
      "city": "MELIDES",
      "lon": "-8.766381503777065",
      "lat": "38.13329099993207"
    },
    {
      "id": "pt.ine.add.PTCONT.4792588",
      "street": "QTA TARRAJANA RIC",
      "house": "",
      "postcode": "7570-768",
      "city": "MELIDES",
      "lon": "-8.76267503652611",
      "lat": "38.12963822386541"
    },
    {
      "id": "pt.ine.add.PTCONT.4836749",
      "street": "VALENCIA DO NORTE",
      "house": "",
      "postcode": "7570-768",
      "city": "MELIDES",
      "lon": "-8.762857628869828",
      "lat": "38.12965082618167"
    },
    {
      "id": "pt.ine.add.PTCONT.4855422",
      "street": "VALENCIA DE BAIXO",
      "house": "",
      "postcode": "7570-766",
      "city": "MELIDES",
      "lon": "-8.765085143784372",
      "lat": "38.130287081264306"
    },
    {
      "id": "pt.ine.add.PTCONT.4879284",
      "street": "",
      "house": "",
      "postcode": "7570-443",
      "city": "MELIDES",
      "lon": "-8.762902825931873",
      "lat": "38.13278289120211"
    },
    {
      "id": "pt.ine.add.PTCONT.4965701",
      "street": "",
      "house": "",
      "postcode": "7570-746",
      "city": "MELIDES",
      "lon": "-8.76295592460514",
      "lat": "38.13070392008897"
    },
    {
      "id": "pt.ine.add.PTCONT.5046073",
      "street": "ESTR PRAIA DE MELIDES",
      "house": "",
      "postcode": "7570-660",
      "city": "MELIDES",
      "lon": "-8.765756605197966",
      "lat": "38.13364867408127"
    },
    {
      "id": "pt.ine.add.PTCONT.5110455",
      "street": "",
      "house": "",
      "postcode": "7570-746",
      "city": "MELIDES",
      "lon": "-8.762260457974902",
      "lat": "38.130734673792496"
    },
    {
      "id": "pt.ine.add.PTCONT.5110456",
      "street": "",
      "house": "",
      "postcode": "7570-746",
      "city": "MELIDES",
      "lon": "-8.762260457974902",
      "lat": "38.130734673792496"
    }
  ]
}