{
  "data": {
    "distrito": "Viseu",
    "concelho": "Tarouca",
    "freguesia": "União das freguesias de Tarouca e Dálvares",
    "OBJECTID": 300,
    "BGRI2021": "18201300429",
    "DT21": "18",
    "DTMN21": "1820",
    "DTMNFR21": "182013",
    "DTMNFRSEC21": "182013004",
    "SECNUM21": "004",
    "SSNUM21": "29",
    "SECSSNUM21": "00429",
    "OBJECTID_1": 198498,
    "DT": "18",
    "CC": "20",
    "fr": "13",
    "SEC": "004",
    "SS": "29"
  },
  "addresses": [
    {
      "id": "pt.ine.add.PTCONT.5446390",
      "street": "R COUCO",
      "house": "",
      "postcode": "3610-108",
      "city": "TAROUCA",
      "lon": "-7.796086295075479",
      "lat": "41.02667406743406"
    },
    {
      "id": "pt.ine.add.PTCONT.5453875",
      "street": "R SENHORA DO ALIVIO",
      "house": "",
      "postcode": "3610-108",
      "city": "TAROUCA",
      "lon": "-7.798036428786033",
      "lat": "41.02665273948012"
    },
    {
      "id": "pt.ine.add.PTCONT.5506416",
      "street": "R COUCO",
      "house": "",
      "postcode": "3610-108",
      "city": "TAROUCA",
      "lon": "-7.797155911782999",
      "lat": "41.02677624036323"
    },
    {
      "id": "pt.ine.add.PTCONT.5512509",
      "street": "ESTR BARROCA",
      "house": "",
      "postcode": "3610-108",
      "city": "TAROUCA",
      "lon": "-7.7937811066468985",
      "lat": "41.024055977490626"
    },
    {
      "id": "pt.ine.add.PTCONT.5515213",
      "street": "OUTEIRO",
      "house": "",
      "postcode": "3610-167",
      "city": "TAROUCA",
      "lon": "-7.792725025953224",
      "lat": "41.02595282873707"
    },
    {
      "id": "pt.ine.add.PTCONT.5564660",
      "street": "R COUCO",
      "house": "",
      "postcode": "3610-108",
      "city": "TAROUCA",
      "lon": "-7.797204250632655",
      "lat": "41.02662330352044"
    },
    {
      "id": "pt.ine.add.PTCONT.5570206",
      "street": "R BARROCA SN",
      "house": "SN",
      "postcode": "3610-108",
      "city": "TAROUCA",
      "lon": "-7.796633795357856",
      "lat": "41.02656761217638"
    },
    {
      "id": "pt.ine.add.PTCONT.5615907",
      "street": "R COUCO",
      "house": "",
      "postcode": "3610-108",
      "city": "TAROUCA",
      "lon": "-7.797619859751626",
      "lat": "41.02673256886395"
    },
    {
      "id": "pt.ine.add.PTCONT.5639318",
      "street": "R COUCO",
      "house": "",
      "postcode": "3610-108",
      "city": "TAROUCA",
      "lon": "-7.795753460762551",
      "lat": "41.02665508458962"
    }
  ]
}