{
  "data": {
    "distrito": "Coimbra",
    "concelho": "Oliveira do Hospital",
    "freguesia": "Meruge",
    "OBJECTID": 435,
    "BGRI2021": "06111000121",
    "DT21": "06",
    "DTMN21": "0611",
    "DTMNFR21": "061110",
    "DTMNFRSEC21": "061110001",
    "SECNUM21": "001",
    "SSNUM21": "21",
    "SECSSNUM21": "00121",
    "OBJECTID_1": 54436,
    "DT": "06",
    "CC": "11",
    "fr": "10",
    "SEC": "001",
    "SS": "21"
  },
  "addresses": [
    {
      "id": "pt.ine.add.PTCONT.1103821",
      "street": "LG DO BOCO",
      "house": "",
      "postcode": "3405-357",
      "city": "MERUGE",
      "lon": "-7.809384087140596",
      "lat": "40.395348959043844"
    },
    {
      "id": "pt.ine.add.PTCONT.1103822",
      "street": "LG DO BOCO",
      "house": "",
      "postcode": "3405-357",
      "city": "MERUGE",
      "lon": "-7.809384087140596",
      "lat": "40.395348959043844"
    },
    {
      "id": "pt.ine.add.PTCONT.1103823",
      "street": "LG DO BOCO",
      "house": "",
      "postcode": "3405-357",
      "city": "MERUGE",
      "lon": "-7.809384087140596",
      "lat": "40.395348959043844"
    },
    {
      "id": "pt.ine.add.PTCONT.1122469",
      "street": "TV DA RIGUEIRA",
      "house": "1",
      "postcode": "3405-353",
      "city": "MERUGE",
      "lon": "-7.806635007769687",
      "lat": "40.3963138304162"
    },
    {
      "id": "pt.ine.add.PTCONT.1122470",
      "street": "TV DA RIGUEIRA",
      "house": "1",
      "postcode": "3405-353",
      "city": "MERUGE",
      "lon": "-7.806635007769687",
      "lat": "40.3963138304162"
    },
    {
      "id": "pt.ine.add.PTCONT.1172494",
      "street": "LG DO BOCO",
      "house": "2",
      "postcode": "3405-357",
      "city": "MERUGE",
      "lon": "-7.809417007599207",
      "lat": "40.39585336246876"
    },
    {
      "id": "pt.ine.add.PTCONT.1195674",
      "street": "QTA DA COSTEIRA",
      "house": "",
      "postcode": "3405-353",
      "city": "MERUGE",
      "lon": "-7.81001173049052",
      "lat": "40.397106798159136"
    },
    {
      "id": "pt.ine.add.PTCONT.1211119",
      "street": "LG DO BOCO",
      "house": "",
      "postcode": "3405-357",
      "city": "MERUGE",
      "lon": "-7.8095715512187",
      "lat": "40.39555661155359"
    },
    {
      "id": "pt.ine.add.PTCONT.1211120",
      "street": "LG DO BOCO",
      "house": "",
      "postcode": "3405-357",
      "city": "MERUGE",
      "lon": "-7.8095715512187",
      "lat": "40.39555661155359"
    },
    {
      "id": "pt.ine.add.PTCONT.1211121",
      "street": "LG DO BOCO",
      "house": "",
      "postcode": "3405-357",
      "city": "MERUGE",
      "lon": "-7.8095715512187",
      "lat": "40.39555661155359"
    },
    {
      "id": "pt.ine.add.PTCONT.1255688",
      "street": "TV DA RIGUEIRA",
      "house": "3",
      "postcode": "3405-353",
      "city": "MERUGE",
      "lon": "-7.806468453256611",
      "lat": "40.39665557120597"
    },
    {
      "id": "pt.ine.add.PTCONT.1282084",
      "street": "AV DA RIGUEIRA",
      "house": "5",
      "postcode": "3405-353",
      "city": "MERUGE",
      "lon": "-7.807013574871652",
      "lat": "40.395972687445884"
    },
    {
      "id": "pt.ine.add.PTCONT.1328612",
      "street": "AV DA RIGUEIRA",
      "house": "3",
      "postcode": "3405-353",
      "city": "MERUGE",
      "lon": "-7.807237888711494",
      "lat": "40.3958652531151"
    },
    {
      "id": "pt.ine.add.PTCONT.1363429",
      "street": "LG DO BOCO",
      "house": "1",
      "postcode": "3405-357",
      "city": "MERUGE",
      "lon": "-7.808884985719804",
      "lat": "40.39626612762103"
    }
  ]
}