{
  "data": {
    "distrito": "Castelo Branco",
    "concelho": "Covilhã",
    "freguesia": "União das freguesias de Covilhã e Canhoso",
    "OBJECTID": 357,
    "BGRI2021": "05033500102",
    "DT21": "05",
    "DTMN21": "0503",
    "DTMNFR21": "050335",
    "DTMNFRSEC21": "050335001",
    "SECNUM21": "001",
    "SSNUM21": "02",
    "SECSSNUM21": "00102",
    "OBJECTID_1": 42408,
    "DT": "05",
    "CC": "03",
    "fr": "35",
    "SEC": "001",
    "SS": "02"
  },
  "addresses": [
    {
      "id": "pt.ine.add.PTCONT.955061",
      "street": "R CARREIRA DE TIRO",
      "house": "2 B",
      "postcode": "6200-349",
      "city": "COVILHÃ",
      "lon": "-7.5198224735085155",
      "lat": "40.27151055173941"
    },
    {
      "id": "pt.ine.add.PTCONT.955062",
      "street": "R CARREIRA DE TIRO",
      "house": "2 B",
      "postcode": "6200-349",
      "city": "COVILHÃ",
      "lon": "-7.5198224735085155",
      "lat": "40.27151055173941"
    },
    {
      "id": "pt.ine.add.PTCONT.955063",
      "street": "TV QUINTINHA",
      "house": "2",
      "postcode": "6200-349",
      "city": "COVILHÃ",
      "lon": "-7.5198224735085155",
      "lat": "40.27151055173941"
    },
    {
      "id": "pt.ine.add.PTCONT.955083",
      "street": "TV QUELHAS",
      "house": "5",
      "postcode": "6200-349",
      "city": "COVILHÃ",
      "lon": "-7.520788128319084",
      "lat": "40.27133555198606"
    },
    {
      "id": "pt.ine.add.PTCONT.1048816",
      "street": "R CARREIRA TIRO",
      "house": "",
      "postcode": "6200-349",
      "city": "COVILHÃ",
      "lon": "-7.519514038172179",
      "lat": "40.27181511002117"
    },
    {
      "id": "pt.ine.add.PTCONT.1055915",
      "street": "TV QUELHAS",
      "house": "",
      "postcode": "6200-349",
      "city": "COVILHÃ",
      "lon": "-7.520518517201442",
      "lat": "40.272549892980095"
    },
    {
      "id": "pt.ine.add.PTCONT.1061320",
      "street": "R CARREIRA DE TIRO",
      "house": "",
      "postcode": "6200-349",
      "city": "COVILHÃ",
      "lon": "-7.51966931396833",
      "lat": "40.27154576263377"
    },
    {
      "id": "pt.ine.add.PTCONT.1066695",
      "street": "R CARREIRA DE TIRO",
      "house": "",
      "postcode": "6200-349",
      "city": "COVILHÃ",
      "lon": "-7.519881662541112",
      "lat": "40.27146583698458"
    },
    {
      "id": "pt.ine.add.PTCONT.1067051",
      "street": "TV QUELHAS",
      "house": "3 A",
      "postcode": "6200-349",
      "city": "COVILHÃ",
      "lon": "-7.5202930573639595",
      "lat": "40.27147702216908"
    },
    {
      "id": "pt.ine.add.PTCONT.1069454",
      "street": "R CARREIRA TIRO",
      "house": "3",
      "postcode": "6200-349",
      "city": "COVILHÃ",
      "lon": "-7.520364246340035",
      "lat": "40.271405353648426"
    },
    {
      "id": "pt.ine.add.PTCONT.1072714",
      "street": "TV QUELHAS",
      "house": "1",
      "postcode": "6200-349",
      "city": "COVILHÃ",
      "lon": "-7.520400328391773",
      "lat": "40.271315487813176"
    },
    {
      "id": "pt.ine.add.PTCONT.1072715",
      "street": "TV QUELHAS",
      "house": "1",
      "postcode": "6200-349",
      "city": "COVILHÃ",
      "lon": "-7.520400328391773",
      "lat": "40.271315487813176"
    },
    {
      "id": "pt.ine.add.PTCONT.1081695",
      "street": "R CARREIRA DE TIRO",
      "house": "16",
      "postcode": "6200-349",
      "city": "COVILHÃ",
      "lon": "-7.520708107657524",
      "lat": "40.271082969181286"
    }
  ]
}