{
  "data": {
    "distrito": "Aveiro",
    "concelho": "Oliveira de Azeméis",
    "freguesia": "União das freguesias de Oliveira de Azeméis, Santiago da Riba-Ul, Ul, Macinhata da Seixa e Madail",
    "OBJECTID": 188,
    "BGRI2021": "01132100917",
    "DT21": "01",
    "DTMN21": "0113",
    "DTMNFR21": "011321",
    "DTMNFRSEC21": "011321009",
    "SECNUM21": "009",
    "SSNUM21": "17",
    "SECSSNUM21": "00917",
    "OBJECTID_1": 9111,
    "DT": "01",
    "CC": "13",
    "fr": "21",
    "SEC": "009",
    "SS": "17"
  },
  "addresses": [
    {
      "id": "pt.ine.add.PTCONT.299155",
      "street": "R REQUEIXO",
      "house": "617",
      "postcode": "3720-094",
      "city": "MACINHATA DA SEIXA",
      "lon": "-8.478447990085815",
      "lat": "40.82261126021818"
    },
    {
      "id": "pt.ine.add.PTCONT.325159",
      "street": "R SENHOR DA PONTE",
      "house": "371",
      "postcode": "3720-091",
      "city": "MACINHATA DA SEIXA",
      "lon": "-8.477990319925242",
      "lat": "40.82121687114638"
    },
    {
      "id": "pt.ine.add.PTCONT.9486",
      "street": "R REQUEIXO",
      "house": "",
      "postcode": "3720-094",
      "city": "MACINHATA DA SEIXA",
      "lon": "-8.477482740628902",
      "lat": "40.823919854249496"
    },
    {
      "id": "pt.ine.add.PTCONT.98816",
      "street": "R REQUEIXO",
      "house": "659",
      "postcode": "3720-094",
      "city": "MACINHATA DA SEIXA",
      "lon": "-8.478516683059935",
      "lat": "40.822142800305556"
    },
    {
      "id": "pt.ine.add.PTCONT.158246",
      "street": "CC PONTE",
      "house": "41 C",
      "postcode": "3720-091",
      "city": "MACINHATA DA SEIXA",
      "lon": "-8.479057972199744",
      "lat": "40.82137576279675"
    },
    {
      "id": "pt.ine.add.PTCONT.162635",
      "street": "CC PONTE",
      "house": "41A",
      "postcode": "3720-091",
      "city": "MACINHATA DA SEIXA",
      "lon": "-8.478785856548344",
      "lat": "40.821475632216675"
    },
    {
      "id": "pt.ine.add.PTCONT.185685",
      "street": "R CARVALHOS",
      "house": "415",
      "postcode": "3720-094",
      "city": "MACINHATA DA SEIXA",
      "lon": "-8.47758886688045",
      "lat": "40.823811478774026"
    },
    {
      "id": "pt.ine.add.PTCONT.196524",
      "street": "R SENHOR DA PONTE",
      "house": "43",
      "postcode": "3720-091",
      "city": "MACINHATA DA SEIXA",
      "lon": "-8.479472141126632",
      "lat": "40.82123944680062"
    },
    {
      "id": "pt.ine.add.PTCONT.207941",
      "street": "R REQUEIXO",
      "house": "651",
      "postcode": "3720-094",
      "city": "MACINHATA DA SEIXA",
      "lon": "-8.478551589821791",
      "lat": "40.822016627329994"
    },
    {
      "id": "pt.ine.add.PTCONT.226363",
      "street": "R REQUEIXO",
      "house": "611",
      "postcode": "3720-094",
      "city": "MACINHATA DA SEIXA",
      "lon": "-8.47891778829956",
      "lat": "40.82177239826301"
    },
    {
      "id": "pt.ine.add.PTCONT.242654",
      "street": "CC PONTE",
      "house": "41",
      "postcode": "3720-091",
      "city": "MACINHATA DA SEIXA",
      "lon": "-8.478927817833327",
      "lat": "40.821421177446716"
    },
    {
      "id": "pt.ine.add.PTCONT.258906",
      "street": "CC PONTE",
      "house": "75",
      "postcode": "3720-091",
      "city": "MACINHATA DA SEIXA",
      "lon": "-8.479827697693024",
      "lat": "40.821229373953905"
    },
    {
      "id": "pt.ine.add.PTCONT.277897",
      "street": "CC FORMAL DO FORMAL",
      "house": "21",
      "postcode": "3720-082",
      "city": "MACINHATA DA SEIXA",
      "lon": "-8.480692482160142",
      "lat": "40.821127718093585"
    },
    {
      "id": "pt.ine.add.PTCONT.277898",
      "street": "R FORMAL",
      "house": "21",
      "postcode": "3720-082",
      "city": "MACINHATA DA SEIXA",
      "lon": "-8.480692482160142",
      "lat": "40.821127718093585"
    }
  ]
}