{
  "data": {
    "distrito": "Santarém",
    "concelho": "Cartaxo",
    "freguesia": "Pontével",
    "OBJECTID": 337,
    "BGRI2021": "14060400314",
    "DT21": "14",
    "DTMN21": "1406",
    "DTMNFR21": "140604",
    "DTMNFRSEC21": "140604003",
    "SECNUM21": "003",
    "SSNUM21": "14",
    "SECSSNUM21": "00314",
    "OBJECTID_1": 149640,
    "DT": "14",
    "CC": "06",
    "fr": "04",
    "SEC": "003",
    "SS": "14"
  },
  "addresses": [
    {
      "id": "pt.ine.add.PTCONT.4417408",
      "street": "R VASCO GAMA",
      "house": "3",
      "postcode": "2070-435",
      "city": "PONTÉVEL",
      "lon": "-8.837922718512495",
      "lat": "39.148524192558895"
    },
    {
      "id": "pt.ine.add.PTCONT.4432673",
      "street": "R CAPELO",
      "house": "4",
      "postcode": "2070-411",
      "city": "PONTÉVEL",
      "lon": "-8.838571109453364",
      "lat": "39.148583321270365"
    },
    {
      "id": "pt.ine.add.PTCONT.4480290",
      "street": "R VASCO DA GAMA",
      "house": "8",
      "postcode": "2070-435",
      "city": "PONTÉVEL",
      "lon": "-8.838073990301188",
      "lat": "39.14861335146668"
    },
    {
      "id": "pt.ine.add.PTCONT.4530351",
      "street": "LG MOSTEIRO",
      "house": "1",
      "postcode": "2070-451",
      "city": "PONTÉVEL",
      "lon": "-8.837896350137957",
      "lat": "39.148200086231036"
    },
    {
      "id": "pt.ine.add.PTCONT.4571514",
      "street": "R VASCO GAMA",
      "house": "11",
      "postcode": "2070-435",
      "city": "PONTÉVEL",
      "lon": "-8.838126961818265",
      "lat": "39.14835977316105"
    },
    {
      "id": "pt.ine.add.PTCONT.4572979",
      "street": "R VASCO GAMA",
      "house": "13",
      "postcode": "2070-435",
      "city": "PONTÉVEL",
      "lon": "-8.838230407949233",
      "lat": "39.14829318717677"
    }
  ]
}