{
  "data": {
    "distrito": "Viseu",
    "concelho": "Vouzela",
    "freguesia": "União das freguesias de Vouzela e Paços de Vilharigues",
    "OBJECTID": 258,
    "BGRI2021": "18241500216",
    "DT21": "18",
    "DTMN21": "1824",
    "DTMNFR21": "182415",
    "DTMNFRSEC21": "182415002",
    "SECNUM21": "002",
    "SSNUM21": "16",
    "SECSSNUM21": "00216",
    "OBJECTID_1": 203010,
    "DT": "18",
    "CC": "24",
    "fr": "15",
    "SEC": "002",
    "SS": "16"
  },
  "addresses": [
    {
      "id": "pt.ine.add.PTCONT.5471039",
      "street": "R SIDÓNIO PAIS",
      "house": "31",
      "postcode": "3670-254",
      "city": "VOUZELA",
      "lon": "-8.107447374296486",
      "lat": "40.72308879608559"
    },
    {
      "id": "pt.ine.add.PTCONT.5506921",
      "street": "R SIDÓNIO PAIS",
      "house": "23",
      "postcode": "3670-254",
      "city": "VOUZELA",
      "lon": "-8.108299439415287",
      "lat": "40.723476200327795"
    },
    {
      "id": "pt.ine.add.PTCONT.5508602",
      "street": "R MOREIRA DE FIGUEIREDO",
      "house": "7",
      "postcode": "3670-259",
      "city": "VOUZELA",
      "lon": "-8.106997481253453",
      "lat": "40.72338586248057"
    },
    {
      "id": "pt.ine.add.PTCONT.5520540",
      "street": "R SIDÓNIO PAIS",
      "house": "25",
      "postcode": "3670-254",
      "city": "VOUZELA",
      "lon": "-8.107956237468912",
      "lat": "40.72334105002293"
    },
    {
      "id": "pt.ine.add.PTCONT.5522759",
      "street": "QTA LAMAS",
      "house": "",
      "postcode": "3670-260",
      "city": "VOUZELA",
      "lon": "-8.100048208586706",
      "lat": "40.72615764193297"
    },
    {
      "id": "pt.ine.add.PTCONT.5645218",
      "street": "QTA PEPINA",
      "house": "",
      "postcode": "3670-261",
      "city": "VOUZELA",
      "lon": "-8.104831616034659",
      "lat": "40.722971119061235"
    },
    {
      "id": "pt.ine.add.PTCONT.5652567",
      "street": "QTA LAMAS",
      "house": "",
      "postcode": "3670-260",
      "city": "VOUZELA",
      "lon": "-8.100379951566193",
      "lat": "40.7255183768513"
    }
  ]
}