{
  "data": {
    "distrito": "Castelo Branco",
    "concelho": "Sertã",
    "freguesia": "União das freguesias de Cernache do Bonjardim, Nesperal e Palhais",
    "OBJECTID": 437,
    "BGRI2021": "05091500506",
    "DT21": "05",
    "DTMN21": "0509",
    "DTMNFR21": "050915",
    "DTMNFRSEC21": "050915005",
    "SECNUM21": "005",
    "SSNUM21": "06",
    "SECSSNUM21": "00506",
    "OBJECTID_1": 46344,
    "DT": "05",
    "CC": "09",
    "fr": "15",
    "SEC": "005",
    "SS": "06"
  },
  "addresses": [
    {
      "id": "pt.ine.add.PTCONT.953849",
      "street": "PCT SANTO ANTÓNIO",
      "house": "",
      "postcode": "6100-297",
      "city": "CERNACHE DO BONJARDIM",
      "lon": "-8.187378703413154",
      "lat": "39.81260351834521"
    },
    {
      "id": "pt.ine.add.PTCONT.953850",
      "street": "PCT SANTO ANTÓNIO",
      "house": "",
      "postcode": "6100-297",
      "city": "CERNACHE DO BONJARDIM",
      "lon": "-8.187378703413154",
      "lat": "39.81260351834521"
    },
    {
      "id": "pt.ine.add.PTCONT.953851",
      "street": "PCT SANTO ANTÓNIO",
      "house": "",
      "postcode": "6100-297",
      "city": "CERNACHE DO BONJARDIM",
      "lon": "-8.187378703413154",
      "lat": "39.81260351834521"
    },
    {
      "id": "pt.ine.add.PTCONT.953853",
      "street": "PCT SANTO ANTÓNIO",
      "house": "",
      "postcode": "6100-297",
      "city": "CERNACHE DO BONJARDIM",
      "lon": "-8.187378703413154",
      "lat": "39.81260351834521"
    },
    {
      "id": "pt.ine.add.PTCONT.953855",
      "street": "PCT SANTO ANTÓNIO",
      "house": "",
      "postcode": "6100-297",
      "city": "CERNACHE DO BONJARDIM",
      "lon": "-8.187378703413154",
      "lat": "39.81260351834521"
    },
    {
      "id": "pt.ine.add.PTCONT.953928",
      "street": "PCT SANTO ANTÓNIO",
      "house": "",
      "postcode": "6100-297",
      "city": "CERNACHE DO BONJARDIM",
      "lon": "-8.187378703413154",
      "lat": "39.81260351834521"
    },
    {
      "id": "pt.ine.add.PTCONT.959358",
      "street": "R SANTO ANTÓNIO",
      "house": "",
      "postcode": "6100-261",
      "city": "CERNACHE DO BONJARDIM",
      "lon": "-8.186690534495835",
      "lat": "39.813720642849916"
    },
    {
      "id": "pt.ine.add.PTCONT.966029",
      "street": "URB SANTO ANTÓNIO",
      "house": "11",
      "postcode": "6100-297",
      "city": "CERNACHE DO BONJARDIM",
      "lon": "-8.186923105467622",
      "lat": "39.81243260722044"
    },
    {
      "id": "pt.ine.add.PTCONT.972595",
      "street": "URB SANTO ANTÓNIO",
      "house": "5",
      "postcode": "6100-281",
      "city": "CERNACHE DO BONJARDIM",
      "lon": "-8.185965981886074",
      "lat": "39.81310853391957"
    },
    {
      "id": "pt.ine.add.PTCONT.981522",
      "street": "R PROF DR EDUARDO AMARAL",
      "house": "13",
      "postcode": "6100-266",
      "city": "CERNACHE DO BONJARDIM",
      "lon": "-8.187355162189176",
      "lat": "39.81236936060246"
    },
    {
      "id": "pt.ine.add.PTCONT.990807",
      "street": "R PROF DR EDUARDO AMARAL",
      "house": "9",
      "postcode": "6100-266",
      "city": "CERNACHE DO BONJARDIM",
      "lon": "-8.186514516588751",
      "lat": "39.812639945275144"
    },
    {
      "id": "pt.ine.add.PTCONT.993995",
      "street": "R SANTO ANTÓNIO",
      "house": "",
      "postcode": "6100-261",
      "city": "CERNACHE DO BONJARDIM",
      "lon": "-8.186982166150939",
      "lat": "39.81328819634928"
    },
    {
      "id": "pt.ine.add.PTCONT.993996",
      "street": "R SANTO ANTÓNIO",
      "house": "",
      "postcode": "6100-261",
      "city": "CERNACHE DO BONJARDIM",
      "lon": "-8.186982166150939",
      "lat": "39.81328819634928"
    },
    {
      "id": "pt.ine.add.PTCONT.993997",
      "street": "R SANTO ANTÓNIO",
      "house": "",
      "postcode": "6100-261",
      "city": "CERNACHE DO BONJARDIM",
      "lon": "-8.186982166150939",
      "lat": "39.81328819634928"
    },
    {
      "id": "pt.ine.add.PTCONT.994006",
      "street": "R SANTO ANTÓNIO",
      "house": "",
      "postcode": "6100-261",
      "city": "CERNACHE DO BONJARDIM",
      "lon": "-8.186982166150939",
      "lat": "39.81328819634928"
    },
    {
      "id": "pt.ine.add.PTCONT.1001835",
      "street": "PCT SANTO ANTONIO",
      "house": "22",
      "postcode": "6100-322",
      "city": "",
      "lon": "-8.187168517248379",
      "lat": "39.81263964242145"
    },
    {
      "id": "pt.ine.add.PTCONT.1001836",
      "street": "PCT SANTO ANTONIO",
      "house": "22",
      "postcode": "6100-322",
      "city": "",
      "lon": "-8.187168517248379",
      "lat": "39.81263964242145"
    },
    {
      "id": "pt.ine.add.PTCONT.1001837",
      "street": "PCT SANTO ANTONIO",
      "house": "22",
      "postcode": "6100-322",
      "city": "",
      "lon": "-8.187168517248379",
      "lat": "39.81263964242145"
    },
    {
      "id": "pt.ine.add.PTCONT.1001838",
      "street": "PCT SANTO ANTONIO",
      "house": "22",
      "postcode": "6100-322",
      "city": "",
      "lon": "-8.187168517248379",
      "lat": "39.81263964242145"
    },
    {
      "id": "pt.ine.add.PTCONT.1001839",
      "street": "PCT SANTO ANTONIO",
      "house": "22",
      "postcode": "6100-322",
      "city": "",
      "lon": "-8.187168517248379",
      "lat": "39.81263964242145"
    },
    {
      "id": "pt.ine.add.PTCONT.1001840",
      "street": "PCT STO ANTONIO",
      "house": "N 19",
      "postcode": "6100-322",
      "city": "",
      "lon": "-8.187168517248379",
      "lat": "39.81263964242145"
    },
    {
      "id": "pt.ine.add.PTCONT.1001841",
      "street": "PCT SANTO ANTONIO",
      "house": "22",
      "postcode": "6100-322",
      "city": "",
      "lon": "-8.187168517248379",
      "lat": "39.81263964242145"
    },
    {
      "id": "pt.ine.add.PTCONT.1001842",
      "street": "PCT SANTO ANTONIO",
      "house": "22",
      "postcode": "6100-322",
      "city": "",
      "lon": "-8.187168517248379",
      "lat": "39.81263964242145"
    },
    {
      "id": "pt.ine.add.PTCONT.1008484",
      "street": "URB DE SANTO ANTÓNIO",
      "house": "",
      "postcode": "6100-322",
      "city": "",
      "lon": "-8.187308808791338",
      "lat": "39.8128287132659"
    },
    {
      "id": "pt.ine.add.PTCONT.1008485",
      "street": "URB DE SANTO ANTÓNIO",
      "house": "",
      "postcode": "6100-322",
      "city": "",
      "lon": "-8.187308808791338",
      "lat": "39.8128287132659"
    },
    {
      "id": "pt.ine.add.PTCONT.1008486",
      "street": "URB DE SANTO ANTÓNIO",
      "house": "",
      "postcode": "6100-322",
      "city": "",
      "lon": "-8.187308808791338",
      "lat": "39.8128287132659"
    },
    {
      "id": "pt.ine.add.PTCONT.1008487",
      "street": "URB DE SANTO ANTÓNIO",
      "house": "",
      "postcode": "6100-322",
      "city": "",
      "lon": "-8.187308808791338",
      "lat": "39.8128287132659"
    },
    {
      "id": "pt.ine.add.PTCONT.1009091",
      "street": "URB DE SANTO ANTÓNIO",
      "house": "",
      "postcode": "6100-322",
      "city": "",
      "lon": "-8.187308808791338",
      "lat": "39.8128287132659"
    },
    {
      "id": "pt.ine.add.PTCONT.1018911",
      "street": "",
      "house": "",
      "postcode": "6100-281",
      "city": "CERNACHE DO BONJARDIM",
      "lon": "-8.185860984077916",
      "lat": "39.81325268553217"
    },
    {
      "id": "pt.ine.add.PTCONT.1025098",
      "street": "R SANTO ANTÓNIO",
      "house": "",
      "postcode": "6100-261",
      "city": "CERNACHE DO BONJARDIM",
      "lon": "-8.18655046602568",
      "lat": "39.81381977881911"
    },
    {
      "id": "pt.ine.add.PTCONT.1038558",
      "street": "R ANTÓNIO CORREIA NUNES",
      "house": "2",
      "postcode": "6100-297",
      "city": "CERNACHE DO BONJARDIM",
      "lon": "-8.185650939144217",
      "lat": "39.81347794306211"
    },
    {
      "id": "pt.ine.add.PTCONT.1049732",
      "street": "R PROF DR EDUARDO AMARAL",
      "house": "",
      "postcode": "6100-266",
      "city": "CERNACHE DO BONJARDIM",
      "lon": "-8.187600432807457",
      "lat": "39.81239626514982"
    },
    {
      "id": "pt.ine.add.PTCONT.1067030",
      "street": "R SANTO ANTÓNIO",
      "house": "",
      "postcode": "6100-261",
      "city": "CERNACHE DO BONJARDIM",
      "lon": "-8.187670674957102",
      "lat": "39.81261238791067"
    },
    {
      "id": "pt.ine.add.PTCONT.1067031",
      "street": "R SANTO ANTÓNIO",
      "house": "",
      "postcode": "6100-261",
      "city": "CERNACHE DO BONJARDIM",
      "lon": "-8.187670674957102",
      "lat": "39.81261238791067"
    },
    {
      "id": "pt.ine.add.PTCONT.1067032",
      "street": "R SANTO ANTÓNIO",
      "house": "",
      "postcode": "6100-261",
      "city": "CERNACHE DO BONJARDIM",
      "lon": "-8.187670674957102",
      "lat": "39.81261238791067"
    },
    {
      "id": "pt.ine.add.PTCONT.1067033",
      "street": "R SANTO ANTÓNIO",
      "house": "",
      "postcode": "6100-261",
      "city": "CERNACHE DO BONJARDIM",
      "lon": "-8.187670674957102",
      "lat": "39.81261238791067"
    },
    {
      "id": "pt.ine.add.PTCONT.1067034",
      "street": "R SANTO ANTÓNIO",
      "house": "",
      "postcode": "6100-261",
      "city": "CERNACHE DO BONJARDIM",
      "lon": "-8.187670674957102",
      "lat": "39.81261238791067"
    },
    {
      "id": "pt.ine.add.PTCONT.1067035",
      "street": "R SANTO ANTÓNIO",
      "house": "",
      "postcode": "6100-261",
      "city": "CERNACHE DO BONJARDIM",
      "lon": "-8.187670674957102",
      "lat": "39.81261238791067"
    },
    {
      "id": "pt.ine.add.PTCONT.1081745",
      "street": "R STO ANTÓNIO",
      "house": "11 A",
      "postcode": "6100-261",
      "city": "CERNACHE DO BONJARDIM",
      "lon": "-8.187215570530789",
      "lat": "39.81307193200245"
    },
    {
      "id": "pt.ine.add.PTCONT.1083733",
      "street": "R STO ANTONIO",
      "house": "21",
      "postcode": "6100-261",
      "city": "CERNACHE DO BONJARDIM",
      "lon": "-8.186865505508104",
      "lat": "39.81345036725828"
    }
  ]
}