{
  "data": {
    "distrito": "Porto",
    "concelho": "Paços de Ferreira",
    "freguesia": "Paços de Ferreira",
    "OBJECTID": 896,
    "BGRI2021": "13091800502",
    "DT21": "13",
    "DTMN21": "1309",
    "DTMNFR21": "130918",
    "DTMNFRSEC21": "130918005",
    "SECNUM21": "005",
    "SSNUM21": "02",
    "SECSSNUM21": "00502",
    "OBJECTID_1": 134573,
    "DT": "13",
    "CC": "09",
    "fr": "18",
    "SEC": "005",
    "SS": "02"
  },
  "addresses": [
    {
      "id": "pt.ine.add.PTCONT.3909691",
      "street": "R PRESA",
      "house": "52",
      "postcode": "4590-895",
      "city": "PAÇOS DE FERREIRA",
      "lon": "-8.384189101385909",
      "lat": "41.26780585759049"
    },
    {
      "id": "pt.ine.add.PTCONT.3909692",
      "street": "R PRESA",
      "house": "48",
      "postcode": "4590-895",
      "city": "PAÇOS DE FERREIRA",
      "lon": "-8.384189101385909",
      "lat": "41.26780585759049"
    },
    {
      "id": "pt.ine.add.PTCONT.3954611",
      "street": "R PRESA",
      "house": "55",
      "postcode": "4590-895",
      "city": "PAÇOS DE FERREIRA",
      "lon": "-8.38397566880832",
      "lat": "41.268166491015876"
    },
    {
      "id": "pt.ine.add.PTCONT.4009777",
      "street": "R NOVA DE SISTOS",
      "house": "24",
      "postcode": "4590-178",
      "city": "PAÇOS DE FERREIRA",
      "lon": "-8.383506423574335",
      "lat": "41.26716804580293"
    },
    {
      "id": "pt.ine.add.PTCONT.4045633",
      "street": "R NOVA DE SISTOS",
      "house": "134",
      "postcode": "4590-178",
      "city": "PAÇOS DE FERREIRA",
      "lon": "-8.384423015898346",
      "lat": "41.266562766885336"
    },
    {
      "id": "pt.ine.add.PTCONT.4124316",
      "street": "R ESTADIO",
      "house": "194",
      "postcode": "4590-571",
      "city": "PAÇOS DE FERREIRA",
      "lon": "-8.383931102993298",
      "lat": "41.26899497481336"
    },
    {
      "id": "pt.ine.add.PTCONT.4308865",
      "street": "R MONTE",
      "house": "327",
      "postcode": "4590-178",
      "city": "PAÇOS DE FERREIRA",
      "lon": "-8.384770200308946",
      "lat": "41.266850143112514"
    },
    {
      "id": "pt.ine.add.PTCONT.4335331",
      "street": "R NOVA DE SISTOS",
      "house": "90",
      "postcode": "4590-178",
      "city": "PAÇOS DE FERREIRA",
      "lon": "-8.383756448803583",
      "lat": "41.26701443026255"
    }
  ]
}