{
  "data": {
    "distrito": "Porto",
    "concelho": "Paços de Ferreira",
    "freguesia": "Paços de Ferreira",
    "OBJECTID": 425,
    "BGRI2021": "13091800509",
    "DT21": "13",
    "DTMN21": "1309",
    "DTMNFR21": "130918",
    "DTMNFRSEC21": "130918005",
    "SECNUM21": "005",
    "SSNUM21": "09",
    "SECSSNUM21": "00509",
    "OBJECTID_1": 134214,
    "DT": "13",
    "CC": "09",
    "fr": "18",
    "SEC": "005",
    "SS": "09"
  },
  "addresses": [
    {
      "id": "pt.ine.add.PTCONT.3586703",
      "street": "R CAP DA PRAÇA",
      "house": "25",
      "postcode": "4590-570",
      "city": "PAÇOS DE FERREIRA",
      "lon": "-8.379275669449774",
      "lat": "41.27506484835962"
    },
    {
      "id": "pt.ine.add.PTCONT.3689638",
      "street": "R CAPITAO",
      "house": "39",
      "postcode": "4590-570",
      "city": "PAÇOS DE FERREIRA",
      "lon": "-8.379514104171651",
      "lat": "41.274992304742426"
    },
    {
      "id": "pt.ine.add.PTCONT.3868028",
      "street": "R DA PONTE REAL",
      "house": "114",
      "postcode": "4590-180",
      "city": "PAÇOS DE FERREIRA",
      "lon": "-8.377115014601126",
      "lat": "41.274970401872196"
    },
    {
      "id": "pt.ine.add.PTCONT.4051326",
      "street": "R CAPITAO",
      "house": "282",
      "postcode": "4590-570",
      "city": "PAÇOS DE FERREIRA",
      "lon": "-8.378894213322953",
      "lat": "41.27519172206663"
    },
    {
      "id": "pt.ine.add.PTCONT.4051327",
      "street": "R CAP DA PRACA",
      "house": "11",
      "postcode": "4590-570",
      "city": "PAÇOS DE FERREIRA",
      "lon": "-8.378894213322953",
      "lat": "41.27519172206663"
    },
    {
      "id": "pt.ine.add.PTCONT.4051328",
      "street": "R CAPITAO",
      "house": "282",
      "postcode": "4590-570",
      "city": "PAÇOS DE FERREIRA",
      "lon": "-8.378894213322953",
      "lat": "41.27519172206663"
    },
    {
      "id": "pt.ine.add.PTCONT.4051329",
      "street": "R CAP DA PRACA",
      "house": "11",
      "postcode": "4590-570",
      "city": "PAÇOS DE FERREIRA",
      "lon": "-8.378894213322953",
      "lat": "41.27519172206663"
    },
    {
      "id": "pt.ine.add.PTCONT.4051330",
      "street": "R CAPITAO",
      "house": "282",
      "postcode": "4590-570",
      "city": "PAÇOS DE FERREIRA",
      "lon": "-8.378894213322953",
      "lat": "41.27519172206663"
    },
    {
      "id": "pt.ine.add.PTCONT.4051561",
      "street": "R CAP DA PRACA",
      "house": "11",
      "postcode": "4590-570",
      "city": "PAÇOS DE FERREIRA",
      "lon": "-8.378894213322953",
      "lat": "41.27519172206663"
    },
    {
      "id": "pt.ine.add.PTCONT.4051562",
      "street": "R CAP DA PRACA",
      "house": "11",
      "postcode": "4590-570",
      "city": "PAÇOS DE FERREIRA",
      "lon": "-8.378894213322953",
      "lat": "41.27519172206663"
    },
    {
      "id": "pt.ine.add.PTCONT.4051563",
      "street": "R CAPITAO",
      "house": "282",
      "postcode": "4590-570",
      "city": "PAÇOS DE FERREIRA",
      "lon": "-8.378894213322953",
      "lat": "41.27519172206663"
    },
    {
      "id": "pt.ine.add.PTCONT.4072225",
      "street": "R CAP DA PRAÇA",
      "house": "19",
      "postcode": "4590-570",
      "city": "PAÇOS DE FERREIRA",
      "lon": "-8.379168522429497",
      "lat": "41.275137110959584"
    },
    {
      "id": "pt.ine.add.PTCONT.4144102",
      "street": "R CAP DA PRAÇA",
      "house": "33",
      "postcode": "4590-570",
      "city": "PAÇOS DE FERREIRA",
      "lon": "-8.379418825119116",
      "lat": "41.27504653378765"
    }
  ]
}