{
  "data": {
    "distrito": "Leiria",
    "concelho": "Ansião",
    "freguesia": "Ansião",
    "OBJECTID": 358,
    "BGRI2021": "10030900139",
    "DT21": "10",
    "DTMN21": "1003",
    "DTMNFR21": "100309",
    "DTMNFRSEC21": "100309001",
    "SECNUM21": "001",
    "SSNUM21": "39",
    "SECSSNUM21": "00139",
    "OBJECTID_1": 86087,
    "DT": "10",
    "CC": "03",
    "fr": "09",
    "SEC": "001",
    "SS": "39"
  },
  "addresses": [
    {
      "id": "pt.ine.add.PTCONT.2017274",
      "street": "R PASCOAL MELO FREIRE",
      "house": "35",
      "postcode": "3240-144",
      "city": "ANSIÃO",
      "lon": "-8.435604003176852",
      "lat": "39.91046364234698"
    },
    {
      "id": "pt.ine.add.PTCONT.2017275",
      "street": "R PASCOAL MELO FREIRE",
      "house": "35",
      "postcode": "3240-144",
      "city": "ANSIÃO",
      "lon": "-8.435604003176852",
      "lat": "39.91046364234698"
    },
    {
      "id": "pt.ine.add.PTCONT.2019123",
      "street": "PC MUNICIPIO",
      "house": "16",
      "postcode": "3240-143",
      "city": "ANSIÃO",
      "lon": "-8.43595790771375",
      "lat": "39.911156204922385"
    },
    {
      "id": "pt.ine.add.PTCONT.2051271",
      "street": "R PASCOAL MELO FREIRE",
      "house": "1",
      "postcode": "3240-144",
      "city": "ANSIÃO",
      "lon": "-8.43562703665581",
      "lat": "39.910382525415386"
    },
    {
      "id": "pt.ine.add.PTCONT.2051272",
      "street": "R PASCOAL MELO FREIRE",
      "house": "1",
      "postcode": "3240-144",
      "city": "ANSIÃO",
      "lon": "-8.43562703665581",
      "lat": "39.910382525415386"
    },
    {
      "id": "pt.ine.add.PTCONT.2051273",
      "street": "R PASCOAL MELO FREIRE",
      "house": "3",
      "postcode": "3240-144",
      "city": "ANSIÃO",
      "lon": "-8.43562703665581",
      "lat": "39.910382525415386"
    },
    {
      "id": "pt.ine.add.PTCONT.2051274",
      "street": "R PASCOAL MELO FREIRE",
      "house": "3",
      "postcode": "3240-144",
      "city": "ANSIÃO",
      "lon": "-8.43562703665581",
      "lat": "39.910382525415386"
    },
    {
      "id": "pt.ine.add.PTCONT.2056994",
      "street": "PC MUNICIPIO",
      "house": "",
      "postcode": "3240-143",
      "city": "ANSIÃO",
      "lon": "-8.435606974347229",
      "lat": "39.91113910826359"
    },
    {
      "id": "pt.ine.add.PTCONT.2056995",
      "street": "PC MUNICIPIO",
      "house": "1 A 3",
      "postcode": "3240-143",
      "city": "ANSIÃO",
      "lon": "-8.435606974347229",
      "lat": "39.91113910826359"
    },
    {
      "id": "pt.ine.add.PTCONT.2056996",
      "street": "PC MUNICIPIO",
      "house": "",
      "postcode": "3240-143",
      "city": "ANSIÃO",
      "lon": "-8.435606974347229",
      "lat": "39.91113910826359"
    },
    {
      "id": "pt.ine.add.PTCONT.2085570",
      "street": "R PASCOAL MELO FREIRE",
      "house": "37",
      "postcode": "3240-144",
      "city": "ANSIÃO",
      "lon": "-8.43559270429165",
      "lat": "39.91055373498032"
    },
    {
      "id": "pt.ine.add.PTCONT.2085571",
      "street": "R PASCOAL MELO FREIRE",
      "house": "37",
      "postcode": "3240-144",
      "city": "ANSIÃO",
      "lon": "-8.43559270429165",
      "lat": "39.91055373498032"
    },
    {
      "id": "pt.ine.add.PTCONT.2085572",
      "street": "R PASCOAL MELO FREIRE",
      "house": "37",
      "postcode": "3240-144",
      "city": "ANSIÃO",
      "lon": "-8.43559270429165",
      "lat": "39.91055373498032"
    },
    {
      "id": "pt.ine.add.PTCONT.2096011",
      "street": "PC MUNICIPIO",
      "house": "8",
      "postcode": "3240-143",
      "city": "ANSIÃO",
      "lon": "-8.435840956337556",
      "lat": "39.91115651029519"
    },
    {
      "id": "pt.ine.add.PTCONT.2096012",
      "street": "PC MUNICIPIO",
      "house": "8",
      "postcode": "3240-143",
      "city": "ANSIÃO",
      "lon": "-8.435840956337556",
      "lat": "39.91115651029519"
    },
    {
      "id": "pt.ine.add.PTCONT.2096013",
      "street": "PC MUNICIPIO",
      "house": "10",
      "postcode": "3240-143",
      "city": "ANSIÃO",
      "lon": "-8.435840956337556",
      "lat": "39.91115651029519"
    },
    {
      "id": "pt.ine.add.PTCONT.2096014",
      "street": "PC MUNICIPIO",
      "house": "10",
      "postcode": "3240-143",
      "city": "ANSIÃO",
      "lon": "-8.435840956337556",
      "lat": "39.91115651029519"
    },
    {
      "id": "pt.ine.add.PTCONT.2141814",
      "street": "R ALM GAGO COUTINHO",
      "house": "",
      "postcode": "3240-137",
      "city": "ANSIÃO",
      "lon": "-8.435944070923089",
      "lat": "39.910669900029674"
    },
    {
      "id": "pt.ine.add.PTCONT.2198464",
      "street": "R PASCOAL MELO FREIRE",
      "house": "1",
      "postcode": "3240-144",
      "city": "ANSIÃO",
      "lon": "-8.435508225292798",
      "lat": "39.9099595384253"
    },
    {
      "id": "pt.ine.add.PTCONT.2217220",
      "street": "LG ADOLFO FIGUEIREDO",
      "house": "17",
      "postcode": "3240-125",
      "city": "ANSIÃO",
      "lon": "-8.435478011066285",
      "lat": "39.9110673940829"
    },
    {
      "id": "pt.ine.add.PTCONT.2217221",
      "street": "LG ADOLFO FIGUEIREDO",
      "house": "17",
      "postcode": "3240-125",
      "city": "ANSIÃO",
      "lon": "-8.435478011066285",
      "lat": "39.9110673940829"
    },
    {
      "id": "pt.ine.add.PTCONT.2217222",
      "street": "LG ADOLFO FIGUEIREDO",
      "house": "17",
      "postcode": "3240-125",
      "city": "ANSIÃO",
      "lon": "-8.435478011066285",
      "lat": "39.9110673940829"
    },
    {
      "id": "pt.ine.add.PTCONT.2217223",
      "street": "LG ADOLFO FIGUEIREDO",
      "house": "17",
      "postcode": "3240-125",
      "city": "ANSIÃO",
      "lon": "-8.435478011066285",
      "lat": "39.9110673940829"
    },
    {
      "id": "pt.ine.add.PTCONT.2217224",
      "street": "LG ADOLFO FIGUEIREDO",
      "house": "17",
      "postcode": "3240-125",
      "city": "ANSIÃO",
      "lon": "-8.435478011066285",
      "lat": "39.9110673940829"
    },
    {
      "id": "pt.ine.add.PTCONT.2217225",
      "street": "LG ADOLFO FIGUEIREDO",
      "house": "17",
      "postcode": "3240-125",
      "city": "ANSIÃO",
      "lon": "-8.435478011066285",
      "lat": "39.9110673940829"
    },
    {
      "id": "pt.ine.add.PTCONT.2217226",
      "street": "LG ADOLFO FIGUEIREDO",
      "house": "17",
      "postcode": "3240-125",
      "city": "ANSIÃO",
      "lon": "-8.435478011066285",
      "lat": "39.9110673940829"
    },
    {
      "id": "pt.ine.add.PTCONT.2217227",
      "street": "LG ADOLFO FIGUEIREDO",
      "house": "17",
      "postcode": "3240-125",
      "city": "ANSIÃO",
      "lon": "-8.435478011066285",
      "lat": "39.9110673940829"
    },
    {
      "id": "pt.ine.add.PTCONT.2247645",
      "street": "LG ADOLFO FIGUEIREDO",
      "house": "11",
      "postcode": "3240-125",
      "city": "ANSIÃO",
      "lon": "-8.435524078663438",
      "lat": "39.91090516027857"
    }
  ]
}