{
  "data": {
    "distrito": "Vila Real",
    "concelho": "Boticas",
    "freguesia": "Boticas e Granja",
    "OBJECTID": 68,
    "BGRI2021": "17021900231",
    "DT21": "17",
    "DTMN21": "1702",
    "DTMNFR21": "170219",
    "DTMNFRSEC21": "170219002",
    "SECNUM21": "002",
    "SSNUM21": "31",
    "SECSSNUM21": "00231",
    "OBJECTID_1": 180354,
    "DT": "17",
    "CC": "02",
    "fr": "19",
    "SEC": "002",
    "SS": "31"
  },
  "addresses": [
    {
      "id": "pt.ine.add.PTCONT.5303324",
      "street": "BR DA RAPOSEIRA",
      "house": "1",
      "postcode": "5460-320",
      "city": "BOTICAS",
      "lon": "-7.662201463604824",
      "lat": "41.69631173591262"
    },
    {
      "id": "pt.ine.add.PTCONT.5324927",
      "street": "BR DA RAPOSEIRA",
      "house": "15",
      "postcode": "5460-320",
      "city": "BOTICAS",
      "lon": "-7.662889993533336",
      "lat": "41.69743999345121"
    },
    {
      "id": "pt.ine.add.PTCONT.5374494",
      "street": "TV DO PAU LUIS",
      "house": "2",
      "postcode": "5460-320",
      "city": "BOTICAS",
      "lon": "-7.66523071259885",
      "lat": "41.69603599630886"
    },
    {
      "id": "pt.ine.add.PTCONT.5406097",
      "street": "EIRÃ“",
      "house": "",
      "postcode": "5460-311",
      "city": "BOTICAS",
      "lon": "-7.664242987838976",
      "lat": "41.69805775975454"
    },
    {
      "id": "pt.ine.add.PTCONT.5386266",
      "street": "BR DA RAPOSEIRA",
      "house": "9",
      "postcode": "5460-320",
      "city": "BOTICAS",
      "lon": "-7.663432532508636",
      "lat": "41.69717210684935"
    },
    {
      "id": "pt.ine.add.PTCONT.5425514",
      "street": "BR DA RAPOSEIRA",
      "house": "7",
      "postcode": "5460-320",
      "city": "BOTICAS",
      "lon": "-7.663181904270391",
      "lat": "41.69694599463589"
    },
    {
      "id": "pt.ine.add.PTCONT.5426726",
      "street": "R DA RAPOSEIRA",
      "house": "5",
      "postcode": "5460-320",
      "city": "BOTICAS",
      "lon": "-7.663810816929464",
      "lat": "41.69636333662503"
    }
  ]
}