{
  "data": {
    "distrito": "Castelo Branco",
    "concelho": "Covilhã",
    "freguesia": "União das freguesias de Teixoso e Sarzedo",
    "OBJECTID": 693,
    "BGRI2021": "05033700420",
    "DT21": "05",
    "DTMN21": "0503",
    "DTMNFR21": "050337",
    "DTMNFRSEC21": "050337004",
    "SECNUM21": "004",
    "SSNUM21": "20",
    "SECSSNUM21": "00420",
    "OBJECTID_1": 42933,
    "DT": "05",
    "CC": "03",
    "fr": "37",
    "SEC": "004",
    "SS": "20"
  },
  "addresses": [
    {
      "id": "pt.ine.add.PTCONT.951143",
      "street": "R SENHORA DOS VERDES",
      "house": "3",
      "postcode": "6200-704",
      "city": "TEIXOSO",
      "lon": "-7.457531308734413",
      "lat": "40.31191415680273"
    },
    {
      "id": "pt.ine.add.PTCONT.951206",
      "street": "R SENHORA DOS VERDES",
      "house": "3",
      "postcode": "6200-704",
      "city": "TEIXOSO",
      "lon": "-7.457531308734413",
      "lat": "40.31191415680273"
    },
    {
      "id": "pt.ine.add.PTCONT.951207",
      "street": "R SENHORA DOS VERDES",
      "house": "3",
      "postcode": "6200-704",
      "city": "TEIXOSO",
      "lon": "-7.457531308734413",
      "lat": "40.31191415680273"
    },
    {
      "id": "pt.ine.add.PTCONT.951208",
      "street": "R SENHORA DOS VERDES",
      "house": "3",
      "postcode": "6200-704",
      "city": "TEIXOSO",
      "lon": "-7.457531308734413",
      "lat": "40.31191415680273"
    },
    {
      "id": "pt.ine.add.PTCONT.951209",
      "street": "R SENHORA DOS VERDES",
      "house": "3",
      "postcode": "6200-704",
      "city": "TEIXOSO",
      "lon": "-7.457531308734413",
      "lat": "40.31191415680273"
    },
    {
      "id": "pt.ine.add.PTCONT.951210",
      "street": "R SENHORA DOS VERDES",
      "house": "3",
      "postcode": "6200-704",
      "city": "TEIXOSO",
      "lon": "-7.457531308734413",
      "lat": "40.31191415680273"
    },
    {
      "id": "pt.ine.add.PTCONT.951211",
      "street": "R SENHORA DOS VERDES",
      "house": "3",
      "postcode": "6200-704",
      "city": "TEIXOSO",
      "lon": "-7.457531308734413",
      "lat": "40.31191415680273"
    },
    {
      "id": "pt.ine.add.PTCONT.951647",
      "street": "R SENHORA DOS VERDES",
      "house": "3",
      "postcode": "6200-704",
      "city": "TEIXOSO",
      "lon": "-7.457531308734413",
      "lat": "40.31191415680273"
    },
    {
      "id": "pt.ine.add.PTCONT.971418",
      "street": "R ESPÍRITO SANTO",
      "house": "2",
      "postcode": "6200-703",
      "city": "TEIXOSO",
      "lon": "-7.457339684527573",
      "lat": "40.31225525072179"
    },
    {
      "id": "pt.ine.add.PTCONT.977716",
      "street": "TV SENHORA DOS VERDES",
      "house": "",
      "postcode": "6200-679",
      "city": "TEIXOSO",
      "lon": "-7.457539572342153",
      "lat": "40.31226542380068"
    },
    {
      "id": "pt.ine.add.PTCONT.992517",
      "street": "TV SRA VERDES",
      "house": "1",
      "postcode": "6200-679",
      "city": "TEIXOSO",
      "lon": "-7.457610691032704",
      "lat": "40.31221180544412"
    },
    {
      "id": "pt.ine.add.PTCONT.1019571",
      "street": "R SRA VERDES",
      "house": "",
      "postcode": "6200-704",
      "city": "TEIXOSO",
      "lon": "-7.457438279117873",
      "lat": "40.31180554618013"
    },
    {
      "id": "pt.ine.add.PTCONT.1019572",
      "street": "R SENHORA DOS VERDES",
      "house": "5",
      "postcode": "6200-704",
      "city": "TEIXOSO",
      "lon": "-7.457438279117873",
      "lat": "40.31180554618013"
    },
    {
      "id": "pt.ine.add.PTCONT.1019573",
      "street": "R SENHORA DOS VERDES",
      "house": "5",
      "postcode": "6200-704",
      "city": "TEIXOSO",
      "lon": "-7.457438279117873",
      "lat": "40.31180554618013"
    },
    {
      "id": "pt.ine.add.PTCONT.1019574",
      "street": "R SENHORA DOS VERDES",
      "house": "5",
      "postcode": "6200-704",
      "city": "TEIXOSO",
      "lon": "-7.457438279117873",
      "lat": "40.31180554618013"
    },
    {
      "id": "pt.ine.add.PTCONT.1019575",
      "street": "R SENHORA DOS VERDES",
      "house": "5",
      "postcode": "6200-704",
      "city": "TEIXOSO",
      "lon": "-7.457438279117873",
      "lat": "40.31180554618013"
    },
    {
      "id": "pt.ine.add.PTCONT.1019576",
      "street": "R SENHORA DOS VERDES",
      "house": "5",
      "postcode": "6200-704",
      "city": "TEIXOSO",
      "lon": "-7.457438279117873",
      "lat": "40.31180554618013"
    },
    {
      "id": "pt.ine.add.PTCONT.1019577",
      "street": "R SENHORA DOS VERDES",
      "house": "5",
      "postcode": "6200-704",
      "city": "TEIXOSO",
      "lon": "-7.457438279117873",
      "lat": "40.31180554618013"
    },
    {
      "id": "pt.ine.add.PTCONT.1019578",
      "street": "R SENHORA DOS VERDES",
      "house": "5",
      "postcode": "6200-704",
      "city": "TEIXOSO",
      "lon": "-7.457438279117873",
      "lat": "40.31180554618013"
    },
    {
      "id": "pt.ine.add.PTCONT.1040763",
      "street": "R SENHORA DOS VERDES",
      "house": "1",
      "postcode": "6200-704",
      "city": "TEIXOSO",
      "lon": "-7.457671122872757",
      "lat": "40.31205005734218"
    },
    {
      "id": "pt.ine.add.PTCONT.1040764",
      "street": "R SENHORA DOS VERDES",
      "house": "1",
      "postcode": "6200-704",
      "city": "TEIXOSO",
      "lon": "-7.457671122872757",
      "lat": "40.31205005734218"
    },
    {
      "id": "pt.ine.add.PTCONT.1040765",
      "street": "R SENHORA DOS VERDES",
      "house": "1",
      "postcode": "6200-704",
      "city": "TEIXOSO",
      "lon": "-7.457671122872757",
      "lat": "40.31205005734218"
    },
    {
      "id": "pt.ine.add.PTCONT.1040766",
      "street": "R SENHORA DOS VERDES",
      "house": "1",
      "postcode": "6200-704",
      "city": "TEIXOSO",
      "lon": "-7.457671122872757",
      "lat": "40.31205005734218"
    },
    {
      "id": "pt.ine.add.PTCONT.1040767",
      "street": "R SENHORA DOS VERDES",
      "house": "1",
      "postcode": "6200-704",
      "city": "TEIXOSO",
      "lon": "-7.457671122872757",
      "lat": "40.31205005734218"
    },
    {
      "id": "pt.ine.add.PTCONT.1040768",
      "street": "R SENHORA DOS VERDES",
      "house": "1",
      "postcode": "6200-704",
      "city": "TEIXOSO",
      "lon": "-7.457671122872757",
      "lat": "40.31205005734218"
    },
    {
      "id": "pt.ine.add.PTCONT.1040769",
      "street": "R SENHORA DOS VERDES",
      "house": "1",
      "postcode": "6200-704",
      "city": "TEIXOSO",
      "lon": "-7.457671122872757",
      "lat": "40.31205005734218"
    },
    {
      "id": "pt.ine.add.PTCONT.1053772",
      "street": "R JOÃO DE DEUS",
      "house": "36",
      "postcode": "6200-679",
      "city": "TEIXOSO",
      "lon": "-7.457620749609876",
      "lat": "40.312382970737325"
    },
    {
      "id": "pt.ine.add.PTCONT.1053774",
      "street": "R JOÃO DE DEUS",
      "house": "36",
      "postcode": "6200-679",
      "city": "TEIXOSO",
      "lon": "-7.457620749609876",
      "lat": "40.312382970737325"
    },
    {
      "id": "pt.ine.add.PTCONT.1053775",
      "street": "R JOÃO DE DEUS",
      "house": "36",
      "postcode": "6200-679",
      "city": "TEIXOSO",
      "lon": "-7.457620749609876",
      "lat": "40.312382970737325"
    },
    {
      "id": "pt.ine.add.PTCONT.1053776",
      "street": "R JOÃO DE DEUS",
      "house": "36",
      "postcode": "6200-679",
      "city": "TEIXOSO",
      "lon": "-7.457620749609876",
      "lat": "40.312382970737325"
    },
    {
      "id": "pt.ine.add.PTCONT.1053777",
      "street": "R JOÃO DE DEUS",
      "house": "36",
      "postcode": "6200-679",
      "city": "TEIXOSO",
      "lon": "-7.457620749609876",
      "lat": "40.312382970737325"
    },
    {
      "id": "pt.ine.add.PTCONT.1054347",
      "street": "R JOÃO DE DEUS",
      "house": "36",
      "postcode": "6200-679",
      "city": "TEIXOSO",
      "lon": "-7.457620749609876",
      "lat": "40.312382970737325"
    },
    {
      "id": "pt.ine.add.PTCONT.1059545",
      "street": "R JOÃO DE DEUS",
      "house": "30",
      "postcode": "6200-679",
      "city": "TEIXOSO",
      "lon": "-7.45783356733921",
      "lat": "40.31227614589715"
    },
    {
      "id": "pt.ine.add.PTCONT.1059546",
      "street": "R JOÃO DE DEUS",
      "house": "30",
      "postcode": "6200-679",
      "city": "TEIXOSO",
      "lon": "-7.45783356733921",
      "lat": "40.31227614589715"
    },
    {
      "id": "pt.ine.add.PTCONT.1059547",
      "street": "R JOÃO DE DEUS",
      "house": "30",
      "postcode": "6200-679",
      "city": "TEIXOSO",
      "lon": "-7.45783356733921",
      "lat": "40.31227614589715"
    },
    {
      "id": "pt.ine.add.PTCONT.1059548",
      "street": "R JOÃO DE DEUS",
      "house": "30",
      "postcode": "6200-679",
      "city": "TEIXOSO",
      "lon": "-7.45783356733921",
      "lat": "40.31227614589715"
    },
    {
      "id": "pt.ine.add.PTCONT.1059552",
      "street": "R JOÃO DE DEUS",
      "house": "30",
      "postcode": "6200-679",
      "city": "TEIXOSO",
      "lon": "-7.45783356733921",
      "lat": "40.31227614589715"
    },
    {
      "id": "pt.ine.add.PTCONT.1059553",
      "street": "R JOÃO DE DEUS",
      "house": "30",
      "postcode": "6200-679",
      "city": "TEIXOSO",
      "lon": "-7.45783356733921",
      "lat": "40.31227614589715"
    },
    {
      "id": "pt.ine.add.PTCONT.1059554",
      "street": "R JOÃO DE DEUS",
      "house": "30",
      "postcode": "6200-679",
      "city": "TEIXOSO",
      "lon": "-7.45783356733921",
      "lat": "40.31227614589715"
    },
    {
      "id": "pt.ine.add.PTCONT.1098920",
      "street": "R SENHORA DOS VERDES",
      "house": "1",
      "postcode": "6200-704",
      "city": "TEIXOSO",
      "lon": "-7.457671122872757",
      "lat": "40.31205005734218"
    }
  ]
}