{
  "data": {
    "distrito": "Braga",
    "concelho": "Vila Verde",
    "freguesia": "União das freguesias da Ribeira do Neiva",
    "OBJECTID": 1127,
    "BGRI2021": "03136000332",
    "DT21": "03",
    "DTMN21": "0313",
    "DTMNFR21": "031360",
    "DTMNFRSEC21": "031360003",
    "SECNUM21": "003",
    "SSNUM21": "32",
    "SECSSNUM21": "00332",
    "OBJECTID_1": 32886,
    "DT": "03",
    "CC": "13",
    "fr": "60",
    "SEC": "003",
    "SS": "32"
  },
  "addresses": [
    {
      "id": "pt.ine.add.PTCONT.478071",
      "street": "R SOUTELINHO",
      "house": "7",
      "postcode": "4730-200",
      "city": "GODINHAÇOS",
      "lon": "-8.45976847543397",
      "lat": "41.71140696430079"
    },
    {
      "id": "pt.ine.add.PTCONT.525994",
      "street": "R CENTRAL",
      "house": "82",
      "postcode": "4730-200",
      "city": "GODINHAÇOS",
      "lon": "-8.462354785473906",
      "lat": "41.70962589335898"
    },
    {
      "id": "pt.ine.add.PTCONT.541340",
      "street": "AV RIBEIRO DO NEIVA",
      "house": "120",
      "postcode": "4730-204",
      "city": "GODINHAÇOS",
      "lon": "-8.457021167924214",
      "lat": "41.714656000728965"
    },
    {
      "id": "pt.ine.add.PTCONT.558665",
      "street": "R SOUTELINHO",
      "house": "9",
      "postcode": "4730-200",
      "city": "GODINHAÇOS",
      "lon": "-8.459817312683318",
      "lat": "41.71155988499976"
    },
    {
      "id": "pt.ine.add.PTCONT.566629",
      "street": "TV IGREJA",
      "house": "3",
      "postcode": "4730-200",
      "city": "GODINHAÇOS",
      "lon": "-8.459448290278477",
      "lat": "41.71224519962535"
    },
    {
      "id": "pt.ine.add.PTCONT.569729",
      "street": "AV RIBEIRO DO NEIVA",
      "house": "106",
      "postcode": "4730-204",
      "city": "GODINHAÇOS",
      "lon": "-8.458154947123928",
      "lat": "41.71311320116751"
    },
    {
      "id": "pt.ine.add.PTCONT.624485",
      "street": "AV RIBEIRA DO NEIVA",
      "house": "74",
      "postcode": "4730-202",
      "city": "GODINHAÇOS",
      "lon": "-8.46251921086846",
      "lat": "41.711237049235265"
    },
    {
      "id": "pt.ine.add.PTCONT.676505",
      "street": "AV RIBEIRA NEIVA",
      "house": "76",
      "postcode": "4730-202",
      "city": "GODINHAÇOS",
      "lon": "-8.462701283386187",
      "lat": "41.71159666724922"
    },
    {
      "id": "pt.ine.add.PTCONT.735885",
      "street": "R SOUTELINHO",
      "house": "4",
      "postcode": "4730-200",
      "city": "GODINHAÇOS",
      "lon": "-8.459407325638878",
      "lat": "41.71127293778854"
    },
    {
      "id": "pt.ine.add.PTCONT.741797",
      "street": "R CENTRAL",
      "house": "48",
      "postcode": "4730-200",
      "city": "GODINHAÇOS",
      "lon": "-8.457002455402453",
      "lat": "41.71092860442608"
    },
    {
      "id": "pt.ine.add.PTCONT.781059",
      "street": "R SOUTELINHO",
      "house": "2",
      "postcode": "4730-200",
      "city": "GODINHAÇOS",
      "lon": "-8.459153452527243",
      "lat": "41.71096753927228"
    },
    {
      "id": "pt.ine.add.PTCONT.797888",
      "street": "AV RIBEIRA DO NEIVA",
      "house": "78",
      "postcode": "4730-202",
      "city": "GODINHAÇOS",
      "lon": "-8.46287056002265",
      "lat": "41.71180326215408"
    },
    {
      "id": "pt.ine.add.PTCONT.841115",
      "street": "R SOUTELINHO",
      "house": "5",
      "postcode": "4730-200",
      "city": "GODINHAÇOS",
      "lon": "-8.459696199783705",
      "lat": "41.71137115571726"
    }
  ]
}