{
  "data": {
    "distrito": "Lisboa",
    "concelho": "Odivelas",
    "freguesia": "União das freguesias de Ramada e Caneças",
    "OBJECTID": 623,
    "BGRI2021": "11161001411",
    "DT21": "11",
    "DTMN21": "1116",
    "DTMNFR21": "111610",
    "DTMNFRSEC21": "111610014",
    "SECNUM21": "014",
    "SSNUM21": "11",
    "SECSSNUM21": "01411",
    "OBJECTID_1": 119193,
    "DT": "11",
    "CC": "16",
    "fr": "10",
    "SEC": "014",
    "SS": "11"
  },
  "addresses": [
    {
      "id": "pt.ine.add.PTCONT.2528516",
      "street": "R RIBEIRA DA FONTE",
      "house": "4",
      "postcode": "1685-012",
      "city": "CANEÇAS",
      "lon": "-9.215126847248273",
      "lat": "38.82122060867345"
    },
    {
      "id": "pt.ine.add.PTCONT.2606989",
      "street": "R RIBEIRA DA FONTE",
      "house": "15",
      "postcode": "1685-012",
      "city": "CANEÇAS",
      "lon": "-9.214620554510638",
      "lat": "38.82124331245896"
    },
    {
      "id": "pt.ine.add.PTCONT.2606990",
      "street": "R CASAL VALE COVO",
      "house": "A",
      "postcode": "1685-118",
      "city": "CANEÇAS",
      "lon": "-9.217566476043968",
      "lat": "38.82112592477614"
    },
    {
      "id": "pt.ine.add.PTCONT.2808633",
      "street": "R RIBEIRA DA FONTE",
      "house": "",
      "postcode": "1685-012",
      "city": "CANEÇAS",
      "lon": "-9.215089729687609",
      "lat": "38.82257210457536"
    },
    {
      "id": "pt.ine.add.PTCONT.2847316",
      "street": "R RIBEIRA DA FONTE",
      "house": "45",
      "postcode": "1685-012",
      "city": "CANEÇAS",
      "lon": "-9.215001160036199",
      "lat": "38.82128482655138"
    },
    {
      "id": "pt.ine.add.PTCONT.2847317",
      "street": "R RIBEIRA DA FONTE",
      "house": "45",
      "postcode": "1685-012",
      "city": "CANEÇAS",
      "lon": "-9.215001160036199",
      "lat": "38.82128482655138"
    },
    {
      "id": "pt.ine.add.PTCONT.3060980",
      "street": "R RIBEIRA DA FONTE",
      "house": "13",
      "postcode": "1685-012",
      "city": "CANEÇAS",
      "lon": "-9.214622598269148",
      "lat": "38.82137840876592"
    },
    {
      "id": "pt.ine.add.PTCONT.3191996",
      "street": "R RIBEIRA DA FONTE",
      "house": "11",
      "postcode": "1685-012",
      "city": "CANEÇAS",
      "lon": "-9.214602842496976",
      "lat": "38.821594776025734"
    },
    {
      "id": "pt.ine.add.PTCONT.3228504",
      "street": "R CASAL VALE COVO",
      "house": "C",
      "postcode": "1685-118",
      "city": "CANEÇAS",
      "lon": "-9.217394330126607",
      "lat": "38.82116355346108"
    },
    {
      "id": "pt.ine.add.PTCONT.3237757",
      "street": "R QUINTA FEITEIRA",
      "house": "LETRA I",
      "postcode": "1685-122",
      "city": "CANEÇAS",
      "lon": "-9.217244936529196",
      "lat": "38.82118295537925"
    },
    {
      "id": "pt.ine.add.PTCONT.3238119",
      "street": "R CASAL VALE COVO H",
      "house": "H",
      "postcode": "1685-118",
      "city": "CANEÇAS",
      "lon": "-9.217244936529196",
      "lat": "38.82118295537925"
    }
  ]
}