{
  "data": {
    "distrito": "Vila Real",
    "concelho": "Vila Real",
    "freguesia": "Abaças",
    "OBJECTID": 18,
    "BGRI2021": "17140100107",
    "DT21": "17",
    "DTMN21": "1714",
    "DTMNFR21": "171401",
    "DTMNFRSEC21": "171401001",
    "SECNUM21": "001",
    "SSNUM21": "07",
    "SECSSNUM21": "00107",
    "OBJECTID_1": 187823,
    "DT": "17",
    "CC": "14",
    "fr": "01",
    "SEC": "001",
    "SS": "07"
  },
  "addresses": [
    {
      "id": "pt.ine.add.PTCONT.5292472",
      "street": "R ACIPRESTE",
      "house": "",
      "postcode": "5000-014",
      "city": "ABAÇAS",
      "lon": "-7.691256826925881",
      "lat": "41.20834412144673"
    },
    {
      "id": "pt.ine.add.PTCONT.5310102",
      "street": "R PRESA",
      "house": "",
      "postcode": "5000-014",
      "city": "ABAÇAS",
      "lon": "-7.691458910796094",
      "lat": "41.20843493935979"
    },
    {
      "id": "pt.ine.add.PTCONT.5344132",
      "street": "R NOGUEIRINHA",
      "house": "",
      "postcode": "5000-014",
      "city": "ABAÇAS",
      "lon": "-7.691172336625224",
      "lat": "41.20849686988508"
    },
    {
      "id": "pt.ine.add.PTCONT.5370775",
      "street": "R PORTELA",
      "house": "",
      "postcode": "5000-014",
      "city": "ABAÇAS",
      "lon": "-7.6858028152547195",
      "lat": "41.21084426198008"
    },
    {
      "id": "pt.ine.add.PTCONT.5377044",
      "street": "R NOGUEIRINHA",
      "house": "",
      "postcode": "5000-014",
      "city": "ABAÇAS",
      "lon": "-7.690921045766267",
      "lat": "41.20863096936226"
    },
    {
      "id": "pt.ine.add.PTCONT.5424113",
      "street": "R PORTELA",
      "house": "",
      "postcode": "5000-014",
      "city": "ABAÇAS",
      "lon": "-7.686405700076418",
      "lat": "41.21161196491542"
    }
  ]
}