{
  "data": {
    "distrito": "Setúbal",
    "concelho": "Almada",
    "freguesia": "União das freguesias de Charneca de Caparica e Sobreda",
    "OBJECTID": 835,
    "BGRI2021": "15031402415",
    "DT21": "15",
    "DTMN21": "1503",
    "DTMNFR21": "150314",
    "DTMNFRSEC21": "150314024",
    "SECNUM21": "024",
    "SSNUM21": "15",
    "SECSSNUM21": "02415",
    "OBJECTID_1": 161275,
    "DT": "15",
    "CC": "03",
    "fr": "14",
    "SEC": "024",
    "SS": "15"
  },
  "addresses": [
    {
      "id": "pt.ine.add.PTCONT.4678897",
      "street": "R JOSE CHAVES",
      "house": "",
      "postcode": "2820-521",
      "city": "CHARNECA DA CAPARICA",
      "lon": "-9.181714249608735",
      "lat": "38.60262516426836"
    },
    {
      "id": "pt.ine.add.PTCONT.4703746",
      "street": "R JOSE CHAVES",
      "house": "",
      "postcode": "2820-521",
      "city": "CHARNECA DA CAPARICA",
      "lon": "-9.181670959212083",
      "lat": "38.60280571278291"
    },
    {
      "id": "pt.ine.add.PTCONT.4801491",
      "street": "TV SIMÕES DE ALMEIDA",
      "house": "",
      "postcode": "2820-521",
      "city": "CHARNECA DA CAPARICA",
      "lon": "-9.181866085051134",
      "lat": "38.60280396410236"
    },
    {
      "id": "pt.ine.add.PTCONT.4804483",
      "street": "TV SIMÕES DE ALMEIDA",
      "house": "",
      "postcode": "2820-521",
      "city": "CHARNECA DA CAPARICA",
      "lon": "-9.182129685414997",
      "lat": "38.60277457716318"
    },
    {
      "id": "pt.ine.add.PTCONT.4826607",
      "street": "R FRANCISCO RELOGIO",
      "house": "3",
      "postcode": "2820-674",
      "city": "CHARNECA DA CAPARICA",
      "lon": "-9.178089936828417",
      "lat": "38.6020540486615"
    },
    {
      "id": "pt.ine.add.PTCONT.4826608",
      "street": "R FRANCISCO RELOGIO",
      "house": "3",
      "postcode": "2820-674",
      "city": "CHARNECA DA CAPARICA",
      "lon": "-9.178089936828417",
      "lat": "38.6020540486615"
    },
    {
      "id": "pt.ine.add.PTCONT.4826609",
      "street": "R FRANCISCO RELOGIO",
      "house": "3",
      "postcode": "2820-674",
      "city": "CHARNECA DA CAPARICA",
      "lon": "-9.178089936828417",
      "lat": "38.6020540486615"
    },
    {
      "id": "pt.ine.add.PTCONT.4826639",
      "street": "R FRANCISCO RELOGIO",
      "house": "3",
      "postcode": "2820-674",
      "city": "CHARNECA DA CAPARICA",
      "lon": "-9.178089936828417",
      "lat": "38.6020540486615"
    },
    {
      "id": "pt.ine.add.PTCONT.4826640",
      "street": "R AUGUSTO BARROS",
      "house": "3",
      "postcode": "2820-504",
      "city": "CHARNECA DA CAPARICA",
      "lon": "-9.178089936828417",
      "lat": "38.6020540486615"
    },
    {
      "id": "pt.ine.add.PTCONT.4827958",
      "street": "R FRANCISCO RELOGIO",
      "house": "3",
      "postcode": "2820-674",
      "city": "CHARNECA DA CAPARICA",
      "lon": "-9.178089936828417",
      "lat": "38.6020540486615"
    },
    {
      "id": "pt.ine.add.PTCONT.4890670",
      "street": "R AUGUSTO BARROS",
      "house": "16",
      "postcode": "2820-504",
      "city": "CHARNECA DA CAPARICA",
      "lon": "-9.177960153746415",
      "lat": "38.601811990710196"
    },
    {
      "id": "pt.ine.add.PTCONT.4890671",
      "street": "R AUGUSTO BARROS",
      "house": "16",
      "postcode": "2820-504",
      "city": "CHARNECA DA CAPARICA",
      "lon": "-9.177960153746415",
      "lat": "38.601811990710196"
    },
    {
      "id": "pt.ine.add.PTCONT.4890672",
      "street": "R AUGUSTO BARROS",
      "house": "16",
      "postcode": "2820-504",
      "city": "CHARNECA DA CAPARICA",
      "lon": "-9.177960153746415",
      "lat": "38.601811990710196"
    },
    {
      "id": "pt.ine.add.PTCONT.4890673",
      "street": "R AUGUSTO BARROS",
      "house": "16",
      "postcode": "2820-504",
      "city": "CHARNECA DA CAPARICA",
      "lon": "-9.177960153746415",
      "lat": "38.601811990710196"
    },
    {
      "id": "pt.ine.add.PTCONT.4890674",
      "street": "R AUGUSTO BARROS",
      "house": "16",
      "postcode": "2820-504",
      "city": "CHARNECA DA CAPARICA",
      "lon": "-9.177960153746415",
      "lat": "38.601811990710196"
    },
    {
      "id": "pt.ine.add.PTCONT.4892111",
      "street": "R AUGUSTO BARROS",
      "house": "16",
      "postcode": "2820-504",
      "city": "CHARNECA DA CAPARICA",
      "lon": "-9.177960153746415",
      "lat": "38.601811990710196"
    },
    {
      "id": "pt.ine.add.PTCONT.4917867",
      "street": "R SIMÕES DE ALMEIDA",
      "house": "",
      "postcode": "2820-521",
      "city": "CHARNECA DA CAPARICA",
      "lon": "-9.182150543259034",
      "lat": "38.602630261711255"
    },
    {
      "id": "pt.ine.add.PTCONT.5060849",
      "street": "R ANTONIO SARDINHA",
      "house": "4",
      "postcode": "2820-365",
      "city": "CHARNECA DA CAPARICA",
      "lon": "-9.178291574160372",
      "lat": "38.60170994256588"
    },
    {
      "id": "pt.ine.add.PTCONT.5062777",
      "street": "R AUGUSTO BARROS",
      "house": "20",
      "postcode": "2820-504",
      "city": "CHARNECA DA CAPARICA",
      "lon": "-9.178291574160372",
      "lat": "38.60170994256588"
    },
    {
      "id": "pt.ine.add.PTCONT.5062778",
      "street": "R AUGUSTO BARROS",
      "house": "20",
      "postcode": "2820-504",
      "city": "CHARNECA DA CAPARICA",
      "lon": "-9.178291574160372",
      "lat": "38.60170994256588"
    },
    {
      "id": "pt.ine.add.PTCONT.5062779",
      "street": "R AUGUSTO BARROS",
      "house": "20",
      "postcode": "2820-504",
      "city": "CHARNECA DA CAPARICA",
      "lon": "-9.178291574160372",
      "lat": "38.60170994256588"
    },
    {
      "id": "pt.ine.add.PTCONT.5062780",
      "street": "R AUGUSTO BARROS",
      "house": "20",
      "postcode": "2820-504",
      "city": "CHARNECA DA CAPARICA",
      "lon": "-9.178291574160372",
      "lat": "38.60170994256588"
    },
    {
      "id": "pt.ine.add.PTCONT.5062805",
      "street": "R AUGUSTO BARROS",
      "house": "20",
      "postcode": "2820-504",
      "city": "CHARNECA DA CAPARICA",
      "lon": "-9.178291574160372",
      "lat": "38.60170994256588"
    },
    {
      "id": "pt.ine.add.PTCONT.5098368",
      "street": "R AUGUSTO BARROS",
      "house": "14",
      "postcode": "2820-504",
      "city": "CHARNECA DA CAPARICA",
      "lon": "-9.177859464975288",
      "lat": "38.60199305039184"
    },
    {
      "id": "pt.ine.add.PTCONT.5098369",
      "street": "R AUGUSTO BARROS",
      "house": "14",
      "postcode": "2820-504",
      "city": "CHARNECA DA CAPARICA",
      "lon": "-9.177859464975288",
      "lat": "38.60199305039184"
    },
    {
      "id": "pt.ine.add.PTCONT.5098370",
      "street": "R AUGUSTO BARROS",
      "house": "14",
      "postcode": "2820-504",
      "city": "CHARNECA DA CAPARICA",
      "lon": "-9.177859464975288",
      "lat": "38.60199305039184"
    },
    {
      "id": "pt.ine.add.PTCONT.5098371",
      "street": "R AUGUSTO BARROS",
      "house": "14",
      "postcode": "2820-504",
      "city": "CHARNECA DA CAPARICA",
      "lon": "-9.177859464975288",
      "lat": "38.60199305039184"
    },
    {
      "id": "pt.ine.add.PTCONT.5098372",
      "street": "R AUGUSTO BARROS",
      "house": "14",
      "postcode": "2820-504",
      "city": "CHARNECA DA CAPARICA",
      "lon": "-9.177859464975288",
      "lat": "38.60199305039184"
    },
    {
      "id": "pt.ine.add.PTCONT.5098373",
      "street": "R AUGUSTO BARROS",
      "house": "14",
      "postcode": "2820-504",
      "city": "CHARNECA DA CAPARICA",
      "lon": "-9.177859464975288",
      "lat": "38.60199305039184"
    },
    {
      "id": "pt.ine.add.PTCONT.5098374",
      "street": "R AUGUSTO BARROS",
      "house": "14",
      "postcode": "2820-504",
      "city": "CHARNECA DA CAPARICA",
      "lon": "-9.177859464975288",
      "lat": "38.60199305039184"
    },
    {
      "id": "pt.ine.add.PTCONT.5098382",
      "street": "R AUGUSTO BARROS",
      "house": "14",
      "postcode": "2820-504",
      "city": "CHARNECA DA CAPARICA",
      "lon": "-9.177859464975288",
      "lat": "38.60199305039184"
    },
    {
      "id": "pt.ine.add.PTCONT.5098383",
      "street": "R AUGUSTO BARROS",
      "house": "14",
      "postcode": "2820-504",
      "city": "CHARNECA DA CAPARICA",
      "lon": "-9.177859464975288",
      "lat": "38.60199305039184"
    },
    {
      "id": "pt.ine.add.PTCONT.5101935",
      "street": "R AUGUSTO BARROS",
      "house": "18",
      "postcode": "2820-504",
      "city": "CHARNECA DA CAPARICA",
      "lon": "-9.178061233869624",
      "lat": "38.60165795154343"
    },
    {
      "id": "pt.ine.add.PTCONT.5101936",
      "street": "R AUGUSTO BARROS",
      "house": "18",
      "postcode": "2820-504",
      "city": "CHARNECA DA CAPARICA",
      "lon": "-9.178061233869624",
      "lat": "38.60165795154343"
    },
    {
      "id": "pt.ine.add.PTCONT.5101937",
      "street": "R AUGUSTO BARROS",
      "house": "18",
      "postcode": "2820-504",
      "city": "CHARNECA DA CAPARICA",
      "lon": "-9.178061233869624",
      "lat": "38.60165795154343"
    },
    {
      "id": "pt.ine.add.PTCONT.5101938",
      "street": "R AUGUSTO BARROS",
      "house": "18",
      "postcode": "2820-504",
      "city": "CHARNECA DA CAPARICA",
      "lon": "-9.178061233869624",
      "lat": "38.60165795154343"
    },
    {
      "id": "pt.ine.add.PTCONT.5101939",
      "street": "R AUGUSTO BARROS",
      "house": "18",
      "postcode": "2820-504",
      "city": "CHARNECA DA CAPARICA",
      "lon": "-9.178061233869624",
      "lat": "38.60165795154343"
    },
    {
      "id": "pt.ine.add.PTCONT.5101940",
      "street": "R AUGUSTO BARROS",
      "house": "18",
      "postcode": "2820-504",
      "city": "CHARNECA DA CAPARICA",
      "lon": "-9.178061233869624",
      "lat": "38.60165795154343"
    },
    {
      "id": "pt.ine.add.PTCONT.5101941",
      "street": "R AUGUSTO BARROS",
      "house": "18",
      "postcode": "2820-504",
      "city": "CHARNECA DA CAPARICA",
      "lon": "-9.178061233869624",
      "lat": "38.60165795154343"
    },
    {
      "id": "pt.ine.add.PTCONT.5101942",
      "street": "R AUGUSTO BARROS",
      "house": "18",
      "postcode": "2820-504",
      "city": "CHARNECA DA CAPARICA",
      "lon": "-9.178061233869624",
      "lat": "38.60165795154343"
    },
    {
      "id": "pt.ine.add.PTCONT.5101943",
      "street": "R AUGUSTO BARROS",
      "house": "18",
      "postcode": "2820-504",
      "city": "CHARNECA DA CAPARICA",
      "lon": "-9.178061233869624",
      "lat": "38.60165795154343"
    },
    {
      "id": "pt.ine.add.PTCONT.5101944",
      "street": "R AUGUSTO BARROS",
      "house": "18",
      "postcode": "2820-504",
      "city": "CHARNECA DA CAPARICA",
      "lon": "-9.178061233869624",
      "lat": "38.60165795154343"
    },
    {
      "id": "pt.ine.add.PTCONT.5101945",
      "street": "R AUGUSTO BARROS",
      "house": "18",
      "postcode": "2820-504",
      "city": "CHARNECA DA CAPARICA",
      "lon": "-9.178061233869624",
      "lat": "38.60165795154343"
    },
    {
      "id": "pt.ine.add.PTCONT.5101946",
      "street": "R AUGUSTO BARROS",
      "house": "18",
      "postcode": "2820-504",
      "city": "CHARNECA DA CAPARICA",
      "lon": "-9.178061233869624",
      "lat": "38.60165795154343"
    }
  ]
}