{
  "data": {
    "distrito": "Évora",
    "concelho": "Alandroal",
    "freguesia": "Capelins (Santo António)",
    "OBJECTID": 1,
    "BGRI2021": "07010400146",
    "DT21": "07",
    "DTMN21": "0701",
    "DTMNFR21": "070104",
    "DTMNFRSEC21": "070104001",
    "SECNUM21": "001",
    "SSNUM21": "46",
    "SECSSNUM21": "00146",
    "OBJECTID_1": 58403,
    "DT": "07",
    "CC": "01",
    "fr": "04",
    "SEC": "001",
    "SS": "46"
  },
  "addresses": [
    {
      "id": "pt.ine.add.PTCONT.1374593",
      "street": "MTE OLIVEIRA",
      "house": "",
      "postcode": "7250-266",
      "city": "CAPELINS",
      "lon": "-7.360581373800627",
      "lat": "38.57305559017086"
    },
    {
      "id": "pt.ine.add.PTCONT.1378991",
      "street": "MTE CEBOLINHO",
      "house": "",
      "postcode": "7250-266",
      "city": "CAPELINS",
      "lon": "-7.362505229999984",
      "lat": "38.571275634098775"
    },
    {
      "id": "pt.ine.add.PTCONT.1407236",
      "street": "MTE CEBOLAL III",
      "house": "",
      "postcode": "7250-266",
      "city": "CAPELINS",
      "lon": "-7.367374452563412",
      "lat": "38.57090221915389"
    },
    {
      "id": "pt.ine.add.PTCONT.1409831",
      "street": "MTE CEBOLAL - ESTRADA PRINCIPAL",
      "house": "",
      "postcode": "7250-266",
      "city": "CAPELINS",
      "lon": "-7.369139946906382",
      "lat": "38.57321986353553"
    },
    {
      "id": "pt.ine.add.PTCONT.1419175",
      "street": "MTE PALMEIRA",
      "house": "",
      "postcode": "7250-266",
      "city": "CAPELINS",
      "lon": "-7.366699263899383",
      "lat": "38.57613158218999"
    },
    {
      "id": "pt.ine.add.PTCONT.1420326",
      "street": "MTE CEBOLAL I",
      "house": "",
      "postcode": "7250-266",
      "city": "CAPELINS",
      "lon": "-7.365098097375942",
      "lat": "38.57239168008261"
    },
    {
      "id": "pt.ine.add.PTCONT.1433148",
      "street": "MTE OLIVEIRA",
      "house": "",
      "postcode": "7250-266",
      "city": "CAPELINS",
      "lon": "-7.360719835047136",
      "lat": "38.572984438119235"
    },
    {
      "id": "pt.ine.add.PTCONT.1435563",
      "street": "MTE CEBOLAL II",
      "house": "",
      "postcode": "7250-266",
      "city": "CAPELINS",
      "lon": "-7.366387292455206",
      "lat": "38.57309376585227"
    },
    {
      "id": "pt.ine.add.PTCONT.1437374",
      "street": "MTE CEBOLAL IV",
      "house": "",
      "postcode": "7250-266",
      "city": "CAPELINS",
      "lon": "-7.3673617357699195",
      "lat": "38.571019243013986"
    },
    {
      "id": "pt.ine.add.PTCONT.1444808",
      "street": "MTE COURELA CEBOLAL",
      "house": "21",
      "postcode": "7250-266",
      "city": "CAPELINS",
      "lon": "-7.362711234859631",
      "lat": "38.57347499841665"
    },
    {
      "id": "pt.ine.add.PTCONT.1446820",
      "street": "MTE CEBOLAL V",
      "house": "",
      "postcode": "7250-266",
      "city": "CAPELINS",
      "lon": "-7.368620039144221",
      "lat": "38.57138779756028"
    },
    {
      "id": "pt.ine.add.PTCONT.1452943",
      "street": "MTE SABUGAL",
      "house": "",
      "postcode": "7250-266",
      "city": "CAPELINS",
      "lon": "-7.364480034759508",
      "lat": "38.572243491341645"
    },
    {
      "id": "pt.ine.add.PTCONT.1454428",
      "street": "MTE OLIVEIRA III",
      "house": "",
      "postcode": "7250-266",
      "city": "CAPELINS",
      "lon": "-7.359892620109411",
      "lat": "38.574150046030624"
    },
    {
      "id": "pt.ine.add.PTCONT.1456760",
      "street": "MTE DEFESA BAIXO I",
      "house": "",
      "postcode": "7250-266",
      "city": "CAPELINS",
      "lon": "-7.360937717559383",
      "lat": "38.5880025740914"
    }
  ]
}