{
  "data": {
    "distrito": "Lisboa",
    "concelho": "Vila Franca de Xira",
    "freguesia": "Vila Franca de Xira",
    "OBJECTID": 966,
    "BGRI2021": "11140901614",
    "DT21": "11",
    "DTMN21": "1114",
    "DTMNFR21": "111409",
    "DTMNFRSEC21": "111409016",
    "SECNUM21": "016",
    "SSNUM21": "14",
    "SECSSNUM21": "01614",
    "OBJECTID_1": 117480,
    "DT": "11",
    "CC": "14",
    "fr": "09",
    "SEC": "016",
    "SS": "14"
  },
  "addresses": [
    {
      "id": "pt.ine.add.PTCONT.2301203",
      "street": "CSL LERIAS",
      "house": "3",
      "postcode": "2600-011",
      "city": "VILA FRANCA DE XIRA",
      "lon": "-9.01758887465197",
      "lat": "38.95734109002075"
    },
    {
      "id": "pt.ine.add.PTCONT.2329040",
      "street": "QTA BACELOS",
      "house": "",
      "postcode": "2600-075",
      "city": "VILA FRANCA DE XIRA",
      "lon": "-9.017890256023907",
      "lat": "38.95838368600707"
    },
    {
      "id": "pt.ine.add.PTCONT.2680994",
      "street": "ALTO DA AGRUELA",
      "house": "",
      "postcode": "2600-000",
      "city": "",
      "lon": "-9.017322416528089",
      "lat": "38.96096415987734"
    },
    {
      "id": "pt.ine.add.PTCONT.2715707",
      "street": "CSL LERIAS",
      "house": "",
      "postcode": "2600-011",
      "city": "VILA FRANCA DE XIRA",
      "lon": "-9.017635800586753",
      "lat": "38.95740378750649"
    },
    {
      "id": "pt.ine.add.PTCONT.2715708",
      "street": "CSL LERIAS",
      "house": "2",
      "postcode": "2600-011",
      "city": "VILA FRANCA DE XIRA",
      "lon": "-9.017682166683121",
      "lat": "38.95742145125952"
    },
    {
      "id": "pt.ine.add.PTCONT.3050717",
      "street": "CSL BACELOS",
      "house": "3",
      "postcode": "2600-083",
      "city": "",
      "lon": "-9.018399085617322",
      "lat": "38.96126225514307"
    },
    {
      "id": "pt.ine.add.PTCONT.3306326",
      "street": "CSL FREIRAS",
      "house": "",
      "postcode": "2600-075",
      "city": "VILA FRANCA DE XIRA",
      "lon": "-9.019251955447647",
      "lat": "38.96026494775137"
    }
  ]
}