{
  "data": {
    "distrito": "Vila Real",
    "concelho": "Valpaços",
    "freguesia": "Valpaços e Sanfins",
    "OBJECTID": 698,
    "BGRI2021": "17123600209",
    "DT21": "17",
    "DTMN21": "1712",
    "DTMNFR21": "171236",
    "DTMNFRSEC21": "171236002",
    "SECNUM21": "002",
    "SSNUM21": "09",
    "SECSSNUM21": "00209",
    "OBJECTID_1": 186306,
    "DT": "17",
    "CC": "12",
    "fr": "36",
    "SEC": "002",
    "SS": "09"
  },
  "addresses": [
    {
      "id": "pt.ine.add.PTCONT.5294679",
      "street": "AV ENG ADELINO AMARO COSTA",
      "house": "",
      "postcode": "5430-409",
      "city": "VALPAÇOS",
      "lon": "-7.312125392643844",
      "lat": "41.605353385527906"
    },
    {
      "id": "pt.ine.add.PTCONT.5294690",
      "street": "AV ENG ADELINO AMARO COSTA",
      "house": "",
      "postcode": "5430-409",
      "city": "VALPAÇOS",
      "lon": "-7.312125392643844",
      "lat": "41.605353385527906"
    },
    {
      "id": "pt.ine.add.PTCONT.5294691",
      "street": "AV ENG ADELINO AMARO COSTA W",
      "house": "W",
      "postcode": "5430-409",
      "city": "VALPAÇOS",
      "lon": "-7.312125392643844",
      "lat": "41.605353385527906"
    },
    {
      "id": "pt.ine.add.PTCONT.5295650",
      "street": "AV ENG ADELINO AMARO DA COSTA",
      "house": "",
      "postcode": "5430-409",
      "city": "VALPAÇOS",
      "lon": "-7.312125392643844",
      "lat": "41.605353385527906"
    },
    {
      "id": "pt.ine.add.PTCONT.5295651",
      "street": "AV ENG ADELINO AMARO DA COSTA",
      "house": "",
      "postcode": "5430-409",
      "city": "VALPAÇOS",
      "lon": "-7.312125392643844",
      "lat": "41.605353385527906"
    },
    {
      "id": "pt.ine.add.PTCONT.5295652",
      "street": "AV ENG ADELINO AMARO DA COSTA",
      "house": "",
      "postcode": "5430-409",
      "city": "VALPAÇOS",
      "lon": "-7.312125392643844",
      "lat": "41.605353385527906"
    },
    {
      "id": "pt.ine.add.PTCONT.5295653",
      "street": "AV ENG ADELINO AMARO DA COSTA",
      "house": "",
      "postcode": "5430-409",
      "city": "VALPAÇOS",
      "lon": "-7.312125392643844",
      "lat": "41.605353385527906"
    },
    {
      "id": "pt.ine.add.PTCONT.5295654",
      "street": "AV ENG ADELINO AMARO DA COSTA",
      "house": "",
      "postcode": "5430-409",
      "city": "VALPAÇOS",
      "lon": "-7.312125392643844",
      "lat": "41.605353385527906"
    },
    {
      "id": "pt.ine.add.PTCONT.5295655",
      "street": "AV ENG ADELINO AMARO DA COSTA",
      "house": "",
      "postcode": "5430-409",
      "city": "VALPAÇOS",
      "lon": "-7.312125392643844",
      "lat": "41.605353385527906"
    },
    {
      "id": "pt.ine.add.PTCONT.5295656",
      "street": "AV ENG ADELINO AMARO DA COSTA",
      "house": "",
      "postcode": "5430-409",
      "city": "VALPAÇOS",
      "lon": "-7.312125392643844",
      "lat": "41.605353385527906"
    },
    {
      "id": "pt.ine.add.PTCONT.5295657",
      "street": "AV ENG ADELINO AMARO DA COSTA",
      "house": "",
      "postcode": "5430-409",
      "city": "VALPAÇOS",
      "lon": "-7.312125392643844",
      "lat": "41.605353385527906"
    },
    {
      "id": "pt.ine.add.PTCONT.5317425",
      "street": "R DIOGO CÃO",
      "house": "49",
      "postcode": "5430-426",
      "city": "VALPAÇOS",
      "lon": "-7.312130300197623",
      "lat": "41.604966266854724"
    },
    {
      "id": "pt.ine.add.PTCONT.5318504",
      "street": "CALHEIAS",
      "house": "",
      "postcode": "5430-493",
      "city": "VALPAÇOS",
      "lon": "-7.312362307963988",
      "lat": "41.604643794770546"
    },
    {
      "id": "pt.ine.add.PTCONT.5319607",
      "street": "R DIOGO CÃO",
      "house": "20",
      "postcode": "5430-426",
      "city": "VALPAÇOS",
      "lon": "-7.312252187623589",
      "lat": "41.60481407646024"
    },
    {
      "id": "pt.ine.add.PTCONT.5324890",
      "street": "R DIOGO CÃO",
      "house": "48",
      "postcode": "5430-426",
      "city": "VALPAÇOS",
      "lon": "-7.312179078061401",
      "lat": "41.60490359016147"
    },
    {
      "id": "pt.ine.add.PTCONT.5355576",
      "street": "R PROF DR AMÂNDIO TAVARES",
      "house": "",
      "postcode": "5430-487",
      "city": "VALPAÇOS",
      "lon": "-7.312356032687992",
      "lat": "41.605138946613756"
    },
    {
      "id": "pt.ine.add.PTCONT.5358890",
      "street": "AV ENG ADELINO AMARO COSTA AM",
      "house": "AM",
      "postcode": "5430-409",
      "city": "VALPAÇOS",
      "lon": "-7.312350670054988",
      "lat": "41.60556207633614"
    },
    {
      "id": "pt.ine.add.PTCONT.5358978",
      "street": "AV ENG ADELINO AMARO DA COSTA",
      "house": "",
      "postcode": "5430-409",
      "city": "VALPAÇOS",
      "lon": "-7.312350670054988",
      "lat": "41.60556207633614"
    },
    {
      "id": "pt.ine.add.PTCONT.5358979",
      "street": "AV ENG ADELINO AMARO DA COSTA",
      "house": "",
      "postcode": "5430-409",
      "city": "VALPAÇOS",
      "lon": "-7.312350670054988",
      "lat": "41.60556207633614"
    },
    {
      "id": "pt.ine.add.PTCONT.5358980",
      "street": "AV ENG ADELINO AMARO DA COSTA",
      "house": "",
      "postcode": "5430-409",
      "city": "VALPAÇOS",
      "lon": "-7.312350670054988",
      "lat": "41.60556207633614"
    },
    {
      "id": "pt.ine.add.PTCONT.5358981",
      "street": "AV ENG ADELINO AMARO DA COSTA",
      "house": "",
      "postcode": "5430-409",
      "city": "VALPAÇOS",
      "lon": "-7.312350670054988",
      "lat": "41.60556207633614"
    },
    {
      "id": "pt.ine.add.PTCONT.5358982",
      "street": "AV ENG ADELINO AMARO DA COSTA",
      "house": "",
      "postcode": "5430-409",
      "city": "VALPAÇOS",
      "lon": "-7.312350670054988",
      "lat": "41.60556207633614"
    },
    {
      "id": "pt.ine.add.PTCONT.5358983",
      "street": "AV ENG ADELINO AMARO DA COSTA",
      "house": "",
      "postcode": "5430-409",
      "city": "VALPAÇOS",
      "lon": "-7.312350670054988",
      "lat": "41.60556207633614"
    },
    {
      "id": "pt.ine.add.PTCONT.5358984",
      "street": "AV ENG ADELINO AMARO DA COSTA",
      "house": "",
      "postcode": "5430-409",
      "city": "VALPAÇOS",
      "lon": "-7.312350670054988",
      "lat": "41.60556207633614"
    },
    {
      "id": "pt.ine.add.PTCONT.5358985",
      "street": "AV ENG ADELINO AMARO DA COSTA",
      "house": "",
      "postcode": "5430-409",
      "city": "VALPAÇOS",
      "lon": "-7.312350670054988",
      "lat": "41.60556207633614"
    },
    {
      "id": "pt.ine.add.PTCONT.5358986",
      "street": "AV ENG ADELINO AMARO DA COSTA",
      "house": "",
      "postcode": "5430-409",
      "city": "VALPAÇOS",
      "lon": "-7.312350670054988",
      "lat": "41.60556207633614"
    },
    {
      "id": "pt.ine.add.PTCONT.5358987",
      "street": "AV ENG ADELINO AMARO DA COSTA",
      "house": "",
      "postcode": "5430-409",
      "city": "VALPAÇOS",
      "lon": "-7.312350670054988",
      "lat": "41.60556207633614"
    },
    {
      "id": "pt.ine.add.PTCONT.5358988",
      "street": "AV ENG ADELINO AMARO DA COSTA",
      "house": "",
      "postcode": "5430-409",
      "city": "VALPAÇOS",
      "lon": "-7.312350670054988",
      "lat": "41.60556207633614"
    },
    {
      "id": "pt.ine.add.PTCONT.5358989",
      "street": "AV ENG ADELINO AMARO DA COSTA",
      "house": "",
      "postcode": "5430-409",
      "city": "VALPAÇOS",
      "lon": "-7.312350670054988",
      "lat": "41.60556207633614"
    },
    {
      "id": "pt.ine.add.PTCONT.5358990",
      "street": "AV ENG ADELINO AMARO DA COSTA",
      "house": "",
      "postcode": "5430-409",
      "city": "VALPAÇOS",
      "lon": "-7.312350670054988",
      "lat": "41.60556207633614"
    },
    {
      "id": "pt.ine.add.PTCONT.5358991",
      "street": "AV ENG ADELINO AMARO DA COSTA",
      "house": "",
      "postcode": "5430-409",
      "city": "VALPAÇOS",
      "lon": "-7.312350670054988",
      "lat": "41.60556207633614"
    },
    {
      "id": "pt.ine.add.PTCONT.5358992",
      "street": "AV ENG ADELINO AMARO DA COSTA",
      "house": "",
      "postcode": "5430-409",
      "city": "VALPAÇOS",
      "lon": "-7.312350670054988",
      "lat": "41.60556207633614"
    },
    {
      "id": "pt.ine.add.PTCONT.5358993",
      "street": "AV ENG ADELINO AMARO DA COSTA",
      "house": "",
      "postcode": "5430-409",
      "city": "VALPAÇOS",
      "lon": "-7.312350670054988",
      "lat": "41.60556207633614"
    },
    {
      "id": "pt.ine.add.PTCONT.5358994",
      "street": "AV ENG ADELINO AMARO DA COSTA",
      "house": "",
      "postcode": "5430-409",
      "city": "VALPAÇOS",
      "lon": "-7.312350670054988",
      "lat": "41.60556207633614"
    },
    {
      "id": "pt.ine.add.PTCONT.5369626",
      "street": "R DIOGO CÃO",
      "house": "50",
      "postcode": "5430-426",
      "city": "VALPAÇOS",
      "lon": "-7.312105625901025",
      "lat": "41.6050201120931"
    },
    {
      "id": "pt.ine.add.PTCONT.5385707",
      "street": "R PROF DR AMÂNDIO TAVARES",
      "house": "1",
      "postcode": "5430-487",
      "city": "VALPAÇOS",
      "lon": "-7.313148372627508",
      "lat": "41.60509057932208"
    }
  ]
}