{
  "data": {
    "distrito": "Vila Real",
    "concelho": "Valpaços",
    "freguesia": "Valpaços e Sanfins",
    "OBJECTID": 773,
    "BGRI2021": "17123600218",
    "DT21": "17",
    "DTMN21": "1712",
    "DTMNFR21": "171236",
    "DTMNFRSEC21": "171236002",
    "SECNUM21": "002",
    "SSNUM21": "18",
    "SECSSNUM21": "00218",
    "OBJECTID_1": 186042,
    "DT": "17",
    "CC": "12",
    "fr": "36",
    "SEC": "002",
    "SS": "18"
  },
  "addresses": [
    {
      "id": "pt.ine.add.PTCONT.5294675",
      "street": "R DO ARCO",
      "house": "6",
      "postcode": "5430-506",
      "city": "VALPAÇOS",
      "lon": "-7.317433637556055",
      "lat": "41.6067777222564"
    },
    {
      "id": "pt.ine.add.PTCONT.5332382",
      "street": "R D XIMENES BELO",
      "house": "19",
      "postcode": "5430-511",
      "city": "VALPAÇOS",
      "lon": "-7.317685308049377",
      "lat": "41.60679751481803"
    },
    {
      "id": "pt.ine.add.PTCONT.5339777",
      "street": "PCT DE TIMOR",
      "house": "12",
      "postcode": "5430-506",
      "city": "VALPAÇOS",
      "lon": "-7.317392095429001",
      "lat": "41.60721860259367"
    },
    {
      "id": "pt.ine.add.PTCONT.5339778",
      "street": "PCT DE TIMOR",
      "house": "12",
      "postcode": "5430-506",
      "city": "VALPAÇOS",
      "lon": "-7.317392095429001",
      "lat": "41.60721860259367"
    },
    {
      "id": "pt.ine.add.PTCONT.5339779",
      "street": "PCT DE TIMOR",
      "house": "12",
      "postcode": "5430-506",
      "city": "VALPAÇOS",
      "lon": "-7.317392095429001",
      "lat": "41.60721860259367"
    },
    {
      "id": "pt.ine.add.PTCONT.5370443",
      "street": "PCT DE TIMOR",
      "house": "16",
      "postcode": "5430-506",
      "city": "VALPAÇOS",
      "lon": "-7.317620457480588",
      "lat": "41.60718420846723"
    },
    {
      "id": "pt.ine.add.PTCONT.5370512",
      "street": "PCT DE TIMOR",
      "house": "16",
      "postcode": "5430-506",
      "city": "VALPAÇOS",
      "lon": "-7.317620457480588",
      "lat": "41.60718420846723"
    },
    {
      "id": "pt.ine.add.PTCONT.5370513",
      "street": "PCT DE TIMOR",
      "house": "16",
      "postcode": "5430-506",
      "city": "VALPAÇOS",
      "lon": "-7.317620457480588",
      "lat": "41.60718420846723"
    },
    {
      "id": "pt.ine.add.PTCONT.5375932",
      "street": "PCT DE TIMOR",
      "house": "18",
      "postcode": "5430-506",
      "city": "VALPAÇOS",
      "lon": "-7.31775183769721",
      "lat": "41.60723015823459"
    },
    {
      "id": "pt.ine.add.PTCONT.5375933",
      "street": "PCT DE TIMOR",
      "house": "18",
      "postcode": "5430-506",
      "city": "VALPAÇOS",
      "lon": "-7.31775183769721",
      "lat": "41.60723015823459"
    },
    {
      "id": "pt.ine.add.PTCONT.5375934",
      "street": "PCT DE TIMOR",
      "house": "18",
      "postcode": "5430-506",
      "city": "VALPAÇOS",
      "lon": "-7.31775183769721",
      "lat": "41.60723015823459"
    },
    {
      "id": "pt.ine.add.PTCONT.5386547",
      "street": "R D XIMENES BELO",
      "house": "17",
      "postcode": "5430-511",
      "city": "VALPAÇOS",
      "lon": "-7.317718799486551",
      "lat": "41.60699583099514"
    },
    {
      "id": "pt.ine.add.PTCONT.5393153",
      "street": "PCT TIMOR",
      "house": "",
      "postcode": "5430-506",
      "city": "VALPAÇOS",
      "lon": "-7.3174890774523025",
      "lat": "41.60713825855104"
    },
    {
      "id": "pt.ine.add.PTCONT.5393154",
      "street": "PCT TIMOR",
      "house": "",
      "postcode": "5430-506",
      "city": "VALPAÇOS",
      "lon": "-7.3174890774523025",
      "lat": "41.60713825855104"
    },
    {
      "id": "pt.ine.add.PTCONT.5417856",
      "street": "R DO ARCO",
      "house": "2",
      "postcode": "5430-506",
      "city": "VALPAÇOS",
      "lon": "-7.317413843162048",
      "lat": "41.606444449565544"
    },
    {
      "id": "pt.ine.add.PTCONT.5425413",
      "street": "PCT TIMOR",
      "house": "24",
      "postcode": "5430-506",
      "city": "VALPAÇOS",
      "lon": "-7.3174890774523025",
      "lat": "41.60713825855104"
    }
  ]
}