{
  "data": {
    "distrito": "Aveiro",
    "concelho": "Estarreja",
    "freguesia": "União das freguesias de Beduído e Veiros",
    "OBJECTID": 185,
    "BGRI2021": "01080800132",
    "DT21": "01",
    "DTMN21": "0108",
    "DTMNFR21": "010808",
    "DTMNFRSEC21": "010808001",
    "SECNUM21": "001",
    "SSNUM21": "32",
    "SECSSNUM21": "00132",
    "OBJECTID_1": 4825,
    "DT": "01",
    "CC": "08",
    "fr": "08",
    "SEC": "001",
    "SS": "32"
  },
  "addresses": [
    {
      "id": "pt.ine.add.PTCONT.11570",
      "street": "R PADRE REINALDO DE MATOS",
      "house": "03",
      "postcode": "3860-233",
      "city": "ESTARREJA",
      "lon": "-8.554267636087948",
      "lat": "40.78172924846305"
    },
    {
      "id": "pt.ine.add.PTCONT.70496",
      "street": "R JOSE MARQUES DA CRUZ",
      "house": "6",
      "postcode": "3860-232",
      "city": "ESTARREJA",
      "lon": "-8.555856469845793",
      "lat": "40.78194856236202"
    },
    {
      "id": "pt.ine.add.PTCONT.78694",
      "street": "R BEDUIDO",
      "house": "7",
      "postcode": "3860-225",
      "city": "ESTARREJA",
      "lon": "-8.555228670007823",
      "lat": "40.781959865492865"
    },
    {
      "id": "pt.ine.add.PTCONT.163892",
      "street": "R MONTE",
      "house": "22",
      "postcode": "3860-229",
      "city": "ESTARREJA",
      "lon": "-8.553274531310448",
      "lat": "40.78204804162744"
    },
    {
      "id": "pt.ine.add.PTCONT.163893",
      "street": "R MONTE",
      "house": "22",
      "postcode": "3860-229",
      "city": "ESTARREJA",
      "lon": "-8.553274531310448",
      "lat": "40.78204804162744"
    },
    {
      "id": "pt.ine.add.PTCONT.169146",
      "street": "R BEDUIDO",
      "house": "22",
      "postcode": "3860-225",
      "city": "ESTARREJA",
      "lon": "-8.554970556985207",
      "lat": "40.78235702677056"
    },
    {
      "id": "pt.ine.add.PTCONT.220367",
      "street": "R BEDUIDO",
      "house": "22",
      "postcode": "3860-225",
      "city": "ESTARREJA",
      "lon": "-8.55473436865919",
      "lat": "40.78247495420056"
    },
    {
      "id": "pt.ine.add.PTCONT.258158",
      "street": "R FOJO",
      "house": "7",
      "postcode": "3860-228",
      "city": "ESTARREJA",
      "lon": "-8.554441280193274",
      "lat": "40.78296229144692"
    },
    {
      "id": "pt.ine.add.PTCONT.258160",
      "street": "R BEDUIDO",
      "house": "18",
      "postcode": "3860-225",
      "city": "ESTARREJA",
      "lon": "-8.554790525597122",
      "lat": "40.781988482209776"
    },
    {
      "id": "pt.ine.add.PTCONT.282222",
      "street": "R BEDUIDO",
      "house": "9",
      "postcode": "3860-225",
      "city": "ESTARREJA",
      "lon": "-8.555147854425398",
      "lat": "40.7822933438951"
    }
  ]
}