{
  "data": {
    "distrito": "Aveiro",
    "concelho": "Estarreja",
    "freguesia": "Avanca",
    "OBJECTID": 213,
    "BGRI2021": "01080100104",
    "DT21": "01",
    "DTMN21": "0108",
    "DTMNFR21": "010801",
    "DTMNFRSEC21": "010801001",
    "SECNUM21": "001",
    "SSNUM21": "04",
    "SECSSNUM21": "00104",
    "OBJECTID_1": 4719,
    "DT": "01",
    "CC": "08",
    "fr": "01",
    "SEC": "001",
    "SS": "04"
  },
  "addresses": [
    {
      "id": "pt.ine.add.PTCONT.292823",
      "street": "R FONTELA",
      "house": "46",
      "postcode": "3860-065",
      "city": "AVANCA",
      "lon": "-8.593826253061883",
      "lat": "40.80271263567436"
    },
    {
      "id": "pt.ine.add.PTCONT.300942",
      "street": "R AREIA DE GONDE",
      "house": "67",
      "postcode": "3860-064",
      "city": "AVANCA",
      "lon": "-8.593914994932309",
      "lat": "40.803549737106096"
    },
    {
      "id": "pt.ine.add.PTCONT.335537",
      "street": "R CHOUSO",
      "house": "57",
      "postcode": "3860-034",
      "city": "AVANCA",
      "lon": "-8.59107303258724",
      "lat": "40.80213827746442"
    },
    {
      "id": "pt.ine.add.PTCONT.344834",
      "street": "R CHOUSO",
      "house": "55",
      "postcode": "3860-034",
      "city": "AVANCA",
      "lon": "-8.591145803305107",
      "lat": "40.802381120993445"
    },
    {
      "id": "pt.ine.add.PTCONT.56882",
      "street": "R CHOUSO",
      "house": "65",
      "postcode": "3860-034",
      "city": "AVANCA",
      "lon": "-8.59133094334899",
      "lat": "40.801732032868124"
    },
    {
      "id": "pt.ine.add.PTCONT.118770",
      "street": "R CHOUSO",
      "house": "51",
      "postcode": "3860-034",
      "city": "AVANCA",
      "lon": "-8.590944849491223",
      "lat": "40.80245395775794"
    },
    {
      "id": "pt.ine.add.PTCONT.121382",
      "street": "R AREIA GONDE",
      "house": "85",
      "postcode": "3860-064",
      "city": "AVANCA",
      "lon": "-8.593060106756965",
      "lat": "40.8033100157668"
    },
    {
      "id": "pt.ine.add.PTCONT.142734",
      "street": "TV CARLOS ALBERTO",
      "house": "73",
      "postcode": "3860-065",
      "city": "AVANCA",
      "lon": "-8.593805666304908",
      "lat": "40.80316296294452"
    },
    {
      "id": "pt.ine.add.PTCONT.187724",
      "street": "R CHOUSO",
      "house": "59",
      "postcode": "3860-034",
      "city": "AVANCA",
      "lon": "-8.59114345098133",
      "lat": "40.80203894401525"
    },
    {
      "id": "pt.ine.add.PTCONT.233659",
      "street": "R AREIA DE GONDE",
      "house": "57",
      "postcode": "3860-064",
      "city": "AVANCA",
      "lon": "-8.594568560964593",
      "lat": "40.80380826722568"
    },
    {
      "id": "pt.ine.add.PTCONT.282214",
      "street": "R AREIA DE GONDE",
      "house": "71",
      "postcode": "3860-064",
      "city": "AVANCA",
      "lon": "-8.593605210996452",
      "lat": "40.8033078415491"
    },
    {
      "id": "pt.ine.add.PTCONT.287636",
      "street": "TV CARLOS ALBERTO",
      "house": "75",
      "postcode": "3860-065",
      "city": "AVANCA",
      "lon": "-8.594030568361287",
      "lat": "40.803126045149234"
    }
  ]
}