{
  "data": {
    "distrito": "Vila Real",
    "concelho": "Chaves",
    "freguesia": "Faiões",
    "OBJECTID": 541,
    "BGRI2021": "17031300104",
    "DT21": "17",
    "DTMN21": "1703",
    "DTMNFR21": "170313",
    "DTMNFRSEC21": "170313001",
    "SECNUM21": "001",
    "SSNUM21": "04",
    "SECSSNUM21": "00104",
    "OBJECTID_1": 180942,
    "DT": "17",
    "CC": "03",
    "fr": "13",
    "SEC": "001",
    "SS": "04"
  },
  "addresses": [
    {
      "id": "pt.ine.add.PTCONT.5301168",
      "street": "R DO SOBREDO",
      "house": "",
      "postcode": "5400-632",
      "city": "FAIÕES",
      "lon": "-7.437098048251789",
      "lat": "41.74366135682176"
    },
    {
      "id": "pt.ine.add.PTCONT.5345284",
      "street": "R DOS ESPINHEIROS",
      "house": "5",
      "postcode": "5400-632",
      "city": "FAIÕES",
      "lon": "-7.439545554026789",
      "lat": "41.74300090226679"
    },
    {
      "id": "pt.ine.add.PTCONT.5354679",
      "street": "RECTA FAIOES",
      "house": "10",
      "postcode": "5400-632",
      "city": "FAIÕES",
      "lon": "-7.438470648799737",
      "lat": "41.74457900577503"
    },
    {
      "id": "pt.ine.add.PTCONT.5369057",
      "street": "R DOS ESPINHEIROS",
      "house": "3",
      "postcode": "5400-632",
      "city": "FAIÕES",
      "lon": "-7.439427870802255",
      "lat": "41.743882524303515"
    },
    {
      "id": "pt.ine.add.PTCONT.5377634",
      "street": "R DOS ESPINHEIROS",
      "house": "1",
      "postcode": "5400-632",
      "city": "FAIÕES",
      "lon": "-7.439177176670702",
      "lat": "41.744835369959745"
    },
    {
      "id": "pt.ine.add.PTCONT.5400194",
      "street": "R DE FAIÕES",
      "house": "10",
      "postcode": "5400-632",
      "city": "FAIÕES",
      "lon": "-7.438662015528208",
      "lat": "41.7446701964578"
    },
    {
      "id": "pt.ine.add.PTCONT.5425970",
      "street": "RECTA FAIOES",
      "house": "8",
      "postcode": "5400-632",
      "city": "FAIÕES",
      "lon": "-7.4389253153784525",
      "lat": "41.744779828222896"
    }
  ]
}