{
  "data": {
    "distrito": "Évora",
    "concelho": "Estremoz",
    "freguesia": "União das freguesias de Estremoz (Santa Maria e Santo André)",
    "OBJECTID": 200,
    "BGRI2021": "07041400728",
    "DT21": "07",
    "DTMN21": "0704",
    "DTMNFR21": "070414",
    "DTMNFRSEC21": "070414007",
    "SECNUM21": "007",
    "SSNUM21": "28",
    "SECSSNUM21": "00728",
    "OBJECTID_1": 59421,
    "DT": "07",
    "CC": "04",
    "fr": "14",
    "SEC": "007",
    "SS": "28"
  },
  "addresses": [
    {
      "id": "pt.ine.add.PTCONT.1369329",
      "street": "OUTEIRO DE STA BARBARA",
      "house": "3",
      "postcode": "7100-108",
      "city": "ESTREMOZ",
      "lon": "-7.579773103839493",
      "lat": "38.84203611864591"
    },
    {
      "id": "pt.ine.add.PTCONT.1391423",
      "street": "OUTEIRO SANTA BARBARA",
      "house": "3",
      "postcode": "7100-108",
      "city": "ESTREMOZ",
      "lon": "-7.5799842617932045",
      "lat": "38.84208425980228"
    },
    {
      "id": "pt.ine.add.PTCONT.1406122",
      "street": "ESTR S DOMINGOS",
      "house": "6",
      "postcode": "7100-108",
      "city": "ESTREMOZ",
      "lon": "-7.578811288616242",
      "lat": "38.842126199165044"
    },
    {
      "id": "pt.ine.add.PTCONT.1422400",
      "street": "ESTR S DOMINGOS",
      "house": "4",
      "postcode": "7100-108",
      "city": "ESTREMOZ",
      "lon": "-7.579880245140405",
      "lat": "38.8415985698196"
    },
    {
      "id": "pt.ine.add.PTCONT.1440725",
      "street": "ESTR S DOMINGOS JUNIO PONT",
      "house": "JUNIO PONT",
      "postcode": "7100-108",
      "city": "ESTREMOZ",
      "lon": "-7.580180894771099",
      "lat": "38.8414345198925"
    },
    {
      "id": "pt.ine.add.PTCONT.1445556",
      "street": "ESTR S DOMINGOS",
      "house": "5",
      "postcode": "7100-108",
      "city": "ESTREMOZ",
      "lon": "-7.5792507368578",
      "lat": "38.84193861317955"
    }
  ]
}