{
  "data": {
    "distrito": "Guarda",
    "concelho": "Seia",
    "freguesia": "Pinhanços",
    "OBJECTID": 116,
    "BGRI2021": "09120900107",
    "DT21": "09",
    "DTMN21": "0912",
    "DTMNFR21": "091209",
    "DTMNFRSEC21": "091209001",
    "SECNUM21": "001",
    "SSNUM21": "07",
    "SECSSNUM21": "00107",
    "OBJECTID_1": 81856,
    "DT": "09",
    "CC": "12",
    "fr": "09",
    "SEC": "001",
    "SS": "07"
  },
  "addresses": [
    {
      "id": "pt.ine.add.PTCONT.1904864",
      "street": "R DOS PESOS",
      "house": "1",
      "postcode": "6270-141",
      "city": "PINHANÇOS",
      "lon": "-7.693740480794893",
      "lat": "40.45891536666489"
    },
    {
      "id": "pt.ine.add.PTCONT.1929144",
      "street": "R DOS PESOS",
      "house": "",
      "postcode": "6270-141",
      "city": "PINHANÇOS",
      "lon": "-7.69332679480652",
      "lat": "40.45907589143264"
    },
    {
      "id": "pt.ine.add.PTCONT.1933280",
      "street": "CAM DA SENHORA DA LOMBA",
      "house": "",
      "postcode": "6270-141",
      "city": "PINHANÇOS",
      "lon": "-7.694857829986988",
      "lat": "40.46658323313441"
    },
    {
      "id": "pt.ine.add.PTCONT.1942511",
      "street": "AV DOS EMIGRANTES",
      "house": "36",
      "postcode": "6270-141",
      "city": "PINHANÇOS",
      "lon": "-7.69239201697204",
      "lat": "40.45959464671422"
    },
    {
      "id": "pt.ine.add.PTCONT.1961180",
      "street": "AV DOS EMIGRANTES",
      "house": "34",
      "postcode": "6270-141",
      "city": "PINHANÇOS",
      "lon": "-7.693524691192006",
      "lat": "40.45946387808267"
    },
    {
      "id": "pt.ine.add.PTCONT.1858426",
      "street": "CAM SRA LOMBA",
      "house": "CAIXA101",
      "postcode": "6270-141",
      "city": "PINHANÇOS",
      "lon": "-7.695281302660759",
      "lat": "40.46673793023207"
    },
    {
      "id": "pt.ine.add.PTCONT.1897814",
      "street": "CAM DA SENHORA DA LOMBA",
      "house": "",
      "postcode": "6270-141",
      "city": "PINHANÇOS",
      "lon": "-7.695069887853388",
      "lat": "40.46661105323852"
    }
  ]
}