{
  "data": {
    "ilha": "Ilha da Madeira (Madeira)",
    "concelho": "Ribeira Brava",
    "freguesia": "Ribeira Brava",
    "OBJECTID": 11,
    "BGRI2021": "31070200605",
    "DT21": "31",
    "DTMN21": "3107",
    "DTMNFR21": "310702",
    "DTMNFRSEC21": "310702006",
    "SECNUM21": "006",
    "SSNUM21": "05",
    "SECSSNUM21": "00605",
    "OBJECTID_1": 204796,
    "DT": "31",
    "CC": "07",
    "fr": "02",
    "SEC": "006",
    "SS": "05",
    "BGRI2021_1": "31070200605"
  },
  "addresses": [
    {
      "id": "pt.ine.add.MAD.37670",
      "street": "R VISCONDE",
      "house": "50",
      "postcode": "9350-213",
      "city": "RIBEIRA BRAVA",
      "lon": "-17.064126016786382",
      "lat": "32.67105001469425"
    },
    {
      "id": "pt.ine.add.MAD.37671",
      "street": "R VISCONDE",
      "house": "50",
      "postcode": "9350-213",
      "city": "RIBEIRA BRAVA",
      "lon": "-17.064126016786382",
      "lat": "32.67105001469425"
    },
    {
      "id": "pt.ine.add.MAD.38441",
      "street": "R VISCONDE",
      "house": "50",
      "postcode": "9350-213",
      "city": "RIBEIRA BRAVA",
      "lon": "-17.064126016786382",
      "lat": "32.67105001469425"
    },
    {
      "id": "pt.ine.add.MAD.38442",
      "street": "R VISCONDE",
      "house": "50",
      "postcode": "9350-213",
      "city": "RIBEIRA BRAVA",
      "lon": "-17.064126016786382",
      "lat": "32.67105001469425"
    },
    {
      "id": "pt.ine.add.MAD.38443",
      "street": "R VISCONDE",
      "house": "50",
      "postcode": "9350-213",
      "city": "RIBEIRA BRAVA",
      "lon": "-17.064126016786382",
      "lat": "32.67105001469425"
    },
    {
      "id": "pt.ine.add.MAD.38444",
      "street": "R VISCONDE",
      "house": "112",
      "postcode": "9350-213",
      "city": "RIBEIRA BRAVA",
      "lon": "-17.063751764408877",
      "lat": "32.6719309568467"
    },
    {
      "id": "pt.ine.add.MAD.62372",
      "street": "R VISCONDE",
      "house": "",
      "postcode": "9350-213",
      "city": "RIBEIRA BRAVA",
      "lon": "-17.064252052087344",
      "lat": "32.670966775093916"
    },
    {
      "id": "pt.ine.add.MAD.78582",
      "street": "TV D INACIA",
      "house": "4",
      "postcode": "9350-224",
      "city": "RIBEIRA BRAVA",
      "lon": "-17.06365625179413",
      "lat": "32.67195056506493"
    },
    {
      "id": "pt.ine.add.MAD.95123",
      "street": "R 5 DE OUTUBRO",
      "house": "4",
      "postcode": "9350-207",
      "city": "RIBEIRA BRAVA",
      "lon": "-17.063986751176923",
      "lat": "32.67148518918033"
    },
    {
      "id": "pt.ine.add.MAD.99202",
      "street": "R VISCONDE",
      "house": "50",
      "postcode": "9350-213",
      "city": "RIBEIRA BRAVA",
      "lon": "-17.064126016786382",
      "lat": "32.67105001469425"
    },
    {
      "id": "pt.ine.add.MAD.121646",
      "street": "R PADRE MANUEL ÁLVARES",
      "house": "2",
      "postcode": "9350-222",
      "city": "RIBEIRA BRAVA",
      "lon": "-17.063594995462267",
      "lat": "32.67206881195742"
    },
    {
      "id": "pt.ine.add.MAD.121778",
      "street": "R PADRE MANUEL ÁLVARES",
      "house": "8",
      "postcode": "9350-222",
      "city": "RIBEIRA BRAVA",
      "lon": "-17.063517068192933",
      "lat": "32.671925799692545"
    }
  ]
}