{
  "data": {
    "distrito": "Beja",
    "concelho": "Castro Verde",
    "freguesia": "União das freguesias de Castro Verde e Casével",
    "OBJECTID": 281,
    "BGRI2021": "02060600115",
    "DT21": "02",
    "DTMN21": "0206",
    "DTMNFR21": "020606",
    "DTMNFRSEC21": "020606001",
    "SECNUM21": "001",
    "SSNUM21": "15",
    "SECSSNUM21": "00115",
    "OBJECTID_1": 14440,
    "DT": "02",
    "CC": "06",
    "fr": "06",
    "SEC": "001",
    "SS": "15"
  },
  "addresses": [
    {
      "id": "pt.ine.add.PTCONT.357700",
      "street": "PC DA REPUBLICA",
      "house": "12",
      "postcode": "7780-135",
      "city": "CASTRO VERDE",
      "lon": "-8.08495067101103",
      "lat": "37.69963293066842"
    },
    {
      "id": "pt.ine.add.PTCONT.372835",
      "street": "R D AFONSO HENRIQUES",
      "house": "12",
      "postcode": "7780-183",
      "city": "CASTRO VERDE",
      "lon": "-8.084486075067812",
      "lat": "37.69915522298312"
    },
    {
      "id": "pt.ine.add.PTCONT.378468",
      "street": "R D AFONSO HENRIQUES",
      "house": "14",
      "postcode": "7780-183",
      "city": "CASTRO VERDE",
      "lon": "-8.084338731142264",
      "lat": "37.69905605482287"
    },
    {
      "id": "pt.ine.add.PTCONT.381683",
      "street": "R D AFONSO HENRIQUES",
      "house": "10",
      "postcode": "7780-183",
      "city": "CASTRO VERDE",
      "lon": "-8.08459616783189",
      "lat": "37.6992476516578"
    },
    {
      "id": "pt.ine.add.PTCONT.393908",
      "street": "R SANCHES DE MIRANDA",
      "house": "16",
      "postcode": "7780-204",
      "city": "CASTRO VERDE",
      "lon": "-8.085007489335291",
      "lat": "37.69944374900284"
    },
    {
      "id": "pt.ine.add.PTCONT.413512",
      "street": "R SANCHES MIRANDA",
      "house": "4",
      "postcode": "7780-204",
      "city": "CASTRO VERDE",
      "lon": "-8.084542900083983",
      "lat": "37.69895703177309"
    },
    {
      "id": "pt.ine.add.PTCONT.414105",
      "street": "R SANCHES MIRANDA",
      "house": "12",
      "postcode": "7780-204",
      "city": "CASTRO VERDE",
      "lon": "-8.084894214172603",
      "lat": "37.69926350763464"
    },
    {
      "id": "pt.ine.add.PTCONT.425276",
      "street": "PC DA REPUBLICA",
      "house": "15",
      "postcode": "7780-135",
      "city": "CASTRO VERDE",
      "lon": "-8.085154689830551",
      "lat": "37.69976816013542"
    },
    {
      "id": "pt.ine.add.PTCONT.437667",
      "street": "R D AFONSO HENRIQUES",
      "house": "",
      "postcode": "7780-183",
      "city": "CASTRO VERDE",
      "lon": "-8.08466510667247",
      "lat": "37.699332803267765"
    },
    {
      "id": "pt.ine.add.PTCONT.442493",
      "street": "R D AFONSO HENRIQUES",
      "house": "8",
      "postcode": "7780-183",
      "city": "CASTRO VERDE",
      "lon": "-8.084769348872326",
      "lat": "37.699470680886485"
    }
  ]
}