{
  "data": {
    "distrito": "Leiria",
    "concelho": "Batalha",
    "freguesia": "Reguengo do Fetal",
    "OBJECTID": 17,
    "BGRI2021": "10040200120",
    "DT21": "10",
    "DTMN21": "1004",
    "DTMNFR21": "100402",
    "DTMNFRSEC21": "100402001",
    "SECNUM21": "001",
    "SSNUM21": "20",
    "SECSSNUM21": "00120",
    "OBJECTID_1": 86796,
    "DT": "10",
    "CC": "04",
    "fr": "02",
    "SEC": "001",
    "SS": "20"
  },
  "addresses": [
    {
      "id": "pt.ine.add.PTCONT.2006731",
      "street": "LG PRAÇA DA FONTE",
      "house": "59",
      "postcode": "2440-208",
      "city": "REGUENGO DO FETAL",
      "lon": "-8.763122796287181",
      "lat": "39.64003403785888"
    },
    {
      "id": "pt.ine.add.PTCONT.2049981",
      "street": "LG PROF JOAQUIM LUIS RIBEIRO",
      "house": "",
      "postcode": "2440-208",
      "city": "REGUENGO DO FETAL",
      "lon": "-8.763042398613806",
      "lat": "39.64016056708608"
    },
    {
      "id": "pt.ine.add.PTCONT.2065511",
      "street": "LG PRAÇA DA FONTE",
      "house": "55",
      "postcode": "2440-208",
      "city": "REGUENGO DO FETAL",
      "lon": "-8.76335601749894",
      "lat": "39.64005979265616"
    },
    {
      "id": "pt.ine.add.PTCONT.2065512",
      "street": "LG PRAÇA DA FONTE",
      "house": "55",
      "postcode": "2440-208",
      "city": "REGUENGO DO FETAL",
      "lon": "-8.76335601749894",
      "lat": "39.64005979265616"
    },
    {
      "id": "pt.ine.add.PTCONT.2146623",
      "street": "R GOA DAMÃO E DIU",
      "house": "1",
      "postcode": "2440-208",
      "city": "REGUENGO DO FETAL",
      "lon": "-8.763089565897442",
      "lat": "39.6402233578812"
    },
    {
      "id": "pt.ine.add.PTCONT.2177008",
      "street": "LG PRAÇA DA FONTE",
      "house": "61",
      "postcode": "2440-208",
      "city": "REGUENGO DO FETAL",
      "lon": "-8.763030014430841",
      "lat": "39.64007957433432"
    },
    {
      "id": "pt.ine.add.PTCONT.2204277",
      "street": "TV 14 DE AGOSANTO DE 1385",
      "house": "",
      "postcode": "2440-208",
      "city": "REGUENGO DO FETAL",
      "lon": "-8.763345349669684",
      "lat": "39.640167930417945"
    },
    {
      "id": "pt.ine.add.PTCONT.2262302",
      "street": "LG PRAÇA DA FONTE",
      "house": "57",
      "postcode": "2440-208",
      "city": "REGUENGO DO FETAL",
      "lon": "-8.763216395329383",
      "lat": "39.64007856344551"
    }
  ]
}