{
  "data": {
    "distrito": "Beja",
    "concelho": "Ourique",
    "freguesia": "Ourique",
    "OBJECTID": 304,
    "BGRI2021": "02120300128",
    "DT21": "02",
    "DTMN21": "0212",
    "DTMNFR21": "021203",
    "DTMNFRSEC21": "021203001",
    "SECNUM21": "001",
    "SSNUM21": "28",
    "SECSSNUM21": "00128",
    "OBJECTID_1": 18392,
    "DT": "02",
    "CC": "12",
    "fr": "03",
    "SEC": "001",
    "SS": "28"
  },
  "addresses": [
    {
      "id": "pt.ine.add.PTCONT.358644",
      "street": "MTE BAIXINHA",
      "house": "",
      "postcode": "7670-202",
      "city": "OURIQUE",
      "lon": "-8.249040689684547",
      "lat": "37.606970622841104"
    },
    {
      "id": "pt.ine.add.PTCONT.402948",
      "street": "MTE PONTALINHO",
      "house": "",
      "postcode": "7670-202",
      "city": "OURIQUE",
      "lon": "-8.249770183180567",
      "lat": "37.60660362119002"
    },
    {
      "id": "pt.ine.add.PTCONT.415039",
      "street": "R PADRE JOSE AZEVEDO",
      "house": "6",
      "postcode": "7670-202",
      "city": "OURIQUE",
      "lon": "-8.250195115097446",
      "lat": "37.6045490128105"
    },
    {
      "id": "pt.ine.add.PTCONT.417455",
      "street": "EN 264 MONTE DO PONTALINHO",
      "house": "",
      "postcode": "7670-202",
      "city": "OURIQUE",
      "lon": "-8.2488051853688",
      "lat": "37.60649652091299"
    },
    {
      "id": "pt.ine.add.PTCONT.421500",
      "street": "EN 264 MONTE DA SAIXINHA",
      "house": "",
      "postcode": "7670-202",
      "city": "OURIQUE",
      "lon": "-8.24894144482",
      "lat": "37.60699588041714"
    },
    {
      "id": "pt.ine.add.PTCONT.426225",
      "street": "MTE NOVO PONTALINHO",
      "house": "",
      "postcode": "7670-202",
      "city": "OURIQUE",
      "lon": "-8.249081189793532",
      "lat": "37.60704595080268"
    },
    {
      "id": "pt.ine.add.PTCONT.427125",
      "street": "R PADRE JOSE AZEVEDO",
      "house": "8",
      "postcode": "7670-202",
      "city": "OURIQUE",
      "lon": "-8.250453461442168",
      "lat": "37.60437969091949"
    },
    {
      "id": "pt.ine.add.PTCONT.432431",
      "street": "MTE NOVO PORTELA DA MO",
      "house": "",
      "postcode": "7670-202",
      "city": "OURIQUE",
      "lon": "-8.249451905624214",
      "lat": "37.60726172603924"
    },
    {
      "id": "pt.ine.add.PTCONT.432865",
      "street": "MTE NOVO PORTELA DA MO",
      "house": "",
      "postcode": "7670-202",
      "city": "OURIQUE",
      "lon": "-8.249451905624214",
      "lat": "37.60726172603924"
    },
    {
      "id": "pt.ine.add.PTCONT.436235",
      "street": "VIVENDA ALVES",
      "house": "",
      "postcode": "7670-202",
      "city": "OURIQUE",
      "lon": "-8.24829885143361",
      "lat": "37.608632360613086"
    }
  ]
}