{
  "data": {
    "distrito": "Faro",
    "concelho": "Lagos",
    "freguesia": "São Gonçalo de Lagos",
    "OBJECTID": 46,
    "BGRI2021": "08070802801",
    "DT21": "08",
    "DTMN21": "0807",
    "DTMNFR21": "080708",
    "DTMNFRSEC21": "080708028",
    "SECNUM21": "028",
    "SSNUM21": "01",
    "SECSSNUM21": "02801",
    "OBJECTID_1": 67602,
    "DT": "08",
    "CC": "07",
    "fr": "08",
    "SEC": "028",
    "SS": "01"
  },
  "addresses": [
    {
      "id": "pt.ine.add.PTCONT.1503860",
      "street": "R GEN ALBERTO DA SILVEIRA",
      "house": "35",
      "postcode": "8600-594",
      "city": "LAGOS",
      "lon": "-8.670562118787016",
      "lat": "37.09861483646414"
    },
    {
      "id": "pt.ine.add.PTCONT.1542923",
      "street": "R MIGUEL BOMBARDA",
      "house": "39",
      "postcode": "8600-608",
      "city": "LAGOS",
      "lon": "-8.670214114026598",
      "lat": "37.09871552945912"
    },
    {
      "id": "pt.ine.add.PTCONT.1583590",
      "street": "R JARDIM",
      "house": "19",
      "postcode": "8600-565",
      "city": "LAGOS",
      "lon": "-8.670733839122123",
      "lat": "37.09903755456524"
    },
    {
      "id": "pt.ine.add.PTCONT.1624323",
      "street": "R MIGUEL BOMBARDA A A DOS CONDE REIS",
      "house": "38",
      "postcode": "8600-608",
      "city": "LAGOS",
      "lon": "-8.670281223610747",
      "lat": "37.09866116208133"
    },
    {
      "id": "pt.ine.add.PTCONT.1687396",
      "street": "R DR JULIO DANTAS",
      "house": "27",
      "postcode": "8600-585",
      "city": "LAGOS",
      "lon": "-8.670619379901956",
      "lat": "37.09875874595584"
    },
    {
      "id": "pt.ine.add.PTCONT.1727475",
      "street": "TV COROA",
      "house": "2",
      "postcode": "8600-628",
      "city": "LAGOS",
      "lon": "-8.670610422882108",
      "lat": "37.09908316687275"
    },
    {
      "id": "pt.ine.add.PTCONT.1727476",
      "street": "R MIGUEL BOMBARDA",
      "house": "32",
      "postcode": "8600-608",
      "city": "LAGOS",
      "lon": "-8.670169247048308",
      "lat": "37.09873375380325"
    },
    {
      "id": "pt.ine.add.PTCONT.1730329",
      "street": "R MIGUEL BOMBARDA",
      "house": "42",
      "postcode": "8600-608",
      "city": "LAGOS",
      "lon": "-8.670382015059054",
      "lat": "37.09859763149717"
    },
    {
      "id": "pt.ine.add.PTCONT.1775509",
      "street": "R GEN ALBERTO DA SILVEIRA",
      "house": "31",
      "postcode": "8600-594",
      "city": "LAGOS",
      "lon": "-8.670641240433483",
      "lat": "37.09866854121638"
    },
    {
      "id": "pt.ine.add.PTCONT.1778601",
      "street": "R MIGUEL BOMBARDA",
      "house": "44",
      "postcode": "8600-608",
      "city": "LAGOS",
      "lon": "-8.67048267906316",
      "lat": "37.09851608027483"
    },
    {
      "id": "pt.ine.add.PTCONT.1787559",
      "street": "R MIGUEL BOMBARDA",
      "house": "36",
      "postcode": "8600-608",
      "city": "LAGOS",
      "lon": "-8.67025904459489",
      "lat": "37.0987063153748"
    },
    {
      "id": "pt.ine.add.PTCONT.1816586",
      "street": "R MIGUEL BOMBARDA",
      "house": "40",
      "postcode": "8600-608",
      "city": "LAGOS",
      "lon": "-8.670337339053194",
      "lat": "37.09864288673428"
    }
  ]
}