{
  "data": {
    "ilha": "Ilha da Graciosa (Açores)",
    "concelho": "Santa Cruz da Graciosa",
    "freguesia": "São Mateus",
    "OBJECTID": 74,
    "BGRI2021": "44010300119",
    "DT21": "44",
    "DTMN21": "4401",
    "DTMNFR21": "440103",
    "DTMNFRSEC21": "440103001",
    "SECNUM21": "001",
    "SSNUM21": "19",
    "SECSSNUM21": "00119",
    "OBJECTID_1": 208786,
    "DT": "44",
    "CC": "01",
    "fr": "03",
    "SEC": "001",
    "SS": "19",
    "BGRI2021_1": "44010300119"
  },
  "addresses": [
    {
      "id": "pt.ine.add.AC26.6123",
      "street": "ESTR TRAZ DOS POMARES",
      "house": "9",
      "postcode": "9880-285",
      "city": "SÃO MATEUS SCG",
      "lon": "-27.985817331315932",
      "lat": "39.043696669119974"
    },
    {
      "id": "pt.ine.add.AC26.6124",
      "street": "ESTR TRAZ DOS POMARES",
      "house": "13",
      "postcode": "9880-285",
      "city": "SÃO MATEUS SCG",
      "lon": "-27.986392642416494",
      "lat": "39.04352059558274"
    },
    {
      "id": "pt.ine.add.AC26.7007",
      "street": "ESTR TRAZ DOS POMARES",
      "house": "",
      "postcode": "9880-285",
      "city": "SÃO MATEUS SCG",
      "lon": "-27.98891399887008",
      "lat": "39.04120143584518"
    },
    {
      "id": "pt.ine.add.AC26.7008",
      "street": "TV CALÇADA",
      "house": "15",
      "postcode": "9880-285",
      "city": "SÃO MATEUS SCG",
      "lon": "-27.990051105793505",
      "lat": "39.0398851917515"
    },
    {
      "id": "pt.ine.add.AC26.8720",
      "street": "ESTR FEITEIRA",
      "house": "27",
      "postcode": "9880-204",
      "city": "SÃO MATEUS SCG",
      "lon": "-28.002245056354017",
      "lat": "39.046701492775846"
    },
    {
      "id": "pt.ine.add.AC26.8721",
      "street": "ESTR FEITEIRA",
      "house": "15",
      "postcode": "9880-204",
      "city": "SÃO MATEUS SCG",
      "lon": "-28.002610806972754",
      "lat": "39.04559900730672"
    },
    {
      "id": "pt.ine.add.AC26.8727",
      "street": "LG PEDRAS BRANCAS",
      "house": "35",
      "postcode": "9880-224",
      "city": "SÃO MATEUS SCG",
      "lon": "-27.993365375728306",
      "lat": "39.03809986298071"
    },
    {
      "id": "pt.ine.add.AC26.8728",
      "street": "PEDRAS BRANCAS",
      "house": "23",
      "postcode": "9880-224",
      "city": "SÃO MATEUS SCG",
      "lon": "-27.992937287736",
      "lat": "39.03805845316492"
    },
    {
      "id": "pt.ine.add.AC26.8729",
      "street": "R CALÇADA",
      "house": "19",
      "postcode": "9880-239",
      "city": "SÃO MATEUS SCG",
      "lon": "-27.99218786153014",
      "lat": "39.038172963094645"
    },
    {
      "id": "pt.ine.add.AC26.10466",
      "street": "ESTR FEITEIRA",
      "house": "3",
      "postcode": "9880-204",
      "city": "SÃO MATEUS SCG",
      "lon": "-27.998893717573132",
      "lat": "39.04176518260497"
    },
    {
      "id": "pt.ine.add.AC26.12993",
      "street": "CAM JARDIM",
      "house": "5",
      "postcode": "9880-280",
      "city": "SÃO MATEUS SCG",
      "lon": "-27.977600891354488",
      "lat": "39.052028926040286"
    },
    {
      "id": "pt.ine.add.AC26.48330",
      "street": "ESTR FEITEIRA",
      "house": "29",
      "postcode": "9880-204",
      "city": "SÃO MATEUS SCG",
      "lon": "-28.00214412363779",
      "lat": "39.046918624050996"
    },
    {
      "id": "pt.ine.add.AC26.51681",
      "street": "PEDRAS BRANCAS",
      "house": "21",
      "postcode": "9880-224",
      "city": "SÃO MATEUS SCG",
      "lon": "-27.992659009565422",
      "lat": "39.037988733794386"
    },
    {
      "id": "pt.ine.add.AC26.57462",
      "street": "CAN RAMOS",
      "house": "7",
      "postcode": "9880-222",
      "city": "SÃO MATEUS SCG",
      "lon": "-27.985811037310928",
      "lat": "39.04407518477306"
    },
    {
      "id": "pt.ine.add.AC26.64558",
      "street": "CAM PINHEIRO",
      "house": "3",
      "postcode": "9880-247",
      "city": "SÃO MATEUS SCG",
      "lon": "-27.977393766684603",
      "lat": "39.052093739144105"
    },
    {
      "id": "pt.ine.add.AC26.68007",
      "street": "ESTR FEITEIRA",
      "house": "5",
      "postcode": "9880-204",
      "city": "SÃO MATEUS SCG",
      "lon": "-28.002682858351555",
      "lat": "39.04415662792655"
    },
    {
      "id": "pt.ine.add.AC26.70292",
      "street": "ESTR FEITEIRA",
      "house": "21",
      "postcode": "9880-204",
      "city": "SÃO MATEUS SCG",
      "lon": "-28.002398792884104",
      "lat": "39.046132478659786"
    },
    {
      "id": "pt.ine.add.AC26.77793",
      "street": "ESTR TRAZ DOS POMARES",
      "house": "11",
      "postcode": "9880-285",
      "city": "SÃO MATEUS SCG",
      "lon": "-27.985952470358225",
      "lat": "39.04344321844415"
    },
    {
      "id": "pt.ine.add.AC26.77802",
      "street": "ESTR FEITEIRA",
      "house": "1",
      "postcode": "9880-204",
      "city": "SÃO MATEUS SCG",
      "lon": "-27.994811581305456",
      "lat": "39.03906072607991"
    },
    {
      "id": "pt.ine.add.AC26.89017",
      "street": "CAN RAMOS",
      "house": "7 A",
      "postcode": "9880-222",
      "city": "SÃO MATEUS SCG",
      "lon": "-27.985632367495793",
      "lat": "39.04618527097133"
    },
    {
      "id": "pt.ine.add.AC26.106943",
      "street": "CAN CANCELA",
      "house": "15A",
      "postcode": "9880-215",
      "city": "SÃO MATEUS SCG",
      "lon": "-27.98034648866245",
      "lat": "39.05000543548334"
    }
  ]
}