{
  "data": {
    "distrito": "Bragança",
    "concelho": "Miranda do Douro",
    "freguesia": "Póvoa",
    "OBJECTID": 54,
    "BGRI2021": "04061200106",
    "DT21": "04",
    "DTMN21": "0406",
    "DTMNFR21": "040612",
    "DTMNFRSEC21": "040612001",
    "SECNUM21": "001",
    "SSNUM21": "06",
    "SECSSNUM21": "00106",
    "OBJECTID_1": 36476,
    "DT": "04",
    "CC": "06",
    "fr": "12",
    "SEC": "001",
    "SS": "06"
  },
  "addresses": [
    {
      "id": "pt.ine.add.PTCONT.855764",
      "street": "R DO CANO",
      "house": "",
      "postcode": "5210-284",
      "city": "PÓVOA",
      "lon": "-6.313892725806609",
      "lat": "41.57083212340842"
    },
    {
      "id": "pt.ine.add.PTCONT.856648",
      "street": "LG DAS LASTRAS",
      "house": "159",
      "postcode": "5210-282",
      "city": "PÓVOA",
      "lon": "-6.314481320823724",
      "lat": "41.570364268431284"
    },
    {
      "id": "pt.ine.add.PTCONT.886656",
      "street": "TV DAS LASTRAS",
      "house": "153",
      "postcode": "5210-282",
      "city": "PÓVOA",
      "lon": "-6.314704968842139",
      "lat": "41.570511857756216"
    },
    {
      "id": "pt.ine.add.PTCONT.899847",
      "street": "R DO CANO",
      "house": "149",
      "postcode": "5210-284",
      "city": "PÓVOA",
      "lon": "-6.314261692821534",
      "lat": "41.57092799430255"
    },
    {
      "id": "pt.ine.add.PTCONT.901913",
      "street": "LG DAS LASTRAS",
      "house": "",
      "postcode": "5210-282",
      "city": "PÓVOA",
      "lon": "-6.314655519881355",
      "lat": "41.570565094616825"
    },
    {
      "id": "pt.ine.add.PTCONT.912073",
      "street": "R PRINCIPAL",
      "house": "151",
      "postcode": "5210-292",
      "city": "PÓVOA",
      "lon": "-6.314474134337806",
      "lat": "41.57019309410599"
    },
    {
      "id": "pt.ine.add.PTCONT.914753",
      "street": "R DO CANO",
      "house": "148",
      "postcode": "5210-284",
      "city": "PÓVOA",
      "lon": "-6.3139875845367985",
      "lat": "41.5708696374435"
    },
    {
      "id": "pt.ine.add.PTCONT.919589",
      "street": "R DAS LASTRAS",
      "house": "158",
      "postcode": "5210-282",
      "city": "PÓVOA",
      "lon": "-6.314591057704202",
      "lat": "41.57072613221788"
    },
    {
      "id": "pt.ine.add.PTCONT.934682",
      "street": "LG DAS LASTRAS",
      "house": "",
      "postcode": "5210-282",
      "city": "PÓVOA",
      "lon": "-6.314164951142149",
      "lat": "41.57053032310183"
    }
  ]
}