{
  "data": {
    "ilha": "Ilha da Madeira (Madeira)",
    "concelho": "Câmara de Lobos",
    "freguesia": "Câmara de Lobos",
    "OBJECTID": 35,
    "BGRI2021": "31020100602",
    "DT21": "31",
    "DTMN21": "3102",
    "DTMNFR21": "310201",
    "DTMNFRSEC21": "310201006",
    "SECNUM21": "006",
    "SSNUM21": "02",
    "SECSSNUM21": "00602",
    "OBJECTID_1": 203487,
    "DT": "31",
    "CC": "02",
    "fr": "01",
    "SEC": "006",
    "SS": "02",
    "BGRI2021_1": "31020100602"
  },
  "addresses": [
    {
      "id": "pt.ine.add.MAD.1254",
      "street": "TV QUINTINHA",
      "house": "23",
      "postcode": "9300-137",
      "city": "CÂMARA DE LOBOS",
      "lon": "-16.974306240870504",
      "lat": "32.66000512675428"
    },
    {
      "id": "pt.ine.add.MAD.1255",
      "street": "TV QUINTINHA",
      "house": "21",
      "postcode": "9300-137",
      "city": "CÂMARA DE LOBOS",
      "lon": "-16.974003065987805",
      "lat": "32.65979345045045"
    },
    {
      "id": "pt.ine.add.MAD.1256",
      "street": "ESTR JOÃO GONÇALVES ZARCO JARDINS DO SUL",
      "house": "478 AA",
      "postcode": "9300-167",
      "city": "CÂMARA DE LOBOS",
      "lon": "-16.973911857413768",
      "lat": "32.659524326964856"
    },
    {
      "id": "pt.ine.add.MAD.1257",
      "street": "ESTR JOÃO GONÇALVES ZARCO JARDINS DO SUL",
      "house": "478 AA",
      "postcode": "9300-167",
      "city": "CÂMARA DE LOBOS",
      "lon": "-16.973911857413768",
      "lat": "32.659524326964856"
    },
    {
      "id": "pt.ine.add.MAD.1258",
      "street": "ESTR JOÃO GONÇALVES ZARCO JARDINS DO SUL",
      "house": "478 AA",
      "postcode": "9300-167",
      "city": "CÂMARA DE LOBOS",
      "lon": "-16.973911857413768",
      "lat": "32.659524326964856"
    },
    {
      "id": "pt.ine.add.MAD.1259",
      "street": "ESTR JOÃO GONÇALVES ZARCO JARDINS DO SUL",
      "house": "478 AA",
      "postcode": "9300-167",
      "city": "CÂMARA DE LOBOS",
      "lon": "-16.973911857413768",
      "lat": "32.659524326964856"
    },
    {
      "id": "pt.ine.add.MAD.1260",
      "street": "ESTR JOÃO GONÇALVES ZARCO JARDINS DO SUL",
      "house": "478 AA",
      "postcode": "9300-167",
      "city": "CÂMARA DE LOBOS",
      "lon": "-16.973911857413768",
      "lat": "32.659524326964856"
    },
    {
      "id": "pt.ine.add.MAD.1261",
      "street": "ESTR JOÃO GONÇALVES ZARCO JARDINS DO SUL",
      "house": "478 AA",
      "postcode": "9300-167",
      "city": "CÂMARA DE LOBOS",
      "lon": "-16.973911857413768",
      "lat": "32.659524326964856"
    },
    {
      "id": "pt.ine.add.MAD.1262",
      "street": "ESTR JOÃO GONÇALVES ZARCO JARDINS DO SUL",
      "house": "478 AA",
      "postcode": "9300-167",
      "city": "CÂMARA DE LOBOS",
      "lon": "-16.973911857413768",
      "lat": "32.659524326964856"
    },
    {
      "id": "pt.ine.add.MAD.1263",
      "street": "ESTR JOÃO GONÇALVES ZARCO",
      "house": "478AA",
      "postcode": "9300-167",
      "city": "CÂMARA DE LOBOS",
      "lon": "-16.973759874666296",
      "lat": "32.65940045737936"
    },
    {
      "id": "pt.ine.add.MAD.2039",
      "street": "ESTR JOÃO GONÇALVES ZARCO",
      "house": "478AA",
      "postcode": "9300-167",
      "city": "CÂMARA DE LOBOS",
      "lon": "-16.973759874666296",
      "lat": "32.65940045737936"
    },
    {
      "id": "pt.ine.add.MAD.2040",
      "street": "ESTR JOÃO GONÇALVES ZARCO",
      "house": "478AA",
      "postcode": "9300-167",
      "city": "CÂMARA DE LOBOS",
      "lon": "-16.973759874666296",
      "lat": "32.65940045737936"
    },
    {
      "id": "pt.ine.add.MAD.2041",
      "street": "ESTR JOÃO GONÇALVES ZARCO",
      "house": "478AA",
      "postcode": "9300-167",
      "city": "CÂMARA DE LOBOS",
      "lon": "-16.973759874666296",
      "lat": "32.65940045737936"
    },
    {
      "id": "pt.ine.add.MAD.2042",
      "street": "ESTR JOÃO GONÇALVES ZARCO",
      "house": "478AA",
      "postcode": "9300-167",
      "city": "CÂMARA DE LOBOS",
      "lon": "-16.973759874666296",
      "lat": "32.65940045737936"
    },
    {
      "id": "pt.ine.add.MAD.2043",
      "street": "ESTR JOÃO GONÇALVES ZARCO",
      "house": "478AA",
      "postcode": "9300-167",
      "city": "CÂMARA DE LOBOS",
      "lon": "-16.973759874666296",
      "lat": "32.65940045737936"
    },
    {
      "id": "pt.ine.add.MAD.2044",
      "street": "ESTR JOÃO GONÇALVES ZARCO",
      "house": "478AA",
      "postcode": "9300-167",
      "city": "CÂMARA DE LOBOS",
      "lon": "-16.973759874666296",
      "lat": "32.65940045737936"
    },
    {
      "id": "pt.ine.add.MAD.2045",
      "street": "ESTR JOÃO GONÇALVES ZARCO",
      "house": "478AA",
      "postcode": "9300-167",
      "city": "CÂMARA DE LOBOS",
      "lon": "-16.973759874666296",
      "lat": "32.65940045737936"
    },
    {
      "id": "pt.ine.add.MAD.2046",
      "street": "ESTR JOÃO GONÇALVES ZARCO",
      "house": "478AA",
      "postcode": "9300-167",
      "city": "CÂMARA DE LOBOS",
      "lon": "-16.973759874666296",
      "lat": "32.65940045737936"
    },
    {
      "id": "pt.ine.add.MAD.2047",
      "street": "ESTR JOÃO GONÇALVES ZARCO",
      "house": "478AA",
      "postcode": "9300-167",
      "city": "CÂMARA DE LOBOS",
      "lon": "-16.973759874666296",
      "lat": "32.65940045737936"
    },
    {
      "id": "pt.ine.add.MAD.2048",
      "street": "CAM S JOAO",
      "house": "4",
      "postcode": "9300-150",
      "city": "CÂMARA DE LOBOS",
      "lon": "-16.972645690501928",
      "lat": "32.65866943505442"
    },
    {
      "id": "pt.ine.add.MAD.2049",
      "street": "CAM S JOÃO",
      "house": "1",
      "postcode": "9300-150",
      "city": "CÂMARA DE LOBOS",
      "lon": "-16.973173419268726",
      "lat": "32.65842665246366"
    },
    {
      "id": "pt.ine.add.MAD.2835",
      "street": "ESTR JOÃO GONÇALVES ZARCO",
      "house": "464",
      "postcode": "9300-167",
      "city": "CÂMARA DE LOBOS",
      "lon": "-16.973334868178267",
      "lat": "32.6584962622279"
    },
    {
      "id": "pt.ine.add.MAD.2836",
      "street": "ESTR JOÃO GONÇALVES ZARCO",
      "house": "472",
      "postcode": "9300-167",
      "city": "CÂMARA DE LOBOS",
      "lon": "-16.975088065992058",
      "lat": "32.6587121779337"
    },
    {
      "id": "pt.ine.add.MAD.2837",
      "street": "ESTR JOÃO GONÇALVES ZARCO",
      "house": "472",
      "postcode": "9300-167",
      "city": "CÂMARA DE LOBOS",
      "lon": "-16.975088065992058",
      "lat": "32.6587121779337"
    },
    {
      "id": "pt.ine.add.MAD.2838",
      "street": "ESTR JOÃO GONÇALVES ZARCO",
      "house": "472",
      "postcode": "9300-167",
      "city": "CÂMARA DE LOBOS",
      "lon": "-16.975088065992058",
      "lat": "32.6587121779337"
    },
    {
      "id": "pt.ine.add.MAD.2839",
      "street": "ESTR JOÃO GONÇALVES ZARCO",
      "house": "472",
      "postcode": "9300-167",
      "city": "CÂMARA DE LOBOS",
      "lon": "-16.975088065992058",
      "lat": "32.6587121779337"
    },
    {
      "id": "pt.ine.add.MAD.2840",
      "street": "ESTR JOÃO GONÇALVES ZARCO",
      "house": "472",
      "postcode": "9300-167",
      "city": "CÂMARA DE LOBOS",
      "lon": "-16.975088065992058",
      "lat": "32.6587121779337"
    },
    {
      "id": "pt.ine.add.MAD.2841",
      "street": "ESTR JOÃO GONÇALVES ZARCO",
      "house": "472",
      "postcode": "9300-167",
      "city": "CÂMARA DE LOBOS",
      "lon": "-16.975088065992058",
      "lat": "32.6587121779337"
    },
    {
      "id": "pt.ine.add.MAD.2842",
      "street": "ESTR JOÃO GONÇALVES ZARCO",
      "house": "472",
      "postcode": "9300-167",
      "city": "CÂMARA DE LOBOS",
      "lon": "-16.975088065992058",
      "lat": "32.6587121779337"
    },
    {
      "id": "pt.ine.add.MAD.2843",
      "street": "ESTR JOÃO GONÇALVES ZARCO",
      "house": "472",
      "postcode": "9300-167",
      "city": "CÂMARA DE LOBOS",
      "lon": "-16.97510328531167",
      "lat": "32.65891936650425"
    },
    {
      "id": "pt.ine.add.MAD.2844",
      "street": "ESTR JOÃO GONÇALVES ZARCO",
      "house": "472",
      "postcode": "9300-167",
      "city": "CÂMARA DE LOBOS",
      "lon": "-16.97510328531167",
      "lat": "32.65891936650425"
    },
    {
      "id": "pt.ine.add.MAD.2845",
      "street": "ESTR JOÃO GONÇALVES ZARCO",
      "house": "472",
      "postcode": "9300-167",
      "city": "CÂMARA DE LOBOS",
      "lon": "-16.97510328531167",
      "lat": "32.65891936650425"
    },
    {
      "id": "pt.ine.add.MAD.2846",
      "street": "ESTR JOÃO GONÇALVES ZARCO",
      "house": "472",
      "postcode": "9300-167",
      "city": "CÂMARA DE LOBOS",
      "lon": "-16.97510328531167",
      "lat": "32.65891936650425"
    },
    {
      "id": "pt.ine.add.MAD.2847",
      "street": "ESTR JOÃO GONÇALVES ZARCO",
      "house": "472",
      "postcode": "9300-167",
      "city": "CÂMARA DE LOBOS",
      "lon": "-16.97510328531167",
      "lat": "32.65891936650425"
    },
    {
      "id": "pt.ine.add.MAD.2848",
      "street": "ESTR JOÃO GONÇALVES ZARCO",
      "house": "472",
      "postcode": "9300-167",
      "city": "CÂMARA DE LOBOS",
      "lon": "-16.97510328531167",
      "lat": "32.65891936650425"
    },
    {
      "id": "pt.ine.add.MAD.3600",
      "street": "CAM S JOÃO",
      "house": "25",
      "postcode": "9300-150",
      "city": "CÂMARA DE LOBOS",
      "lon": "-16.97392884695985",
      "lat": "32.66175165779984"
    },
    {
      "id": "pt.ine.add.MAD.3601",
      "street": "ESTR JOÃO GONÇALVES ZARCO",
      "house": "490 492",
      "postcode": "9300-167",
      "city": "CÂMARA DE LOBOS",
      "lon": "-16.974354521523868",
      "lat": "32.661230898621675"
    },
    {
      "id": "pt.ine.add.MAD.3602",
      "street": "ESTR JOÃO GONÇALVES ZARCO",
      "house": "490 492",
      "postcode": "9300-167",
      "city": "CÂMARA DE LOBOS",
      "lon": "-16.974354521523868",
      "lat": "32.661230898621675"
    },
    {
      "id": "pt.ine.add.MAD.3603",
      "street": "ESTR JOÃO GONÇALVES ZARCO",
      "house": "496",
      "postcode": "9300-167",
      "city": "CÂMARA DE LOBOS",
      "lon": "-16.974296769602894",
      "lat": "32.66199838962937"
    },
    {
      "id": "pt.ine.add.MAD.3604",
      "street": "ESTR JOAO GONCALVES ZARCO",
      "house": "500",
      "postcode": "9300-167",
      "city": "CÂMARA DE LOBOS",
      "lon": "-16.974895151623695",
      "lat": "32.66157411544036"
    },
    {
      "id": "pt.ine.add.MAD.3640",
      "street": "ESTR JOÃO GONÇALVES ZARCO",
      "house": "472",
      "postcode": "9300-167",
      "city": "CÂMARA DE LOBOS",
      "lon": "-16.97510328531167",
      "lat": "32.65891936650425"
    },
    {
      "id": "pt.ine.add.MAD.3641",
      "street": "ESTR JOÃO GONÇALVES ZARCO",
      "house": "476",
      "postcode": "9300-167",
      "city": "CÂMARA DE LOBOS",
      "lon": "-16.975372502989288",
      "lat": "32.65904138868225"
    },
    {
      "id": "pt.ine.add.MAD.3642",
      "street": "ESTR JOÃO GONÇALVES ZARCO JARDINS DO SOL 1",
      "house": "476 A",
      "postcode": "9300-167",
      "city": "CÂMARA DE LOBOS",
      "lon": "-16.974793670190493",
      "lat": "32.65938418962287"
    },
    {
      "id": "pt.ine.add.MAD.3643",
      "street": "ESTR JOÃO GONÇALVES ZARCO JARDINS DO SOL 1",
      "house": "476 A",
      "postcode": "9300-167",
      "city": "CÂMARA DE LOBOS",
      "lon": "-16.974793670190493",
      "lat": "32.65938418962287"
    },
    {
      "id": "pt.ine.add.MAD.3644",
      "street": "ESTR JOÃO GONÇALVES ZARCO JARDINS DO SOL 1",
      "house": "476 A",
      "postcode": "9300-167",
      "city": "CÂMARA DE LOBOS",
      "lon": "-16.974793670190493",
      "lat": "32.65938418962287"
    },
    {
      "id": "pt.ine.add.MAD.3645",
      "street": "ESTR JOÃO GONÇALVES ZARCO JARDINS DO SOL 1",
      "house": "476 A",
      "postcode": "9300-167",
      "city": "CÂMARA DE LOBOS",
      "lon": "-16.974793670190493",
      "lat": "32.65938418962287"
    },
    {
      "id": "pt.ine.add.MAD.3646",
      "street": "ESTR JOÃO GONÇALVES ZARCO JARDINS DO SOL 1",
      "house": "476 A",
      "postcode": "9300-167",
      "city": "CÂMARA DE LOBOS",
      "lon": "-16.974793670190493",
      "lat": "32.65938418962287"
    },
    {
      "id": "pt.ine.add.MAD.3647",
      "street": "ESTR JOAO GONCALVES ZARCO",
      "house": "476A",
      "postcode": "9300-167",
      "city": "CÂMARA DE LOBOS",
      "lon": "-16.97446779315854",
      "lat": "32.65910974141754"
    },
    {
      "id": "pt.ine.add.MAD.3648",
      "street": "ESTR JOAO GONCALVES ZARCO",
      "house": "476A",
      "postcode": "9300-167",
      "city": "CÂMARA DE LOBOS",
      "lon": "-16.97446779315854",
      "lat": "32.65910974141754"
    },
    {
      "id": "pt.ine.add.MAD.3649",
      "street": "ESTR JOAO GONCALVES ZARCO",
      "house": "476A",
      "postcode": "9300-167",
      "city": "CÂMARA DE LOBOS",
      "lon": "-16.97446779315854",
      "lat": "32.65910974141754"
    },
    {
      "id": "pt.ine.add.MAD.3650",
      "street": "ESTR JOAO GONCALVES ZARCO",
      "house": "476A",
      "postcode": "9300-167",
      "city": "CÂMARA DE LOBOS",
      "lon": "-16.97446779315854",
      "lat": "32.65910974141754"
    },
    {
      "id": "pt.ine.add.MAD.3651",
      "street": "ESTR JOAO GONCALVES ZARCO",
      "house": "476A",
      "postcode": "9300-167",
      "city": "CÂMARA DE LOBOS",
      "lon": "-16.97446779315854",
      "lat": "32.65910974141754"
    },
    {
      "id": "pt.ine.add.MAD.3652",
      "street": "ESTR JOÃO GONÇALVES ZARCO",
      "house": "478A",
      "postcode": "9300-167",
      "city": "CÂMARA DE LOBOS",
      "lon": "-16.974517413161333",
      "lat": "32.65991161734298"
    },
    {
      "id": "pt.ine.add.MAD.4415",
      "street": "ESTR JOÃO GONÇALVES ZARCO",
      "house": "512",
      "postcode": "9300-167",
      "city": "CÂMARA DE LOBOS",
      "lon": "-16.975377933024255",
      "lat": "32.661710812622346"
    },
    {
      "id": "pt.ine.add.MAD.4416",
      "street": "ESTR JOÃO GONÇALVES ZARCO",
      "house": "518",
      "postcode": "9300-167",
      "city": "CÂMARA DE LOBOS",
      "lon": "-16.97546518059702",
      "lat": "32.66179962496133"
    },
    {
      "id": "pt.ine.add.MAD.4417",
      "street": "ESTR JOÃO GONÇALVES ZARCO",
      "house": "522",
      "postcode": "9300-167",
      "city": "CÂMARA DE LOBOS",
      "lon": "-16.9757149342609",
      "lat": "32.662490125048215"
    },
    {
      "id": "pt.ine.add.MAD.4418",
      "street": "CAM BELA VISTA",
      "house": "33",
      "postcode": "9300-027",
      "city": "CÂMARA DE LOBOS",
      "lon": "-16.975187730695243",
      "lat": "32.66227296117693"
    },
    {
      "id": "pt.ine.add.MAD.4419",
      "street": "CAM BELA VISTA",
      "house": "35",
      "postcode": "9300-027",
      "city": "CÂMARA DE LOBOS",
      "lon": "-16.975162501173845",
      "lat": "32.66257999115517"
    },
    {
      "id": "pt.ine.add.MAD.4420",
      "street": "CAM BELA VISTA",
      "house": "30",
      "postcode": "9300-027",
      "city": "CÂMARA DE LOBOS",
      "lon": "-16.974952368151463",
      "lat": "32.663205583415284"
    },
    {
      "id": "pt.ine.add.MAD.4421",
      "street": "CAM BELA VISTA",
      "house": "38 A",
      "postcode": "9300-027",
      "city": "CÂMARA DE LOBOS",
      "lon": "-16.97507893091436",
      "lat": "32.66362746562247"
    },
    {
      "id": "pt.ine.add.MAD.4422",
      "street": "CAM BELA VISTA",
      "house": "38B",
      "postcode": "9300-027",
      "city": "CÂMARA DE LOBOS",
      "lon": "-16.975103024499887",
      "lat": "32.66375334683616"
    },
    {
      "id": "pt.ine.add.MAD.4454",
      "street": "ESTR JOÃO GONÇALVES ZARCO",
      "house": "476 A",
      "postcode": "9300-167",
      "city": "CÂMARA DE LOBOS",
      "lon": "-16.974676435688362",
      "lat": "32.65938603484769"
    },
    {
      "id": "pt.ine.add.MAD.4455",
      "street": "ESTR JOÃO GONÇALVES ZARCO",
      "house": "476 A",
      "postcode": "9300-167",
      "city": "CÂMARA DE LOBOS",
      "lon": "-16.974676435688362",
      "lat": "32.65938603484769"
    },
    {
      "id": "pt.ine.add.MAD.4456",
      "street": "ESTR JOÃO GONÇALVES ZARCO",
      "house": "476 A",
      "postcode": "9300-167",
      "city": "CÂMARA DE LOBOS",
      "lon": "-16.974676435688362",
      "lat": "32.65938603484769"
    },
    {
      "id": "pt.ine.add.MAD.4457",
      "street": "ESTR JOÃO GONÇALVES ZARCO",
      "house": "476 A",
      "postcode": "9300-167",
      "city": "CÂMARA DE LOBOS",
      "lon": "-16.974676435688362",
      "lat": "32.65938603484769"
    },
    {
      "id": "pt.ine.add.MAD.4458",
      "street": "ESTR JOÃO GONÇALVES ZARCO",
      "house": "476A",
      "postcode": "9300-167",
      "city": "CÂMARA DE LOBOS",
      "lon": "-16.974548345207506",
      "lat": "32.659379032199965"
    },
    {
      "id": "pt.ine.add.MAD.4459",
      "street": "ESTR JOÃO GONÇALVES ZARCO",
      "house": "476A",
      "postcode": "9300-167",
      "city": "CÂMARA DE LOBOS",
      "lon": "-16.974548345207506",
      "lat": "32.659379032199965"
    },
    {
      "id": "pt.ine.add.MAD.4460",
      "street": "ESTR JOÃO GONÇALVES ZARCO",
      "house": "476A",
      "postcode": "9300-167",
      "city": "CÂMARA DE LOBOS",
      "lon": "-16.974548345207506",
      "lat": "32.659379032199965"
    },
    {
      "id": "pt.ine.add.MAD.4461",
      "street": "ESTR JOÃO GONÇALVES ZARCO",
      "house": "476 A",
      "postcode": "9300-167",
      "city": "CÂMARA DE LOBOS",
      "lon": "-16.9744717586626",
      "lat": "32.659290051341024"
    },
    {
      "id": "pt.ine.add.MAD.4462",
      "street": "ESTR JOÃO GONÇALVES ZARCO",
      "house": "476 A",
      "postcode": "9300-167",
      "city": "CÂMARA DE LOBOS",
      "lon": "-16.9744717586626",
      "lat": "32.659290051341024"
    },
    {
      "id": "pt.ine.add.MAD.4463",
      "street": "ESTR JOÃO GONÇALVES ZARCO",
      "house": "476 A",
      "postcode": "9300-167",
      "city": "CÂMARA DE LOBOS",
      "lon": "-16.9744717586626",
      "lat": "32.659290051341024"
    },
    {
      "id": "pt.ine.add.MAD.4464",
      "street": "ESTR JOÃO GONÇALVES ZARCO",
      "house": "476 A",
      "postcode": "9300-167",
      "city": "CÂMARA DE LOBOS",
      "lon": "-16.9744717586626",
      "lat": "32.659290051341024"
    },
    {
      "id": "pt.ine.add.MAD.4465",
      "street": "ESTR JOÃO GONÇALVES ZARCO",
      "house": "476 A",
      "postcode": "9300-167",
      "city": "CÂMARA DE LOBOS",
      "lon": "-16.9744717586626",
      "lat": "32.659290051341024"
    },
    {
      "id": "pt.ine.add.MAD.4466",
      "street": "ESTR JOÃO GONÇALVES ZARCO",
      "house": "476 A",
      "postcode": "9300-167",
      "city": "CÂMARA DE LOBOS",
      "lon": "-16.9744717586626",
      "lat": "32.659290051341024"
    },
    {
      "id": "pt.ine.add.MAD.5251",
      "street": "ESTR JOÃO GONÇALVES ZARCO",
      "house": "476 A",
      "postcode": "9300-167",
      "city": "CÂMARA DE LOBOS",
      "lon": "-16.9744717586626",
      "lat": "32.659290051341024"
    },
    {
      "id": "pt.ine.add.MAD.5252",
      "street": "ESTR JOÃO GONÇALVES ZARCO",
      "house": "476 A",
      "postcode": "9300-167",
      "city": "CÂMARA DE LOBOS",
      "lon": "-16.9744717586626",
      "lat": "32.659290051341024"
    },
    {
      "id": "pt.ine.add.MAD.5253",
      "street": "TV QUINTINHA",
      "house": "3",
      "postcode": "9300-137",
      "city": "CÂMARA DE LOBOS",
      "lon": "-16.972860229463013",
      "lat": "32.65872919207218"
    },
    {
      "id": "pt.ine.add.MAD.7537",
      "street": "R QUINTINHA S JOAO G",
      "house": "G",
      "postcode": "9300-150",
      "city": "CÂMARA DE LOBOS",
      "lon": "-16.97359787379496",
      "lat": "32.65979080641908"
    },
    {
      "id": "pt.ine.add.MAD.7538",
      "street": "R QUINTINHA S JOAO B",
      "house": "B",
      "postcode": "9300-150",
      "city": "CÂMARA DE LOBOS",
      "lon": "-16.97359787379496",
      "lat": "32.65979080641908"
    },
    {
      "id": "pt.ine.add.MAD.7539",
      "street": "R QUINTINHA DE S JOAO",
      "house": "IV BLOCO B",
      "postcode": "9300-150",
      "city": "CÂMARA DE LOBOS",
      "lon": "-16.97359787379496",
      "lat": "32.65979080641908"
    },
    {
      "id": "pt.ine.add.MAD.7540",
      "street": "R QUINTINHA DE S JOAO",
      "house": "IV BLOCO B",
      "postcode": "9300-150",
      "city": "CÂMARA DE LOBOS",
      "lon": "-16.97359787379496",
      "lat": "32.65979080641908"
    },
    {
      "id": "pt.ine.add.MAD.7541",
      "street": "R QUINTINHA S JOAO K",
      "house": "K",
      "postcode": "9300-150",
      "city": "CÂMARA DE LOBOS",
      "lon": "-16.97359787379496",
      "lat": "32.65979080641908"
    },
    {
      "id": "pt.ine.add.MAD.8347",
      "street": "R QUINTINHA S JOAO L",
      "house": "L",
      "postcode": "9300-150",
      "city": "CÂMARA DE LOBOS",
      "lon": "-16.97359787379496",
      "lat": "32.65979080641908"
    },
    {
      "id": "pt.ine.add.MAD.8348",
      "street": "R QUINTINHA DE S JOAO",
      "house": "IV BLOCO B",
      "postcode": "9300-150",
      "city": "CÂMARA DE LOBOS",
      "lon": "-16.97359787379496",
      "lat": "32.65979080641908"
    },
    {
      "id": "pt.ine.add.MAD.8349",
      "street": "R QUINTINHA DE S JOAO",
      "house": "IV BLOCO B",
      "postcode": "9300-150",
      "city": "CÂMARA DE LOBOS",
      "lon": "-16.97359787379496",
      "lat": "32.65979080641908"
    },
    {
      "id": "pt.ine.add.MAD.8350",
      "street": "R QUINTINHA DE S JOAO",
      "house": "IV BLOCO B",
      "postcode": "9300-150",
      "city": "CÂMARA DE LOBOS",
      "lon": "-16.97359787379496",
      "lat": "32.65979080641908"
    },
    {
      "id": "pt.ine.add.MAD.8351",
      "street": "R QUINTINHA DE S JOAO",
      "house": "IV BLOCO B",
      "postcode": "9300-150",
      "city": "CÂMARA DE LOBOS",
      "lon": "-16.97359787379496",
      "lat": "32.65979080641908"
    },
    {
      "id": "pt.ine.add.MAD.8352",
      "street": "R QUINTINHA DE S JOAO",
      "house": "IV BLOCO B",
      "postcode": "9300-150",
      "city": "CÂMARA DE LOBOS",
      "lon": "-16.97359787379496",
      "lat": "32.65979080641908"
    },
    {
      "id": "pt.ine.add.MAD.8353",
      "street": "R QUINTINHA DE S JOAO",
      "house": "IV BLOCO B",
      "postcode": "9300-150",
      "city": "CÂMARA DE LOBOS",
      "lon": "-16.97359787379496",
      "lat": "32.65979080641908"
    },
    {
      "id": "pt.ine.add.MAD.8354",
      "street": "R QUINTINHA S JOAO T",
      "house": "T",
      "postcode": "9300-150",
      "city": "CÂMARA DE LOBOS",
      "lon": "-16.97359787379496",
      "lat": "32.65979080641908"
    },
    {
      "id": "pt.ine.add.MAD.8355",
      "street": "R QUINTINHA DE S JOAO",
      "house": "IV BLOCO B",
      "postcode": "9300-150",
      "city": "CÂMARA DE LOBOS",
      "lon": "-16.97359787379496",
      "lat": "32.65979080641908"
    },
    {
      "id": "pt.ine.add.MAD.8356",
      "street": "R QUINTINHA DE S JOAO",
      "house": "IV BLOCO B",
      "postcode": "9300-150",
      "city": "CÂMARA DE LOBOS",
      "lon": "-16.97359787379496",
      "lat": "32.65979080641908"
    },
    {
      "id": "pt.ine.add.MAD.8357",
      "street": "R QUINTINHA DE S JOAO",
      "house": "IV BLOCO B",
      "postcode": "9300-150",
      "city": "CÂMARA DE LOBOS",
      "lon": "-16.97359787379496",
      "lat": "32.65979080641908"
    },
    {
      "id": "pt.ine.add.MAD.8358",
      "street": "R QUINTINHA S JOAO X",
      "house": "X",
      "postcode": "9300-150",
      "city": "CÂMARA DE LOBOS",
      "lon": "-16.97359787379496",
      "lat": "32.65979080641908"
    },
    {
      "id": "pt.ine.add.MAD.8359",
      "street": "R QUINTINHA DE S JOAO",
      "house": "IV BLOCO B",
      "postcode": "9300-150",
      "city": "CÂMARA DE LOBOS",
      "lon": "-16.97359787379496",
      "lat": "32.65979080641908"
    },
    {
      "id": "pt.ine.add.MAD.8360",
      "street": "R QUINTINHA DE S JOAO",
      "house": "IV BLOCO B",
      "postcode": "9300-150",
      "city": "CÂMARA DE LOBOS",
      "lon": "-16.97359787379496",
      "lat": "32.65979080641908"
    },
    {
      "id": "pt.ine.add.MAD.8361",
      "street": "R QUINTINHA DE S JOAO",
      "house": "IV BLOCO B",
      "postcode": "9300-150",
      "city": "CÂMARA DE LOBOS",
      "lon": "-16.97359787379496",
      "lat": "32.65979080641908"
    },
    {
      "id": "pt.ine.add.MAD.9156",
      "street": "R QUINTINHA DE S JOAO",
      "house": "IV BLOCO B",
      "postcode": "9300-150",
      "city": "CÂMARA DE LOBOS",
      "lon": "-16.97359787379496",
      "lat": "32.65979080641908"
    },
    {
      "id": "pt.ine.add.MAD.9157",
      "street": "R QUINTINHA DE S JOÃO",
      "house": "",
      "postcode": "9300-150",
      "city": "CÂMARA DE LOBOS",
      "lon": "-16.97321225624962",
      "lat": "32.660193691044114"
    },
    {
      "id": "pt.ine.add.MAD.9158",
      "street": "R QUINTINHA DE S JOÃO",
      "house": "",
      "postcode": "9300-150",
      "city": "CÂMARA DE LOBOS",
      "lon": "-16.97321225624962",
      "lat": "32.660193691044114"
    },
    {
      "id": "pt.ine.add.MAD.9159",
      "street": "R QUINTINHA DE S JOÃO",
      "house": "",
      "postcode": "9300-150",
      "city": "CÂMARA DE LOBOS",
      "lon": "-16.97321225624962",
      "lat": "32.660193691044114"
    },
    {
      "id": "pt.ine.add.MAD.9160",
      "street": "R QUINTINHA DE S JOÃO",
      "house": "",
      "postcode": "9300-150",
      "city": "CÂMARA DE LOBOS",
      "lon": "-16.97321225624962",
      "lat": "32.660193691044114"
    },
    {
      "id": "pt.ine.add.MAD.9161",
      "street": "R QUINTINHA DE S JOÃO",
      "house": "A",
      "postcode": "9300-150",
      "city": "CÂMARA DE LOBOS",
      "lon": "-16.97321225624962",
      "lat": "32.660193691044114"
    },
    {
      "id": "pt.ine.add.MAD.9162",
      "street": "R QUINTINHA DE S JOÃO",
      "house": "",
      "postcode": "9300-150",
      "city": "CÂMARA DE LOBOS",
      "lon": "-16.972978973697195",
      "lat": "32.6602514715278"
    },
    {
      "id": "pt.ine.add.MAD.9163",
      "street": "R QUINTINHA DE S JOÃO",
      "house": "",
      "postcode": "9300-150",
      "city": "CÂMARA DE LOBOS",
      "lon": "-16.972978973697195",
      "lat": "32.6602514715278"
    },
    {
      "id": "pt.ine.add.MAD.9164",
      "street": "R QUINTINHA DE S JOÃO",
      "house": "",
      "postcode": "9300-150",
      "city": "CÂMARA DE LOBOS",
      "lon": "-16.972978973697195",
      "lat": "32.6602514715278"
    },
    {
      "id": "pt.ine.add.MAD.9165",
      "street": "R QUINTINHA DE S JOÃO",
      "house": "",
      "postcode": "9300-150",
      "city": "CÂMARA DE LOBOS",
      "lon": "-16.972978973697195",
      "lat": "32.6602514715278"
    },
    {
      "id": "pt.ine.add.MAD.9166",
      "street": "R QUINTINHA DE S JOÃO",
      "house": "",
      "postcode": "9300-150",
      "city": "CÂMARA DE LOBOS",
      "lon": "-16.972978973697195",
      "lat": "32.6602514715278"
    },
    {
      "id": "pt.ine.add.MAD.9167",
      "street": "R QUINTINHA DE S JOÃO",
      "house": "",
      "postcode": "9300-150",
      "city": "CÂMARA DE LOBOS",
      "lon": "-16.972978973697195",
      "lat": "32.6602514715278"
    },
    {
      "id": "pt.ine.add.MAD.9168",
      "street": "R QUINTINHA DE S JOÃO",
      "house": "",
      "postcode": "9300-150",
      "city": "CÂMARA DE LOBOS",
      "lon": "-16.972978973697195",
      "lat": "32.6602514715278"
    },
    {
      "id": "pt.ine.add.MAD.9169",
      "street": "R QUINTINHA DE S JOÃO",
      "house": "",
      "postcode": "9300-150",
      "city": "CÂMARA DE LOBOS",
      "lon": "-16.972978973697195",
      "lat": "32.6602514715278"
    },
    {
      "id": "pt.ine.add.MAD.9970",
      "street": "R QUINTINHA DE S JOÃO",
      "house": "",
      "postcode": "9300-150",
      "city": "CÂMARA DE LOBOS",
      "lon": "-16.972978973697195",
      "lat": "32.6602514715278"
    },
    {
      "id": "pt.ine.add.MAD.9971",
      "street": "R QUINTINHA DE S JOÃO",
      "house": "",
      "postcode": "9300-150",
      "city": "CÂMARA DE LOBOS",
      "lon": "-16.972978973697195",
      "lat": "32.6602514715278"
    },
    {
      "id": "pt.ine.add.MAD.9972",
      "street": "R QUINTINHA DE S JOÃO",
      "house": "",
      "postcode": "9300-150",
      "city": "CÂMARA DE LOBOS",
      "lon": "-16.972978973697195",
      "lat": "32.6602514715278"
    },
    {
      "id": "pt.ine.add.MAD.9973",
      "street": "R QUINTINHA DE S JOÃO",
      "house": "3",
      "postcode": "9300-150",
      "city": "CÂMARA DE LOBOS",
      "lon": "-16.973131509155166",
      "lat": "32.65991538380805"
    },
    {
      "id": "pt.ine.add.MAD.9974",
      "street": "R QUINTINHA DE S JOÃO",
      "house": "3",
      "postcode": "9300-150",
      "city": "CÂMARA DE LOBOS",
      "lon": "-16.973131509155166",
      "lat": "32.65991538380805"
    },
    {
      "id": "pt.ine.add.MAD.9975",
      "street": "R QUINTINHA DE S JOÃO",
      "house": "3",
      "postcode": "9300-150",
      "city": "CÂMARA DE LOBOS",
      "lon": "-16.973131509155166",
      "lat": "32.65991538380805"
    },
    {
      "id": "pt.ine.add.MAD.9976",
      "street": "R QUINTINHA DE S JOÃO",
      "house": "3",
      "postcode": "9300-150",
      "city": "CÂMARA DE LOBOS",
      "lon": "-16.973131509155166",
      "lat": "32.65991538380805"
    },
    {
      "id": "pt.ine.add.MAD.9977",
      "street": "R QUINTINHA DE S JOAO",
      "house": "",
      "postcode": "9300-150",
      "city": "CÂMARA DE LOBOS",
      "lon": "-16.973131509155166",
      "lat": "32.65991538380805"
    },
    {
      "id": "pt.ine.add.MAD.9978",
      "street": "R QUINTINHA DE S JOÃO",
      "house": "3",
      "postcode": "9300-150",
      "city": "CÂMARA DE LOBOS",
      "lon": "-16.973131509155166",
      "lat": "32.65991538380805"
    },
    {
      "id": "pt.ine.add.MAD.9979",
      "street": "R QUINTINHA DE S JOÃO",
      "house": "3",
      "postcode": "9300-150",
      "city": "CÂMARA DE LOBOS",
      "lon": "-16.973131509155166",
      "lat": "32.65991538380805"
    },
    {
      "id": "pt.ine.add.MAD.9980",
      "street": "R QUINTINHA DE S JOÃO",
      "house": "3",
      "postcode": "9300-150",
      "city": "CÂMARA DE LOBOS",
      "lon": "-16.973131509155166",
      "lat": "32.65991538380805"
    },
    {
      "id": "pt.ine.add.MAD.9981",
      "street": "R QUINTINHA S JOÃO",
      "house": "",
      "postcode": "9300-150",
      "city": "CÂMARA DE LOBOS",
      "lon": "-16.97297184094675",
      "lat": "32.65992691341892"
    },
    {
      "id": "pt.ine.add.MAD.9982",
      "street": "R QUINTINHA S JOÃO",
      "house": "",
      "postcode": "9300-150",
      "city": "CÂMARA DE LOBOS",
      "lon": "-16.97297184094675",
      "lat": "32.65992691341892"
    },
    {
      "id": "pt.ine.add.MAD.9983",
      "street": "R QUINTINHA S JOÃO",
      "house": "",
      "postcode": "9300-150",
      "city": "CÂMARA DE LOBOS",
      "lon": "-16.97297184094675",
      "lat": "32.65992691341892"
    },
    {
      "id": "pt.ine.add.MAD.9984",
      "street": "R QUINTINHA S JOÃO",
      "house": "",
      "postcode": "9300-150",
      "city": "CÂMARA DE LOBOS",
      "lon": "-16.97297184094675",
      "lat": "32.65992691341892"
    },
    {
      "id": "pt.ine.add.MAD.10737",
      "street": "R QUINTINHA S JOÃO",
      "house": "",
      "postcode": "9300-150",
      "city": "CÂMARA DE LOBOS",
      "lon": "-16.97297184094675",
      "lat": "32.65992691341892"
    },
    {
      "id": "pt.ine.add.MAD.10738",
      "street": "R QUINTINHA S JOÃO",
      "house": "",
      "postcode": "9300-150",
      "city": "CÂMARA DE LOBOS",
      "lon": "-16.97297184094675",
      "lat": "32.65992691341892"
    },
    {
      "id": "pt.ine.add.MAD.10739",
      "street": "R QUINTINHA S JOÃO",
      "house": "",
      "postcode": "9300-150",
      "city": "CÂMARA DE LOBOS",
      "lon": "-16.97297184094675",
      "lat": "32.65992691341892"
    },
    {
      "id": "pt.ine.add.MAD.10740",
      "street": "R QUINTINHA S JOÃO",
      "house": "",
      "postcode": "9300-150",
      "city": "CÂMARA DE LOBOS",
      "lon": "-16.97297184094675",
      "lat": "32.65992691341892"
    },
    {
      "id": "pt.ine.add.MAD.10741",
      "street": "R QUINTINHA S JOÃO",
      "house": "",
      "postcode": "9300-150",
      "city": "CÂMARA DE LOBOS",
      "lon": "-16.97297184094675",
      "lat": "32.65992691341892"
    },
    {
      "id": "pt.ine.add.MAD.10742",
      "street": "CAM S JOAO AM",
      "house": "AM",
      "postcode": "9300-150",
      "city": "CÂMARA DE LOBOS",
      "lon": "-16.97291300469142",
      "lat": "32.65967531730453"
    },
    {
      "id": "pt.ine.add.MAD.10743",
      "street": "ESTR JOAO GONCALVES ZARCO AN",
      "house": "AN",
      "postcode": "9300-150",
      "city": "CÂMARA DE LOBOS",
      "lon": "-16.97291300469142",
      "lat": "32.65967531730453"
    },
    {
      "id": "pt.ine.add.MAD.10744",
      "street": "R QUINTINHA S JOAO A O",
      "house": "A O",
      "postcode": "9300-150",
      "city": "CÂMARA DE LOBOS",
      "lon": "-16.97291300469142",
      "lat": "32.65967531730453"
    },
    {
      "id": "pt.ine.add.MAD.10745",
      "street": "CAM S JOAO",
      "house": "81010 5",
      "postcode": "9300-150",
      "city": "CÂMARA DE LOBOS",
      "lon": "-16.97291300469142",
      "lat": "32.65967531730453"
    },
    {
      "id": "pt.ine.add.MAD.10746",
      "street": "CAM S JOAO AR",
      "house": "AR",
      "postcode": "9300-150",
      "city": "CÂMARA DE LOBOS",
      "lon": "-16.97291300469142",
      "lat": "32.65967531730453"
    },
    {
      "id": "pt.ine.add.MAD.10747",
      "street": "R QUINTINHA DE S JOAO",
      "house": "BLOCO 5",
      "postcode": "9300-150",
      "city": "CÂMARA DE LOBOS",
      "lon": "-16.97291300469142",
      "lat": "32.65967531730453"
    },
    {
      "id": "pt.ine.add.MAD.10748",
      "street": "R QUINTINHA S JOÃO",
      "house": "",
      "postcode": "9300-150",
      "city": "CÂMARA DE LOBOS",
      "lon": "-16.972863835923174",
      "lat": "32.65937847602865"
    },
    {
      "id": "pt.ine.add.MAD.10749",
      "street": "R QUINTINHA S JOÃO",
      "house": "",
      "postcode": "9300-150",
      "city": "CÂMARA DE LOBOS",
      "lon": "-16.972863835923174",
      "lat": "32.65937847602865"
    },
    {
      "id": "pt.ine.add.MAD.10750",
      "street": "R QUINTINHA S JOÃO",
      "house": "",
      "postcode": "9300-150",
      "city": "CÂMARA DE LOBOS",
      "lon": "-16.972863835923174",
      "lat": "32.65937847602865"
    },
    {
      "id": "pt.ine.add.MAD.10751",
      "street": "R QUINTINHA S JOÃO",
      "house": "",
      "postcode": "9300-150",
      "city": "CÂMARA DE LOBOS",
      "lon": "-16.972863835923174",
      "lat": "32.65937847602865"
    },
    {
      "id": "pt.ine.add.MAD.11493",
      "street": "R QUINTINHA S JOÃO",
      "house": "",
      "postcode": "9300-150",
      "city": "CÂMARA DE LOBOS",
      "lon": "-16.972863835923174",
      "lat": "32.65937847602865"
    },
    {
      "id": "pt.ine.add.MAD.11494",
      "street": "R QUINTINHA DE S JOAO",
      "house": "BLOCO 8",
      "postcode": "9300-150",
      "city": "CÂMARA DE LOBOS",
      "lon": "-16.97304640363264",
      "lat": "32.65943873541393"
    },
    {
      "id": "pt.ine.add.MAD.11495",
      "street": "R QUINTINHA S JOAO",
      "house": "",
      "postcode": "9300-150",
      "city": "CÂMARA DE LOBOS",
      "lon": "-16.97304640363264",
      "lat": "32.65943873541393"
    },
    {
      "id": "pt.ine.add.MAD.11496",
      "street": "R QUINTINHA S JOAO BZ",
      "house": "BZ",
      "postcode": "9300-150",
      "city": "CÂMARA DE LOBOS",
      "lon": "-16.97304640363264",
      "lat": "32.65943873541393"
    },
    {
      "id": "pt.ine.add.MAD.11497",
      "street": "R QUINTINHA DE S JOAO",
      "house": "BLOCO 8",
      "postcode": "9300-150",
      "city": "CÂMARA DE LOBOS",
      "lon": "-16.97304640363264",
      "lat": "32.65943873541393"
    },
    {
      "id": "pt.ine.add.MAD.11498",
      "street": "R QUINTINHA DE S JOAO",
      "house": "BLOCO 8",
      "postcode": "9300-150",
      "city": "CÂMARA DE LOBOS",
      "lon": "-16.97304640363264",
      "lat": "32.65943873541393"
    },
    {
      "id": "pt.ine.add.MAD.11499",
      "street": "R QUINTINHA S JOAO",
      "house": "",
      "postcode": "9300-150",
      "city": "CÂMARA DE LOBOS",
      "lon": "-16.97304640363264",
      "lat": "32.65943873541393"
    },
    {
      "id": "pt.ine.add.MAD.11500",
      "street": "R QUINTINHA DE S JOAO",
      "house": "BLOCO 8",
      "postcode": "9300-150",
      "city": "CÂMARA DE LOBOS",
      "lon": "-16.97304640363264",
      "lat": "32.65943873541393"
    },
    {
      "id": "pt.ine.add.MAD.11501",
      "street": "R QUINTINHA S JOÃO",
      "house": "",
      "postcode": "9300-150",
      "city": "CÂMARA DE LOBOS",
      "lon": "-16.973248305439267",
      "lat": "32.65940850425648"
    },
    {
      "id": "pt.ine.add.MAD.11502",
      "street": "R QUINTINHA S JOÃO",
      "house": "",
      "postcode": "9300-150",
      "city": "CÂMARA DE LOBOS",
      "lon": "-16.973248305439267",
      "lat": "32.65940850425648"
    },
    {
      "id": "pt.ine.add.MAD.11503",
      "street": "R QUINTINHA S JOÃO",
      "house": "",
      "postcode": "9300-150",
      "city": "CÂMARA DE LOBOS",
      "lon": "-16.973248305439267",
      "lat": "32.65940850425648"
    },
    {
      "id": "pt.ine.add.MAD.11504",
      "street": "R QUINTINHA S JOÃO",
      "house": "",
      "postcode": "9300-150",
      "city": "CÂMARA DE LOBOS",
      "lon": "-16.973248305439267",
      "lat": "32.65940850425648"
    },
    {
      "id": "pt.ine.add.MAD.12251",
      "street": "R QUINTINHA S JOÃO",
      "house": "",
      "postcode": "9300-150",
      "city": "CÂMARA DE LOBOS",
      "lon": "-16.973248305439267",
      "lat": "32.65940850425648"
    },
    {
      "id": "pt.ine.add.MAD.12252",
      "street": "R QUINTINHA S JOÃO",
      "house": "",
      "postcode": "9300-150",
      "city": "CÂMARA DE LOBOS",
      "lon": "-16.973248305439267",
      "lat": "32.65940850425648"
    },
    {
      "id": "pt.ine.add.MAD.55188",
      "street": "ESTR JOÃO GONÇALVES ZARCO",
      "house": "470A",
      "postcode": "9300-167",
      "city": "CÂMARA DE LOBOS",
      "lon": "-16.974678764914724",
      "lat": "32.65900721631382"
    },
    {
      "id": "pt.ine.add.MAD.59324",
      "street": "CAM S JOÃO",
      "house": "7",
      "postcode": "9300-150",
      "city": "CÂMARA DE LOBOS",
      "lon": "-16.972938358177522",
      "lat": "32.65840329316467"
    },
    {
      "id": "pt.ine.add.MAD.59701",
      "street": "R QUINTINHA DE S JOÃO",
      "house": "",
      "postcode": "9300-150",
      "city": "CÂMARA DE LOBOS",
      "lon": "-16.97308150523299",
      "lat": "32.659095475851295"
    },
    {
      "id": "pt.ine.add.MAD.59702",
      "street": "R QUINTINHA DE S JOÃO",
      "house": "",
      "postcode": "9300-150",
      "city": "CÂMARA DE LOBOS",
      "lon": "-16.97308150523299",
      "lat": "32.659095475851295"
    },
    {
      "id": "pt.ine.add.MAD.59703",
      "street": "R QUINTINHA DE S JOÃO",
      "house": "",
      "postcode": "9300-150",
      "city": "CÂMARA DE LOBOS",
      "lon": "-16.97308150523299",
      "lat": "32.659095475851295"
    },
    {
      "id": "pt.ine.add.MAD.59704",
      "street": "R QUINTINHA DE S JOÃO",
      "house": "",
      "postcode": "9300-150",
      "city": "CÂMARA DE LOBOS",
      "lon": "-16.97308150523299",
      "lat": "32.659095475851295"
    },
    {
      "id": "pt.ine.add.MAD.60147",
      "street": "ESTR JOÃO GONÇALVES ZARCO",
      "house": "484",
      "postcode": "9300-167",
      "city": "CÂMARA DE LOBOS",
      "lon": "-16.974116875547594",
      "lat": "32.66109034040177"
    },
    {
      "id": "pt.ine.add.MAD.60148",
      "street": "CAM S JOAO",
      "house": "N 26",
      "postcode": "9300-150",
      "city": "CÂMARA DE LOBOS",
      "lon": "-16.97510895893325",
      "lat": "32.6620848104933"
    },
    {
      "id": "pt.ine.add.MAD.60150",
      "street": "R QUINTINHA DE S JOÃO",
      "house": "",
      "postcode": "9300-150",
      "city": "CÂMARA DE LOBOS",
      "lon": "-16.973322357908796",
      "lat": "32.65986728910329"
    },
    {
      "id": "pt.ine.add.MAD.60151",
      "street": "R QUINTINHA DE S JOÃO",
      "house": "",
      "postcode": "9300-150",
      "city": "CÂMARA DE LOBOS",
      "lon": "-16.973322357908796",
      "lat": "32.65986728910329"
    },
    {
      "id": "pt.ine.add.MAD.60152",
      "street": "R QUINTINHA DE S JOÃO",
      "house": "",
      "postcode": "9300-150",
      "city": "CÂMARA DE LOBOS",
      "lon": "-16.973322357908796",
      "lat": "32.65986728910329"
    },
    {
      "id": "pt.ine.add.MAD.60153",
      "street": "R QUINTINHA DE S JOÃO",
      "house": "",
      "postcode": "9300-150",
      "city": "CÂMARA DE LOBOS",
      "lon": "-16.973322357908796",
      "lat": "32.65986728910329"
    },
    {
      "id": "pt.ine.add.MAD.60154",
      "street": "R QUINTINHA DE S JOÃO",
      "house": "",
      "postcode": "9300-150",
      "city": "CÂMARA DE LOBOS",
      "lon": "-16.973322357908796",
      "lat": "32.65986728910329"
    },
    {
      "id": "pt.ine.add.MAD.60155",
      "street": "R QUINTINHA DE S JOÃO",
      "house": "",
      "postcode": "9300-150",
      "city": "CÂMARA DE LOBOS",
      "lon": "-16.973322357908796",
      "lat": "32.65986728910329"
    },
    {
      "id": "pt.ine.add.MAD.60320",
      "street": "R QUINTINHA DE S JOÃO",
      "house": "",
      "postcode": "9300-150",
      "city": "CÂMARA DE LOBOS",
      "lon": "-16.973322357908796",
      "lat": "32.65986728910329"
    },
    {
      "id": "pt.ine.add.MAD.60321",
      "street": "R QUINTINHA DE S JOÃO",
      "house": "",
      "postcode": "9300-150",
      "city": "CÂMARA DE LOBOS",
      "lon": "-16.973322357908796",
      "lat": "32.65986728910329"
    },
    {
      "id": "pt.ine.add.MAD.60322",
      "street": "R QUINTINHA DE S JOÃO",
      "house": "",
      "postcode": "9300-150",
      "city": "CÂMARA DE LOBOS",
      "lon": "-16.973322357908796",
      "lat": "32.65986728910329"
    },
    {
      "id": "pt.ine.add.MAD.60323",
      "street": "R QUINTINHA DE S JOÃO",
      "house": "",
      "postcode": "9300-150",
      "city": "CÂMARA DE LOBOS",
      "lon": "-16.973322357908796",
      "lat": "32.65986728910329"
    },
    {
      "id": "pt.ine.add.MAD.60324",
      "street": "R QUINTINHA DE S JOÃO",
      "house": "1",
      "postcode": "9300-150",
      "city": "CÂMARA DE LOBOS",
      "lon": "-16.973263520727613",
      "lat": "32.65961569318734"
    },
    {
      "id": "pt.ine.add.MAD.60325",
      "street": "R QUINTINHA DE S JOAO",
      "house": "",
      "postcode": "9300-150",
      "city": "CÂMARA DE LOBOS",
      "lon": "-16.973263520727613",
      "lat": "32.65961569318734"
    },
    {
      "id": "pt.ine.add.MAD.60326",
      "street": "R QUINTINHA DE S JOÃO",
      "house": "1",
      "postcode": "9300-150",
      "city": "CÂMARA DE LOBOS",
      "lon": "-16.973263520727613",
      "lat": "32.65961569318734"
    },
    {
      "id": "pt.ine.add.MAD.60327",
      "street": "R QUINTINHA DE S JOÃO",
      "house": "1",
      "postcode": "9300-150",
      "city": "CÂMARA DE LOBOS",
      "lon": "-16.973263520727613",
      "lat": "32.65961569318734"
    },
    {
      "id": "pt.ine.add.MAD.60328",
      "street": "R QUINTINHA DE S JOÃO",
      "house": "1",
      "postcode": "9300-150",
      "city": "CÂMARA DE LOBOS",
      "lon": "-16.973263520727613",
      "lat": "32.65961569318734"
    },
    {
      "id": "pt.ine.add.MAD.60329",
      "street": "R QUINTINHA DE S JOÃO",
      "house": "1",
      "postcode": "9300-150",
      "city": "CÂMARA DE LOBOS",
      "lon": "-16.973263520727613",
      "lat": "32.65961569318734"
    },
    {
      "id": "pt.ine.add.MAD.60330",
      "street": "R QUINTINHA DE S JOÃO",
      "house": "1",
      "postcode": "9300-150",
      "city": "CÂMARA DE LOBOS",
      "lon": "-16.973263520727613",
      "lat": "32.65961569318734"
    },
    {
      "id": "pt.ine.add.MAD.61286",
      "street": "ESTR JOÃO GONÇALVES ZARCO",
      "house": "478AA",
      "postcode": "9300-167",
      "city": "CÂMARA DE LOBOS",
      "lon": "-16.974199615384897",
      "lat": "32.659519799317316"
    },
    {
      "id": "pt.ine.add.MAD.61287",
      "street": "ESTR JOÃO GONÇALVES ZARCO",
      "house": "478AA",
      "postcode": "9300-167",
      "city": "CÂMARA DE LOBOS",
      "lon": "-16.974199615384897",
      "lat": "32.659519799317316"
    },
    {
      "id": "pt.ine.add.MAD.61288",
      "street": "ESTR JOÃO GONÇALVES ZARCO",
      "house": "478AA",
      "postcode": "9300-167",
      "city": "CÂMARA DE LOBOS",
      "lon": "-16.974199615384897",
      "lat": "32.659519799317316"
    },
    {
      "id": "pt.ine.add.MAD.61468",
      "street": "ESTR JOÃO GONÇALVES ZARCO",
      "house": "478AA",
      "postcode": "9300-167",
      "city": "CÂMARA DE LOBOS",
      "lon": "-16.974199615384897",
      "lat": "32.659519799317316"
    },
    {
      "id": "pt.ine.add.MAD.61469",
      "street": "ESTR JOÃO GONÇALVES ZARCO",
      "house": "478AA",
      "postcode": "9300-167",
      "city": "CÂMARA DE LOBOS",
      "lon": "-16.974199615384897",
      "lat": "32.659519799317316"
    },
    {
      "id": "pt.ine.add.MAD.61470",
      "street": "ESTR JOÃO GONÇALVES ZARCO",
      "house": "478AA",
      "postcode": "9300-167",
      "city": "CÂMARA DE LOBOS",
      "lon": "-16.974199615384897",
      "lat": "32.659519799317316"
    },
    {
      "id": "pt.ine.add.MAD.61471",
      "street": "ESTR JOÃO GONÇALVES ZARCO",
      "house": "478AA",
      "postcode": "9300-167",
      "city": "CÂMARA DE LOBOS",
      "lon": "-16.974199615384897",
      "lat": "32.659519799317316"
    },
    {
      "id": "pt.ine.add.MAD.61472",
      "street": "ESTR JOÃO GONÇALVES ZARCO",
      "house": "478AA",
      "postcode": "9300-167",
      "city": "CÂMARA DE LOBOS",
      "lon": "-16.974199615384897",
      "lat": "32.659519799317316"
    },
    {
      "id": "pt.ine.add.MAD.61473",
      "street": "ESTR JOÃO GONÇALVES ZARCO",
      "house": "478AA",
      "postcode": "9300-167",
      "city": "CÂMARA DE LOBOS",
      "lon": "-16.974199615384897",
      "lat": "32.659519799317316"
    },
    {
      "id": "pt.ine.add.MAD.61474",
      "street": "ESTR JOÃO GONÇALVES ZARCO",
      "house": "478AA",
      "postcode": "9300-167",
      "city": "CÂMARA DE LOBOS",
      "lon": "-16.974199615384897",
      "lat": "32.659519799317316"
    },
    {
      "id": "pt.ine.add.MAD.61475",
      "street": "ESTR JOÃO GONÇALVES ZARCO",
      "house": "478AA",
      "postcode": "9300-167",
      "city": "CÂMARA DE LOBOS",
      "lon": "-16.974199615384897",
      "lat": "32.659519799317316"
    },
    {
      "id": "pt.ine.add.MAD.61476",
      "street": "ESTR JOÃO GONÇALVES ZARCO",
      "house": "478AA",
      "postcode": "9300-167",
      "city": "CÂMARA DE LOBOS",
      "lon": "-16.974199615384897",
      "lat": "32.659519799317316"
    },
    {
      "id": "pt.ine.add.MAD.61477",
      "street": "ESTR JOÃO GONÇALVES ZARCO",
      "house": "478AA",
      "postcode": "9300-167",
      "city": "CÂMARA DE LOBOS",
      "lon": "-16.974199615384897",
      "lat": "32.659519799317316"
    },
    {
      "id": "pt.ine.add.MAD.61478",
      "street": "ESTR JOÃO GONÇALVES ZARCO",
      "house": "478AA",
      "postcode": "9300-167",
      "city": "CÂMARA DE LOBOS",
      "lon": "-16.974199615384897",
      "lat": "32.659519799317316"
    },
    {
      "id": "pt.ine.add.MAD.61479",
      "street": "ESTR JOÃO GONÇALVES ZARCO",
      "house": "478AA",
      "postcode": "9300-167",
      "city": "CÂMARA DE LOBOS",
      "lon": "-16.974199615384897",
      "lat": "32.659519799317316"
    },
    {
      "id": "pt.ine.add.MAD.61480",
      "street": "ESTR JOÃO GONÇALVES ZARCO",
      "house": "478AA",
      "postcode": "9300-167",
      "city": "CÂMARA DE LOBOS",
      "lon": "-16.974199615384897",
      "lat": "32.659519799317316"
    },
    {
      "id": "pt.ine.add.MAD.61481",
      "street": "ESTR JOÃO GONÇALVES ZARCO",
      "house": "478AA",
      "postcode": "9300-167",
      "city": "CÂMARA DE LOBOS",
      "lon": "-16.974199615384897",
      "lat": "32.659519799317316"
    },
    {
      "id": "pt.ine.add.MAD.61663",
      "street": "ESTR JOÃO GONÇALVES ZARCO",
      "house": "472",
      "postcode": "9300-167",
      "city": "CÂMARA DE LOBOS",
      "lon": "-16.974724914356536",
      "lat": "32.65868181976652"
    },
    {
      "id": "pt.ine.add.MAD.63816",
      "street": "CAM S JOÃO",
      "house": "25",
      "postcode": "9300-150",
      "city": "CÂMARA DE LOBOS",
      "lon": "-16.974356008150348",
      "lat": "32.66226801578399"
    },
    {
      "id": "pt.ine.add.MAD.66024",
      "street": "R QUINTINHA DE S JOÃO",
      "house": "",
      "postcode": "9300-150",
      "city": "CÂMARA DE LOBOS",
      "lon": "-16.973319540562173",
      "lat": "32.65925406734535"
    },
    {
      "id": "pt.ine.add.MAD.66205",
      "street": "R QUINTINHA DE S JOÃO",
      "house": "",
      "postcode": "9300-150",
      "city": "CÂMARA DE LOBOS",
      "lon": "-16.973319540562173",
      "lat": "32.65925406734535"
    },
    {
      "id": "pt.ine.add.MAD.66206",
      "street": "R QUINTINHA DE S JOÃO",
      "house": "",
      "postcode": "9300-150",
      "city": "CÂMARA DE LOBOS",
      "lon": "-16.973319540562173",
      "lat": "32.65925406734535"
    },
    {
      "id": "pt.ine.add.MAD.66207",
      "street": "R QUINTINHA DE S JOÃO",
      "house": "",
      "postcode": "9300-150",
      "city": "CÂMARA DE LOBOS",
      "lon": "-16.973319540562173",
      "lat": "32.65925406734535"
    },
    {
      "id": "pt.ine.add.MAD.66208",
      "street": "R QUINTINHA DE S JOÃO",
      "house": "",
      "postcode": "9300-150",
      "city": "CÂMARA DE LOBOS",
      "lon": "-16.973319540562173",
      "lat": "32.65925406734535"
    },
    {
      "id": "pt.ine.add.MAD.66209",
      "street": "R QUINTINHA DE S JOÃO",
      "house": "",
      "postcode": "9300-150",
      "city": "CÂMARA DE LOBOS",
      "lon": "-16.973319540562173",
      "lat": "32.65925406734535"
    },
    {
      "id": "pt.ine.add.MAD.66210",
      "street": "R QUINTINHA DE S JOÃO",
      "house": "",
      "postcode": "9300-150",
      "city": "CÂMARA DE LOBOS",
      "lon": "-16.973319540562173",
      "lat": "32.65925406734535"
    },
    {
      "id": "pt.ine.add.MAD.66211",
      "street": "R QUINTINHA DE S JOÃO",
      "house": "",
      "postcode": "9300-150",
      "city": "CÂMARA DE LOBOS",
      "lon": "-16.973319540562173",
      "lat": "32.65925406734535"
    },
    {
      "id": "pt.ine.add.MAD.66212",
      "street": "R QUINTINHA DE S JOÃO",
      "house": "",
      "postcode": "9300-150",
      "city": "CÂMARA DE LOBOS",
      "lon": "-16.973319540562173",
      "lat": "32.65925406734535"
    },
    {
      "id": "pt.ine.add.MAD.66607",
      "street": "CAM S JOÃO",
      "house": "15",
      "postcode": "9300-150",
      "city": "CÂMARA DE LOBOS",
      "lon": "-16.972717758111493",
      "lat": "32.65903806539106"
    },
    {
      "id": "pt.ine.add.MAD.71695",
      "street": "R QUINTINHA DE S JOÃO",
      "house": "",
      "postcode": "9300-150",
      "city": "CÂMARA DE LOBOS",
      "lon": "-16.972848819736953",
      "lat": "32.65918030250997"
    },
    {
      "id": "pt.ine.add.MAD.71696",
      "street": "R QUINTINHA DE S JOÃO",
      "house": "",
      "postcode": "9300-150",
      "city": "CÂMARA DE LOBOS",
      "lon": "-16.972848819736953",
      "lat": "32.65918030250997"
    },
    {
      "id": "pt.ine.add.MAD.71697",
      "street": "R QUINTINHA DE S JOÃO",
      "house": "",
      "postcode": "9300-150",
      "city": "CÂMARA DE LOBOS",
      "lon": "-16.972848819736953",
      "lat": "32.65918030250997"
    },
    {
      "id": "pt.ine.add.MAD.71698",
      "street": "R QUINTINHA DE S JOÃO",
      "house": "",
      "postcode": "9300-150",
      "city": "CÂMARA DE LOBOS",
      "lon": "-16.972848819736953",
      "lat": "32.65918030250997"
    },
    {
      "id": "pt.ine.add.MAD.71941",
      "street": "R QUINTINHA DE S JOÃO",
      "house": "",
      "postcode": "9300-150",
      "city": "CÂMARA DE LOBOS",
      "lon": "-16.972848819736953",
      "lat": "32.65918030250997"
    },
    {
      "id": "pt.ine.add.MAD.71942",
      "street": "R QUINTINHA DE S JOÃO",
      "house": "",
      "postcode": "9300-150",
      "city": "CÂMARA DE LOBOS",
      "lon": "-16.972848819736953",
      "lat": "32.65918030250997"
    },
    {
      "id": "pt.ine.add.MAD.71943",
      "street": "R QUINTINHA DE S JOÃO",
      "house": "",
      "postcode": "9300-150",
      "city": "CÂMARA DE LOBOS",
      "lon": "-16.972848819736953",
      "lat": "32.65918030250997"
    },
    {
      "id": "pt.ine.add.MAD.71944",
      "street": "R QUINTINHA DE S JOÃO",
      "house": "",
      "postcode": "9300-150",
      "city": "CÂMARA DE LOBOS",
      "lon": "-16.972848819736953",
      "lat": "32.65918030250997"
    },
    {
      "id": "pt.ine.add.MAD.78060",
      "street": "ESTR JOÃO GONÇALVES ZARCO",
      "house": "478B",
      "postcode": "9300-167",
      "city": "CÂMARA DE LOBOS",
      "lon": "-16.973872642475403",
      "lat": "32.66016526574153"
    },
    {
      "id": "pt.ine.add.MAD.82199",
      "street": "R QUINTINHA DE S JOÃO",
      "house": "IV",
      "postcode": "9300-150",
      "city": "CÂMARA DE LOBOS",
      "lon": "-16.973646054279357",
      "lat": "32.66004256978979"
    },
    {
      "id": "pt.ine.add.MAD.82261",
      "street": "R QUINTINHA DE S JOÃO",
      "house": "IV",
      "postcode": "9300-150",
      "city": "CÂMARA DE LOBOS",
      "lon": "-16.973646054279357",
      "lat": "32.66004256978979"
    },
    {
      "id": "pt.ine.add.MAD.82286",
      "street": "ESTR JOÃO GONÇALVES ZARCO VILA CAROLINA",
      "house": "468",
      "postcode": "9300-167",
      "city": "CÂMARA DE LOBOS",
      "lon": "-16.974122585256367",
      "lat": "32.65892578265067"
    },
    {
      "id": "pt.ine.add.MAD.84911",
      "street": "CAM S JOÃO",
      "house": "9",
      "postcode": "9300-150",
      "city": "CÂMARA DE LOBOS",
      "lon": "-16.97334299264578",
      "lat": "32.658865897853815"
    },
    {
      "id": "pt.ine.add.MAD.87821",
      "street": "CAM S JOÃO",
      "house": "35",
      "postcode": "9300-150",
      "city": "CÂMARA DE LOBOS",
      "lon": "-16.974947660648866",
      "lat": "32.66347621582733"
    },
    {
      "id": "pt.ine.add.MAD.93489",
      "street": "CAM S JOÃO",
      "house": "27A",
      "postcode": "9300-150",
      "city": "CÂMARA DE LOBOS",
      "lon": "-16.974427293229457",
      "lat": "32.66260058259166"
    },
    {
      "id": "pt.ine.add.MAD.96085",
      "street": "R QUINTINHA S JOÃO",
      "house": "",
      "postcode": "9300-150",
      "city": "CÂMARA DE LOBOS",
      "lon": "-16.973248305439267",
      "lat": "32.65940850425648"
    },
    {
      "id": "pt.ine.add.MAD.96113",
      "street": "R QUINTINHA DE S JOÃO",
      "house": "",
      "postcode": "9300-150",
      "city": "CÂMARA DE LOBOS",
      "lon": "-16.972978973697195",
      "lat": "32.6602514715278"
    },
    {
      "id": "pt.ine.add.MAD.96186",
      "street": "ESTR JOÃO GONÇALVES ZARCO",
      "house": "478AA",
      "postcode": "9300-167",
      "city": "CÂMARA DE LOBOS",
      "lon": "-16.974199615384897",
      "lat": "32.659519799317316"
    },
    {
      "id": "pt.ine.add.MAD.96204",
      "street": "R QUINTINHA DE S JOÃO",
      "house": "IV",
      "postcode": "9300-150",
      "city": "CÂMARA DE LOBOS",
      "lon": "-16.973646054279357",
      "lat": "32.66004256978979"
    },
    {
      "id": "pt.ine.add.MAD.97005",
      "street": "R QUINTINHA DE S JOÃO",
      "house": "1",
      "postcode": "9300-150",
      "city": "CÂMARA DE LOBOS",
      "lon": "-16.973263520727613",
      "lat": "32.65961569318734"
    },
    {
      "id": "pt.ine.add.MAD.97056",
      "street": "R QUINTINHA DE S JOÃO",
      "house": "",
      "postcode": "9300-150",
      "city": "CÂMARA DE LOBOS",
      "lon": "-16.97308150523299",
      "lat": "32.659095475851295"
    },
    {
      "id": "pt.ine.add.MAD.97157",
      "street": "ESTR JOÃO GONÇALVES ZARCO",
      "house": "472",
      "postcode": "9300-167",
      "city": "CÂMARA DE LOBOS",
      "lon": "-16.975088065992058",
      "lat": "32.6587121779337"
    },
    {
      "id": "pt.ine.add.MAD.97531",
      "street": "ESTR JOAO GONCALVES ZARCO AA",
      "house": "AA",
      "postcode": "9300-167",
      "city": "CÂMARA DE LOBOS",
      "lon": "-16.97446779315854",
      "lat": "32.65910974141754"
    },
    {
      "id": "pt.ine.add.MAD.97672",
      "street": "R QUINTINHA S JOAO",
      "house": "",
      "postcode": "9300-150",
      "city": "CÂMARA DE LOBOS",
      "lon": "-16.97359787379496",
      "lat": "32.65979080641908"
    },
    {
      "id": "pt.ine.add.MAD.97952",
      "street": "ESTR JOÃO GONÇALVES ZARCO",
      "house": "476 A",
      "postcode": "9300-167",
      "city": "CÂMARA DE LOBOS",
      "lon": "-16.974676435688362",
      "lat": "32.65938603484769"
    },
    {
      "id": "pt.ine.add.MAD.98499",
      "street": "R QUINTINHA S JOÃO",
      "house": "",
      "postcode": "9300-150",
      "city": "CÂMARA DE LOBOS",
      "lon": "-16.97297184094675",
      "lat": "32.65992691341892"
    },
    {
      "id": "pt.ine.add.MAD.98854",
      "street": "ESTR JOÃO GONÇALVES ZARCO",
      "house": "478AA",
      "postcode": "9300-167",
      "city": "CÂMARA DE LOBOS",
      "lon": "-16.973759874666296",
      "lat": "32.65940045737936"
    },
    {
      "id": "pt.ine.add.MAD.98879",
      "street": "R QUINTINHA DE S JOAO",
      "house": "BLOCO 5",
      "postcode": "9300-150",
      "city": "CÂMARA DE LOBOS",
      "lon": "-16.97291300469142",
      "lat": "32.65967531730453"
    },
    {
      "id": "pt.ine.add.MAD.99307",
      "street": "R QUINTINHA DE S JOÃO",
      "house": "IV",
      "postcode": "9300-150",
      "city": "CÂMARA DE LOBOS",
      "lon": "-16.973646054279357",
      "lat": "32.66004256978979"
    },
    {
      "id": "pt.ine.add.MAD.99308",
      "street": "R QUINTINHA DE S JOÃO",
      "house": "IV",
      "postcode": "9300-150",
      "city": "CÂMARA DE LOBOS",
      "lon": "-16.973646054279357",
      "lat": "32.66004256978979"
    },
    {
      "id": "pt.ine.add.MAD.100345",
      "street": "R QUINTINHA DE S JOÃO",
      "house": "",
      "postcode": "9300-150",
      "city": "CÂMARA DE LOBOS",
      "lon": "-16.97321225624962",
      "lat": "32.660193691044114"
    },
    {
      "id": "pt.ine.add.MAD.100346",
      "street": "ESTR JOÃO GONÇALVES ZARCO",
      "house": "478AA",
      "postcode": "9300-167",
      "city": "CÂMARA DE LOBOS",
      "lon": "-16.973759874666296",
      "lat": "32.65940045737936"
    },
    {
      "id": "pt.ine.add.MAD.100603",
      "street": "R QUINTINHA DE S JOÃO",
      "house": "",
      "postcode": "9300-150",
      "city": "CÂMARA DE LOBOS",
      "lon": "-16.97308150523299",
      "lat": "32.659095475851295"
    },
    {
      "id": "pt.ine.add.MAD.100998",
      "street": "CAM S JOAO",
      "house": "41",
      "postcode": "9300-150",
      "city": "CÂMARA DE LOBOS",
      "lon": "-16.974993268722546",
      "lat": "32.663610776989024"
    },
    {
      "id": "pt.ine.add.MAD.101126",
      "street": "R QUINTINHA DE S JOÃO",
      "house": "",
      "postcode": "9300-150",
      "city": "CÂMARA DE LOBOS",
      "lon": "-16.973319540562173",
      "lat": "32.65925406734535"
    },
    {
      "id": "pt.ine.add.MAD.102236",
      "street": "R QUINTINHA DE S JOÃO",
      "house": "",
      "postcode": "9300-150",
      "city": "CÂMARA DE LOBOS",
      "lon": "-16.973322357908796",
      "lat": "32.65986728910329"
    },
    {
      "id": "pt.ine.add.MAD.102242",
      "street": "ESTR JOÃO GONÇALVES ZARCO",
      "house": "478AA",
      "postcode": "9300-167",
      "city": "CÂMARA DE LOBOS",
      "lon": "-16.974199615384897",
      "lat": "32.659519799317316"
    },
    {
      "id": "pt.ine.add.MAD.102856",
      "street": "ESTR JOÃO GONÇALVES ZARCO",
      "house": "472",
      "postcode": "9300-167",
      "city": "CÂMARA DE LOBOS",
      "lon": "-16.97510328531167",
      "lat": "32.65891936650425"
    },
    {
      "id": "pt.ine.add.MAD.102943",
      "street": "ESTR JOÃO GONÇALVES ZARCO",
      "house": "476 A",
      "postcode": "9300-167",
      "city": "CÂMARA DE LOBOS",
      "lon": "-16.974676435688362",
      "lat": "32.65938603484769"
    },
    {
      "id": "pt.ine.add.MAD.103015",
      "street": "CAM S JOAO",
      "house": "CC",
      "postcode": "9300-150",
      "city": "CÂMARA DE LOBOS",
      "lon": "-16.97304640363264",
      "lat": "32.65943873541393"
    },
    {
      "id": "pt.ine.add.MAD.106419",
      "street": "CAM DA BELA VISTA",
      "house": "28 A",
      "postcode": "9304-007",
      "city": "CÂMARA DE LOBOS",
      "lon": "-16.975028706990074",
      "lat": "32.66279854417447"
    },
    {
      "id": "pt.ine.add.MAD.106952",
      "street": "ESTR JOÃO GONÇALVES ZARCO JARDINS DO SOL 1",
      "house": "476 A",
      "postcode": "9300-167",
      "city": "CÂMARA DE LOBOS",
      "lon": "-16.974793670190493",
      "lat": "32.65938418962287"
    },
    {
      "id": "pt.ine.add.MAD.114334",
      "street": "ESTR JOÃO GONÇALVES ZARCO JARDINS DO SUL",
      "house": "478 AA",
      "postcode": "9300-167",
      "city": "CÂMARA DE LOBOS",
      "lon": "-16.973911857413768",
      "lat": "32.659524326964856"
    },
    {
      "id": "pt.ine.add.MAD.121217",
      "street": "CAM BELA VISTA",
      "house": "31",
      "postcode": "9300-027",
      "city": "CÂMARA DE LOBOS",
      "lon": "-16.975272201350784",
      "lat": "32.66223555680422"
    },
    {
      "id": "pt.ine.add.MAD.122310",
      "street": "R QUINTINHA S JOÃO",
      "house": "",
      "postcode": "9300-150",
      "city": "CÂMARA DE LOBOS",
      "lon": "-16.972863835923174",
      "lat": "32.65937847602865"
    },
    {
      "id": "pt.ine.add.MAD.122311",
      "street": "R QUINTINHA S JOÃO",
      "house": "",
      "postcode": "9300-150",
      "city": "CÂMARA DE LOBOS",
      "lon": "-16.973248305439267",
      "lat": "32.65940850425648"
    },
    {
      "id": "pt.ine.add.MAD.123135",
      "street": "R QUINTINHA DE S JOÃO",
      "house": "1",
      "postcode": "9300-150",
      "city": "CÂMARA DE LOBOS",
      "lon": "-16.973263520727613",
      "lat": "32.65961569318734"
    },
    {
      "id": "pt.ine.add.MAD.123335",
      "street": "R QUINTINHA DE S JOÃO",
      "house": "",
      "postcode": "9300-150",
      "city": "CÂMARA DE LOBOS",
      "lon": "-16.972848819736953",
      "lat": "32.65918030250997"
    },
    {
      "id": "pt.ine.add.MAD.125173",
      "street": "R QUINTINHA DE S JOÃO",
      "house": "",
      "postcode": "9300-150",
      "city": "CÂMARA DE LOBOS",
      "lon": "-16.973319540562173",
      "lat": "32.65925406734535"
    },
    {
      "id": "pt.ine.add.MAD.125383",
      "street": "R QUINTINHA DE S JOÃO",
      "house": "IV",
      "postcode": "9300-150",
      "city": "CÂMARA DE LOBOS",
      "lon": "-16.973646054279357",
      "lat": "32.66004256978979"
    },
    {
      "id": "pt.ine.add.MAD.125752",
      "street": "ESTR JOÃO GONÇALVES ZARCO",
      "house": "518",
      "postcode": "9300-167",
      "city": "CÂMARA DE LOBOS",
      "lon": "-16.97546518059702",
      "lat": "32.66179962496133"
    },
    {
      "id": "pt.ine.add.MAD.125908",
      "street": "ESTR JOÃO GONÇALVES ZARCO",
      "house": "478AA",
      "postcode": "9300-167",
      "city": "CÂMARA DE LOBOS",
      "lon": "-16.973759874666296",
      "lat": "32.65940045737936"
    },
    {
      "id": "pt.ine.add.MAD.127129",
      "street": "TV QUINTINHA",
      "house": "13",
      "postcode": "9300-137",
      "city": "CÂMARA DE LOBOS",
      "lon": "-16.973764586200062",
      "lat": "32.659129824716935"
    },
    {
      "id": "pt.ine.add.MAD.129486",
      "street": "ESTR JOÃO GONÇALVES ZARCO",
      "house": "520",
      "postcode": "9300-167",
      "city": "CÂMARA DE LOBOS",
      "lon": "-16.975583863137004",
      "lat": "32.66234789135588"
    },
    {
      "id": "pt.ine.add.MAD.129490",
      "street": "R QUINTINHA DE S JOÃO",
      "house": "",
      "postcode": "9300-150",
      "city": "CÂMARA DE LOBOS",
      "lon": "-16.973319540562173",
      "lat": "32.65925406734535"
    }
  ]
}