{
  "data": {
    "distrito": "Beja",
    "concelho": "Beja",
    "freguesia": "União das freguesias de Santa Vitória e Mombeja",
    "OBJECTID": 586,
    "BGRI2021": "02052300108",
    "DT21": "02",
    "DTMN21": "0205",
    "DTMNFR21": "020523",
    "DTMNFRSEC21": "020523001",
    "SECNUM21": "001",
    "SSNUM21": "08",
    "SECSSNUM21": "00108",
    "OBJECTID_1": 14079,
    "DT": "02",
    "CC": "05",
    "fr": "23",
    "SEC": "001",
    "SS": "08"
  },
  "addresses": [
    {
      "id": "pt.ine.add.PTCONT.368254",
      "street": "R 1 DE MAIO",
      "house": "2",
      "postcode": "7800-731",
      "city": "SANTA VITÓRIA",
      "lon": "-8.046087111297899",
      "lat": "37.907461984725906"
    },
    {
      "id": "pt.ine.add.PTCONT.371093",
      "street": "R 1 DE MAIO",
      "house": "8",
      "postcode": "7800-731",
      "city": "SANTA VITÓRIA",
      "lon": "-8.046256523258865",
      "lat": "37.90731443801578"
    },
    {
      "id": "pt.ine.add.PTCONT.383371",
      "street": "LG BICAS",
      "house": "2",
      "postcode": "7800-731",
      "city": "SANTA VITÓRIA",
      "lon": "-8.046138086666836",
      "lat": "37.90748986876297"
    },
    {
      "id": "pt.ine.add.PTCONT.384433",
      "street": "LG DAS BICAS",
      "house": "1",
      "postcode": "7800-731",
      "city": "SANTA VITÓRIA",
      "lon": "-8.046427283614866",
      "lat": "37.90746309163298"
    },
    {
      "id": "pt.ine.add.PTCONT.384434",
      "street": "R 1 DE MAIO",
      "house": "6",
      "postcode": "7800-731",
      "city": "SANTA VITÓRIA",
      "lon": "-8.046215933266717",
      "lat": "37.90735120348976"
    },
    {
      "id": "pt.ine.add.PTCONT.390014",
      "street": "LG BICAS",
      "house": "3",
      "postcode": "7800-731",
      "city": "SANTA VITÓRIA",
      "lon": "-8.046418713905357",
      "lat": "37.90741796337047"
    },
    {
      "id": "pt.ine.add.PTCONT.402916",
      "street": "TV VENTO",
      "house": "6",
      "postcode": "7800-731",
      "city": "SANTA VITÓRIA",
      "lon": "-8.046347487145999",
      "lat": "37.90731802598978"
    },
    {
      "id": "pt.ine.add.PTCONT.413374",
      "street": "R 1 MAIO",
      "house": "4",
      "postcode": "7800-731",
      "city": "SANTA VITÓRIA",
      "lon": "-8.046146533177621",
      "lat": "37.907411522654684"
    },
    {
      "id": "pt.ine.add.PTCONT.452849",
      "street": "LG BICAS",
      "house": "4",
      "postcode": "7800-731",
      "city": "SANTA VITÓRIA",
      "lon": "-8.046219804167878",
      "lat": "37.90739454172798"
    }
  ]
}