{
  "data": {
    "distrito": "Beja",
    "concelho": "Beja",
    "freguesia": "União das freguesias de Santa Vitória e Mombeja",
    "OBJECTID": 755,
    "BGRI2021": "02052300133",
    "DT21": "02",
    "DTMN21": "0205",
    "DTMNFR21": "020523",
    "DTMNFRSEC21": "020523001",
    "SECNUM21": "001",
    "SSNUM21": "33",
    "SECSSNUM21": "00133",
    "OBJECTID_1": 13398,
    "DT": "02",
    "CC": "05",
    "fr": "23",
    "SEC": "001",
    "SS": "33"
  },
  "addresses": [
    {
      "id": "pt.ine.add.PTCONT.360615",
      "street": "R DA PRAÇA",
      "house": "1",
      "postcode": "7800-732",
      "city": "SANTA VITÓRIA",
      "lon": "-8.025998113004349",
      "lat": "37.966763226306504"
    },
    {
      "id": "pt.ine.add.PTCONT.372814",
      "street": "R PRAÇA",
      "house": "7",
      "postcode": "7800-732",
      "city": "SANTA VITÓRIA",
      "lon": "-8.025634158068973",
      "lat": "37.96661874489231"
    },
    {
      "id": "pt.ine.add.PTCONT.384431",
      "street": "R IGREJA",
      "house": "2",
      "postcode": "7800-732",
      "city": "SANTA VITÓRIA",
      "lon": "-8.025913241241058",
      "lat": "37.967033759902925"
    },
    {
      "id": "pt.ine.add.PTCONT.441149",
      "street": "R BOA VISTA",
      "house": "27",
      "postcode": "7800-732",
      "city": "SANTA VITÓRIA",
      "lon": "-8.025512456907448",
      "lat": "37.96700055497185"
    },
    {
      "id": "pt.ine.add.PTCONT.445526",
      "street": "R PRAÇA",
      "house": "3",
      "postcode": "7800-732",
      "city": "SANTA VITÓRIA",
      "lon": "-8.025850262692643",
      "lat": "37.966700026202815"
    }
  ]
}