{
  "data": {
    "distrito": "Leiria",
    "concelho": "Batalha",
    "freguesia": "Golpilheira",
    "OBJECTID": 56,
    "BGRI2021": "10040400111",
    "DT21": "10",
    "DTMN21": "1004",
    "DTMNFR21": "100404",
    "DTMNFRSEC21": "100404001",
    "SECNUM21": "001",
    "SSNUM21": "11",
    "SECSSNUM21": "00111",
    "OBJECTID_1": 87055,
    "DT": "10",
    "CC": "04",
    "fr": "04",
    "SEC": "001",
    "SS": "11"
  },
  "addresses": [
    {
      "id": "pt.ine.add.PTCONT.1979557",
      "street": "R BATALHA",
      "house": "155",
      "postcode": "2440-233",
      "city": "GOLPILHEIRA",
      "lon": "-8.819101673481049",
      "lat": "39.68048083549843"
    },
    {
      "id": "pt.ine.add.PTCONT.2084047",
      "street": "R BATALHA",
      "house": "351",
      "postcode": "2440-233",
      "city": "GOLPILHEIRA",
      "lon": "-8.819049511052135",
      "lat": "39.67874287421549"
    },
    {
      "id": "pt.ine.add.PTCONT.2089668",
      "street": "R CARRASCAL",
      "house": "15",
      "postcode": "2440-236",
      "city": "GOLPILHEIRA",
      "lon": "-8.819437897255128",
      "lat": "39.675588276154976"
    },
    {
      "id": "pt.ine.add.PTCONT.2091982",
      "street": "R BATALHA",
      "house": "107",
      "postcode": "2440-233",
      "city": "GOLPILHEIRA",
      "lon": "-8.818974799782106",
      "lat": "39.68061668354568"
    },
    {
      "id": "pt.ine.add.PTCONT.2108870",
      "street": "LG NSA SRA DA CONCEIÇÃO",
      "house": "2",
      "postcode": "2440-236",
      "city": "GOLPILHEIRA",
      "lon": "-8.817522318548225",
      "lat": "39.67989572038058"
    },
    {
      "id": "pt.ine.add.PTCONT.2108871",
      "street": "LG NSA SRA DA CONCEIÇÃO",
      "house": "2",
      "postcode": "2440-236",
      "city": "GOLPILHEIRA",
      "lon": "-8.817522318548225",
      "lat": "39.67989572038058"
    },
    {
      "id": "pt.ine.add.PTCONT.2113118",
      "street": "R BATALHA",
      "house": "231",
      "postcode": "2440-233",
      "city": "GOLPILHEIRA",
      "lon": "-8.819386552489172",
      "lat": "39.67982167221737"
    },
    {
      "id": "pt.ine.add.PTCONT.2179171",
      "street": "LG NSA SRA CONCEIÇÃO",
      "house": "32C",
      "postcode": "2440-236",
      "city": "GOLPILHEIRA",
      "lon": "-8.817495807548099",
      "lat": "39.67957163983039"
    },
    {
      "id": "pt.ine.add.PTCONT.2183645",
      "street": "R CARRASCAL",
      "house": "311",
      "postcode": "2440-236",
      "city": "GOLPILHEIRA",
      "lon": "-8.818999489859744",
      "lat": "39.67722105768755"
    },
    {
      "id": "pt.ine.add.PTCONT.2210551",
      "street": "LG NSA SRA CONCEIÇÃO",
      "house": "30C",
      "postcode": "2440-236",
      "city": "GOLPILHEIRA",
      "lon": "-8.817438597653078",
      "lat": "39.67968005591177"
    },
    {
      "id": "pt.ine.add.PTCONT.2247681",
      "street": "LG NSA SRA CONCEIÇÃO",
      "house": "360",
      "postcode": "2440-236",
      "city": "GOLPILHEIRA",
      "lon": "-8.817072929234534",
      "lat": "39.67924088786407"
    }
  ]
}