{
  "data": {
    "distrito": "Leiria",
    "concelho": "Batalha",
    "freguesia": "Golpilheira",
    "OBJECTID": 84,
    "BGRI2021": "10040400123",
    "DT21": "10",
    "DTMN21": "1004",
    "DTMNFR21": "100404",
    "DTMNFRSEC21": "100404001",
    "SECNUM21": "001",
    "SSNUM21": "23",
    "SECSSNUM21": "00123",
    "OBJECTID_1": 86700,
    "DT": "10",
    "CC": "04",
    "fr": "04",
    "SEC": "001",
    "SS": "23"
  },
  "addresses": [
    {
      "id": "pt.ine.add.PTCONT.2108730",
      "street": "R PADRE JOAQUIM COELHO PEREIRA",
      "house": "719",
      "postcode": "2440-234",
      "city": "GOLPILHEIRA",
      "lon": "-8.819332575945962",
      "lat": "39.68614460472217"
    },
    {
      "id": "pt.ine.add.PTCONT.2113879",
      "street": "R MESTRES",
      "house": "15",
      "postcode": "2440-234",
      "city": "GOLPILHEIRA",
      "lon": "-8.819135219110448",
      "lat": "39.68622682993655"
    },
    {
      "id": "pt.ine.add.PTCONT.2208370",
      "street": "R OITEIRINHO",
      "house": "6",
      "postcode": "2440-234",
      "city": "GOLPILHEIRA",
      "lon": "-8.819126236545864",
      "lat": "39.686497080009545"
    },
    {
      "id": "pt.ine.add.PTCONT.2232162",
      "street": "R MESTRES",
      "house": "23",
      "postcode": "2440-234",
      "city": "GOLPILHEIRA",
      "lon": "-8.81913566475905",
      "lat": "39.686271860138966"
    },
    {
      "id": "pt.ine.add.PTCONT.2240520",
      "street": "ESCNH MESTRES",
      "house": "",
      "postcode": "2440-234",
      "city": "GOLPILHEIRA",
      "lon": "-8.818951211259888",
      "lat": "39.68648010074527"
    }
  ]
}