{
  "data": {
    "distrito": "Lisboa",
    "concelho": "Odivelas",
    "freguesia": "União das freguesias de Pontinha e Famões",
    "OBJECTID": 264,
    "BGRI2021": "11160800704",
    "DT21": "11",
    "DTMN21": "1116",
    "DTMNFR21": "111608",
    "DTMNFRSEC21": "111608007",
    "SECNUM21": "007",
    "SSNUM21": "04",
    "SECSSNUM21": "00704",
    "OBJECTID_1": 119989,
    "DT": "11",
    "CC": "16",
    "fr": "08",
    "SEC": "007",
    "SS": "04"
  },
  "addresses": [
    {
      "id": "pt.ine.add.PTCONT.2365378",
      "street": "R DA LIBERDADE",
      "house": "",
      "postcode": "1675-170",
      "city": "PONTINHA",
      "lon": "-9.215442394472186",
      "lat": "38.77739515605206"
    },
    {
      "id": "pt.ine.add.PTCONT.2365379",
      "street": "R DA LIBERDADE",
      "house": "",
      "postcode": "1675-170",
      "city": "PONTINHA",
      "lon": "-9.215442394472186",
      "lat": "38.77739515605206"
    },
    {
      "id": "pt.ine.add.PTCONT.2365380",
      "street": "R DA LIBERDADE",
      "house": "",
      "postcode": "1675-170",
      "city": "PONTINHA",
      "lon": "-9.215442394472186",
      "lat": "38.77739515605206"
    },
    {
      "id": "pt.ine.add.PTCONT.2447178",
      "street": "R LIBERDADE",
      "house": "13",
      "postcode": "1675-022",
      "city": "PONTINHA",
      "lon": "-9.215416796280113",
      "lat": "38.777224245949554"
    },
    {
      "id": "pt.ine.add.PTCONT.2447179",
      "street": "R LIBERDADE",
      "house": "13",
      "postcode": "1675-022",
      "city": "PONTINHA",
      "lon": "-9.215416796280113",
      "lat": "38.777224245949554"
    },
    {
      "id": "pt.ine.add.PTCONT.2448043",
      "street": "R LIBERDADE",
      "house": "13",
      "postcode": "1675-022",
      "city": "PONTINHA",
      "lon": "-9.215416796280113",
      "lat": "38.777224245949554"
    },
    {
      "id": "pt.ine.add.PTCONT.2448467",
      "street": "R LIBERDADE",
      "house": "13",
      "postcode": "1675-022",
      "city": "PONTINHA",
      "lon": "-9.215416796280113",
      "lat": "38.777224245949554"
    },
    {
      "id": "pt.ine.add.PTCONT.2483734",
      "street": "R LIBERDADE",
      "house": "12",
      "postcode": "1675-022",
      "city": "PONTINHA",
      "lon": "-9.215406788001056",
      "lat": "38.77732342386193"
    },
    {
      "id": "pt.ine.add.PTCONT.2528868",
      "street": "R FLORES",
      "house": "",
      "postcode": "1675-011",
      "city": "PONTINHA",
      "lon": "-9.215863478271524",
      "lat": "38.777084991782964"
    },
    {
      "id": "pt.ine.add.PTCONT.2565238",
      "street": "R LIBERDADE",
      "house": "6",
      "postcode": "1675-022",
      "city": "PONTINHA",
      "lon": "-9.215434156031284",
      "lat": "38.77761141827739"
    },
    {
      "id": "pt.ine.add.PTCONT.2592450",
      "street": "R RIBEIRO",
      "house": "8",
      "postcode": "1675-012",
      "city": "PONTINHA",
      "lon": "-9.215458801414716",
      "lat": "38.77771928296531"
    },
    {
      "id": "pt.ine.add.PTCONT.2742834",
      "street": "R RIBEIRO",
      "house": "21",
      "postcode": "1675-012",
      "city": "PONTINHA",
      "lon": "-9.215688373643706",
      "lat": "38.77768112539707"
    },
    {
      "id": "pt.ine.add.PTCONT.2978750",
      "street": "R FLORES",
      "house": "22",
      "postcode": "1675-011",
      "city": "PONTINHA",
      "lon": "-9.215858509740595",
      "lat": "38.7775174096617"
    },
    {
      "id": "pt.ine.add.PTCONT.3198440",
      "street": "R LIBERDADE",
      "house": "11",
      "postcode": "1675-022",
      "city": "PONTINHA",
      "lon": "-9.215419655158062",
      "lat": "38.77741338215726"
    },
    {
      "id": "pt.ine.add.PTCONT.3198441",
      "street": "R LIBERDADE",
      "house": "11",
      "postcode": "1675-022",
      "city": "PONTINHA",
      "lon": "-9.215419655158062",
      "lat": "38.77741338215726"
    },
    {
      "id": "pt.ine.add.PTCONT.3198442",
      "street": "R LIBERDADE",
      "house": "11",
      "postcode": "1675-022",
      "city": "PONTINHA",
      "lon": "-9.215419655158062",
      "lat": "38.77741338215726"
    }
  ]
}