{
  "data": {
    "distrito": "Lisboa",
    "concelho": "Odivelas",
    "freguesia": "União das freguesias de Pontinha e Famões",
    "OBJECTID": 247,
    "BGRI2021": "11160800709",
    "DT21": "11",
    "DTMN21": "1116",
    "DTMNFR21": "111608",
    "DTMNFRSEC21": "111608007",
    "SECNUM21": "007",
    "SSNUM21": "09",
    "SECSSNUM21": "00709",
    "OBJECTID_1": 119837,
    "DT": "11",
    "CC": "16",
    "fr": "08",
    "SEC": "007",
    "SS": "09"
  },
  "addresses": [
    {
      "id": "pt.ine.add.PTCONT.2393153",
      "street": "R LIBERDADE",
      "house": "",
      "postcode": "1675-043",
      "city": "PONTINHA",
      "lon": "-9.215441507705455",
      "lat": "38.778097768477934"
    },
    {
      "id": "pt.ine.add.PTCONT.2393154",
      "street": "R LIBERDADE",
      "house": "",
      "postcode": "1675-043",
      "city": "PONTINHA",
      "lon": "-9.215441507705455",
      "lat": "38.778097768477934"
    },
    {
      "id": "pt.ine.add.PTCONT.2393155",
      "street": "R LIBERDADE",
      "house": "",
      "postcode": "1675-043",
      "city": "PONTINHA",
      "lon": "-9.215441507705455",
      "lat": "38.778097768477934"
    },
    {
      "id": "pt.ine.add.PTCONT.2393596",
      "street": "R LIBERDADE",
      "house": "",
      "postcode": "1675-043",
      "city": "PONTINHA",
      "lon": "-9.215441507705455",
      "lat": "38.778097768477934"
    },
    {
      "id": "pt.ine.add.PTCONT.2402428",
      "street": "R FLORES",
      "house": "",
      "postcode": "1675-011",
      "city": "PONTINHA",
      "lon": "-9.21569395677896",
      "lat": "38.77805039125845"
    },
    {
      "id": "pt.ine.add.PTCONT.2402979",
      "street": "R FLORES",
      "house": "",
      "postcode": "1675-011",
      "city": "PONTINHA",
      "lon": "-9.21569395677896",
      "lat": "38.77805039125845"
    },
    {
      "id": "pt.ine.add.PTCONT.2446856",
      "street": "R CIDADE DE LISBOA",
      "house": "",
      "postcode": "1675-006",
      "city": "PONTINHA",
      "lon": "-9.215717855012063",
      "lat": "38.778869874657296"
    },
    {
      "id": "pt.ine.add.PTCONT.2446917",
      "street": "R CIDADE DE LISBOA",
      "house": "",
      "postcode": "1675-006",
      "city": "PONTINHA",
      "lon": "-9.215717855012063",
      "lat": "38.778869874657296"
    },
    {
      "id": "pt.ine.add.PTCONT.2571161",
      "street": "R CIDADE DE LISBOA",
      "house": "34",
      "postcode": "1675-006",
      "city": "PONTINHA",
      "lon": "-9.216062354772928",
      "lat": "38.77882164378972"
    },
    {
      "id": "pt.ine.add.PTCONT.2623215",
      "street": "R FLORES",
      "house": "18",
      "postcode": "1675-011",
      "city": "PONTINHA",
      "lon": "-9.215891736257971",
      "lat": "38.778192682730754"
    },
    {
      "id": "pt.ine.add.PTCONT.2623216",
      "street": "R FLORES",
      "house": "18",
      "postcode": "1675-011",
      "city": "PONTINHA",
      "lon": "-9.215891736257971",
      "lat": "38.778192682730754"
    },
    {
      "id": "pt.ine.add.PTCONT.2628324",
      "street": "R FLORES",
      "house": "18",
      "postcode": "1675-011",
      "city": "PONTINHA",
      "lon": "-9.215891736257971",
      "lat": "38.778192682730754"
    },
    {
      "id": "pt.ine.add.PTCONT.2628325",
      "street": "R FLORES",
      "house": "18",
      "postcode": "1675-011",
      "city": "PONTINHA",
      "lon": "-9.215891736257971",
      "lat": "38.778192682730754"
    },
    {
      "id": "pt.ine.add.PTCONT.2644955",
      "street": "R CIDADE DE LISBOA",
      "house": "33",
      "postcode": "1675-006",
      "city": "PONTINHA",
      "lon": "-9.215878530826203",
      "lat": "38.77884136272314"
    },
    {
      "id": "pt.ine.add.PTCONT.2924111",
      "street": "R LIBERDADE",
      "house": "",
      "postcode": "1675-043",
      "city": "PONTINHA",
      "lon": "-9.215409848923835",
      "lat": "38.77828722436078"
    },
    {
      "id": "pt.ine.add.PTCONT.2960422",
      "street": "R RIBEIRO",
      "house": "",
      "postcode": "1675-320",
      "city": "PONTINHA",
      "lon": "-9.215783416429383",
      "lat": "38.77787841527384"
    },
    {
      "id": "pt.ine.add.PTCONT.3015119",
      "street": "R FLORES",
      "house": "17",
      "postcode": "1675-011",
      "city": "PONTINHA",
      "lon": "-9.215963087353945",
      "lat": "38.778345153238135"
    },
    {
      "id": "pt.ine.add.PTCONT.3015120",
      "street": "R FLORES",
      "house": "17",
      "postcode": "1675-011",
      "city": "PONTINHA",
      "lon": "-9.215963087353945",
      "lat": "38.778345153238135"
    },
    {
      "id": "pt.ine.add.PTCONT.3042345",
      "street": "R FLORES",
      "house": "",
      "postcode": "1675-011",
      "city": "PONTINHA",
      "lon": "-9.215854766967285",
      "lat": "38.77803088586331"
    },
    {
      "id": "pt.ine.add.PTCONT.3145385",
      "street": "R DO RIBEIRO",
      "house": "",
      "postcode": "1685-721",
      "city": "FAMÕES",
      "lon": "-9.215840809590588",
      "lat": "38.77786887576337"
    },
    {
      "id": "pt.ine.add.PTCONT.3301136",
      "street": "R RIBEIRO",
      "house": "",
      "postcode": "1675-320",
      "city": "PONTINHA",
      "lon": "-9.215496314234635",
      "lat": "38.77791710592159"
    },
    {
      "id": "pt.ine.add.PTCONT.3455471",
      "street": "R CIDADE DE LISBOA",
      "house": "34",
      "postcode": "1675-006",
      "city": "PONTINHA",
      "lon": "-9.216062354772928",
      "lat": "38.77882164378972"
    }
  ]
}