{
  "data": {
    "distrito": "Ã‰vora",
    "concelho": "Vendas Novas",
    "freguesia": "Landeira",
    "OBJECTID": 57,
    "BGRI2021": "07120200101",
    "DT21": "07",
    "DTMN21": "0712",
    "DTMNFR21": "071202",
    "DTMNFRSEC21": "071202001",
    "SECNUM21": "001",
    "SSNUM21": "01",
    "SECSSNUM21": "00101",
    "OBJECTID_1": 63630,
    "DT": "07",
    "CC": "12",
    "fr": "02",
    "SEC": "001",
    "SS": "01"
  },
  "addresses": [
    {
      "id": "pt.ine.add.PTCONT.1369002",
      "street": "QTA DO SOUSA",
      "house": "",
      "postcode": "2965-431",
      "city": "LANDEIRA",
      "lon": "-8.622975886138617",
      "lat": "38.577147230872235"
    },
    {
      "id": "pt.ine.add.PTCONT.1375822",
      "street": "QTA DO SOUSA",
      "house": "CP 3223",
      "postcode": "2965-431",
      "city": "LANDEIRA",
      "lon": "-8.622746561335664",
      "lat": "38.577175215410364"
    },
    {
      "id": "pt.ine.add.PTCONT.1391699",
      "street": "QTA DO SOUSA",
      "house": "CP 3223",
      "postcode": "2965-431",
      "city": "LANDEIRA",
      "lon": "-8.623531933818843",
      "lat": "38.57622605243766"
    },
    {
      "id": "pt.ine.add.PTCONT.1396437",
      "street": "QTA DO SOUSA",
      "house": "",
      "postcode": "2965-431",
      "city": "LANDEIRA",
      "lon": "-8.622698884188734",
      "lat": "38.5770869629292"
    },
    {
      "id": "pt.ine.add.PTCONT.1405816",
      "street": "PTE MOINHOLA",
      "house": "",
      "postcode": "2965-431",
      "city": "LANDEIRA",
      "lon": "-8.622824196195353",
      "lat": "38.57695131371681"
    },
    {
      "id": "pt.ine.add.PTCONT.1408030",
      "street": "MTE DA MOINHOLA",
      "house": "",
      "postcode": "2965-431",
      "city": "LANDEIRA",
      "lon": "-8.624820778279398",
      "lat": "38.575067578448184"
    },
    {
      "id": "pt.ine.add.PTCONT.1419422",
      "street": "SIT MOINHOLA VELHA",
      "house": "CP 3602",
      "postcode": "2965-431",
      "city": "LANDEIRA",
      "lon": "-8.62323868618427",
      "lat": "38.57529041397206"
    },
    {
      "id": "pt.ine.add.PTCONT.1451877",
      "street": "MOINHOLA VELHA",
      "house": "",
      "postcode": "2965-431",
      "city": "LANDEIRA",
      "lon": "-8.625423515346816",
      "lat": "38.57538087708305"
    },
    {
      "id": "pt.ine.add.PTCONT.1452647",
      "street": "MOINHOLA VELHA",
      "house": "",
      "postcode": "2965-431",
      "city": "LANDEIRA",
      "lon": "-8.623151174423201",
      "lat": "38.57669352663369"
    },
    {
      "id": "pt.ine.add.PTCONT.1453086",
      "street": "MOINHOLA VELHA",
      "house": "",
      "postcode": "2965-431",
      "city": "LANDEIRA",
      "lon": "-8.623481439609565",
      "lat": "38.57555063893356"
    },
    {
      "id": "pt.ine.add.PTCONT.1456489",
      "street": "MTE DA MOINHOLA",
      "house": "",
      "postcode": "2965-431",
      "city": "LANDEIRA",
      "lon": "-8.62500358094726",
      "lat": "38.57494970201935"
    },
    {
      "id": "pt.ine.add.PTCONT.1462653",
      "street": "QTA DO SOUSA",
      "house": "",
      "postcode": "2965-431",
      "city": "LANDEIRA",
      "lon": "-8.622894946537157",
      "lat": "38.57705748626669"
    }
  ]
}