{
  "data": {
    "distrito": "Porto",
    "concelho": "Marco de Canaveses",
    "freguesia": "Tabuado",
    "OBJECTID": 751,
    "BGRI2021": "13072400109",
    "DT21": "13",
    "DTMN21": "1307",
    "DTMNFR21": "130724",
    "DTMNFRSEC21": "130724001",
    "SECNUM21": "001",
    "SSNUM21": "09",
    "SECSSNUM21": "00109",
    "OBJECTID_1": 131602,
    "DT": "13",
    "CC": "07",
    "fr": "24",
    "SEC": "001",
    "SS": "09"
  },
  "addresses": [
    {
      "id": "pt.ine.add.PTCONT.3650499",
      "street": "R PESO",
      "house": "54",
      "postcode": "4635-463",
      "city": "TABUADO",
      "lon": "-8.117518696907018",
      "lat": "41.183123180296604"
    },
    {
      "id": "pt.ine.add.PTCONT.3728954",
      "street": "R POCA GRANDE",
      "house": "405",
      "postcode": "4635-477",
      "city": "TABUADO",
      "lon": "-8.11748339029934",
      "lat": "41.181232261979005"
    },
    {
      "id": "pt.ine.add.PTCONT.3754101",
      "street": "R POCA GRANDE",
      "house": "213",
      "postcode": "4635-477",
      "city": "TABUADO",
      "lon": "-8.117685858422611",
      "lat": "41.18184458514684"
    },
    {
      "id": "pt.ine.add.PTCONT.3825619",
      "street": "R POCA GRANDE",
      "house": "291",
      "postcode": "4635-477",
      "city": "TABUADO",
      "lon": "-8.118019649424653",
      "lat": "41.181520472724706"
    },
    {
      "id": "pt.ine.add.PTCONT.3857524",
      "street": "R POCA GRANDE",
      "house": "263",
      "postcode": "4635-477",
      "city": "TABUADO",
      "lon": "-8.118138788230471",
      "lat": "41.18171858399357"
    },
    {
      "id": "pt.ine.add.PTCONT.4134282",
      "street": "PESO",
      "house": "",
      "postcode": "4635-463",
      "city": "TABUADO",
      "lon": "-8.117387892865036",
      "lat": "41.18186255356453"
    },
    {
      "id": "pt.ine.add.PTCONT.4134283",
      "street": "PESO",
      "house": "",
      "postcode": "4635-463",
      "city": "TABUADO",
      "lon": "-8.117387892865036",
      "lat": "41.18186255356453"
    },
    {
      "id": "pt.ine.add.PTCONT.4228295",
      "street": "R DR RAMIRO AFONSO PONTES",
      "house": "133",
      "postcode": "4635-477",
      "city": "TABUADO",
      "lon": "-8.116970618798637",
      "lat": "41.182384748169206"
    },
    {
      "id": "pt.ine.add.PTCONT.4274657",
      "street": "R POCA GRANDE",
      "house": "347",
      "postcode": "4635-477",
      "city": "TABUADO",
      "lon": "-8.117781361371167",
      "lat": "41.181178275906106"
    },
    {
      "id": "pt.ine.add.PTCONT.4274868",
      "street": "R POCA GRANDE",
      "house": "347",
      "postcode": "4635-477",
      "city": "TABUADO",
      "lon": "-8.117781361371167",
      "lat": "41.181178275906106"
    },
    {
      "id": "pt.ine.add.PTCONT.4284387",
      "street": "R DR RAMIRO AFONSO PONTES",
      "house": "99",
      "postcode": "4635-477",
      "city": "TABUADO",
      "lon": "-8.117232887738941",
      "lat": "41.182132662816876"
    },
    {
      "id": "pt.ine.add.PTCONT.4354589",
      "street": "R DR RAMIRO AFONSO PONTES",
      "house": "51",
      "postcode": "4635-477",
      "city": "TABUADO",
      "lon": "-8.117650183528776",
      "lat": "41.181502415028255"
    }
  ]
}