{
  "data": {
    "distrito": "Aveiro",
    "concelho": "Anadia",
    "freguesia": "Avelãs de Caminho",
    "OBJECTID": 268,
    "BGRI2021": "01030400117",
    "DT21": "01",
    "DTMN21": "0103",
    "DTMNFR21": "010304",
    "DTMNFRSEC21": "010304001",
    "SECNUM21": "001",
    "SSNUM21": "17",
    "SECSSNUM21": "00117",
    "OBJECTID_1": 1966,
    "DT": "01",
    "CC": "03",
    "fr": "04",
    "SEC": "001",
    "SS": "17"
  },
  "addresses": [
    {
      "id": "pt.ine.add.PTCONT.332070",
      "street": "TV ARIEIRO",
      "house": "40",
      "postcode": "3780-351",
      "city": "AVELÃS DE CAMINHO",
      "lon": "-8.446485002339378",
      "lat": "40.48291084651054"
    },
    {
      "id": "pt.ine.add.PTCONT.337799",
      "street": "R AREEIRO",
      "house": "210",
      "postcode": "3780-351",
      "city": "AVELÃS DE CAMINHO",
      "lon": "-8.44633298096379",
      "lat": "40.483190426726075"
    },
    {
      "id": "pt.ine.add.PTCONT.351413",
      "street": "R CARTAXA",
      "house": "79",
      "postcode": "3780-351",
      "city": "AVELÃS DE CAMINHO",
      "lon": "-8.447341916064465",
      "lat": "40.48204399919633"
    },
    {
      "id": "pt.ine.add.PTCONT.18765",
      "street": "R ARIEIRO",
      "house": "76",
      "postcode": "3780-351",
      "city": "AVELÃS DE CAMINHO",
      "lon": "-8.447450200944031",
      "lat": "40.48250298140121"
    },
    {
      "id": "pt.ine.add.PTCONT.24137",
      "street": "R CARTAXA",
      "house": "47",
      "postcode": "3780-351",
      "city": "AVELÃS DE CAMINHO",
      "lon": "-8.447849546241036",
      "lat": "40.48215068305448"
    },
    {
      "id": "pt.ine.add.PTCONT.45940",
      "street": "TV AREEIRO",
      "house": "67",
      "postcode": "3780-357",
      "city": "AVELÃS DE CAMINHO",
      "lon": "-8.445859222072006",
      "lat": "40.482759449324384"
    },
    {
      "id": "pt.ine.add.PTCONT.75408",
      "street": "R PASSAL",
      "house": "",
      "postcode": "3780-351",
      "city": "AVELÃS DE CAMINHO",
      "lon": "-8.449953851412117",
      "lat": "40.4832165789637"
    },
    {
      "id": "pt.ine.add.PTCONT.112675",
      "street": "R CARTAXA",
      "house": "123",
      "postcode": "3780-351",
      "city": "AVELÃS DE CAMINHO",
      "lon": "-8.44701073002141",
      "lat": "40.481837774357764"
    },
    {
      "id": "pt.ine.add.PTCONT.155408",
      "street": "EN 1 NORTE",
      "house": "1935",
      "postcode": "3780-351",
      "city": "AVELÃS DE CAMINHO",
      "lon": "-8.449897295441636",
      "lat": "40.48373004306947"
    },
    {
      "id": "pt.ine.add.PTCONT.161502",
      "street": "TV AREEIRO",
      "house": "55",
      "postcode": "3780-357",
      "city": "AVELÃS DE CAMINHO",
      "lon": "-8.446013377035733",
      "lat": "40.48293914056568"
    },
    {
      "id": "pt.ine.add.PTCONT.168647",
      "street": "R ARIEIRO",
      "house": "42",
      "postcode": "3780-351",
      "city": "AVELÃS DE CAMINHO",
      "lon": "-8.447909944727781",
      "lat": "40.48245670299808"
    },
    {
      "id": "pt.ine.add.PTCONT.219846",
      "street": "R CARTAXA",
      "house": "",
      "postcode": "3780-351",
      "city": "AVELÃS DE CAMINHO",
      "lon": "-8.445405258855184",
      "lat": "40.48150892273844"
    }
  ]
}