{
  "data": {
    "distrito": "Santarém",
    "concelho": "Tomar",
    "freguesia": "União das freguesias de Tomar (São João Baptista) e Santa Maria dos Olivais",
    "OBJECTID": 1135,
    "BGRI2021": "14182101122",
    "DT21": "14",
    "DTMN21": "1418",
    "DTMNFR21": "141821",
    "DTMNFRSEC21": "141821011",
    "SECNUM21": "011",
    "SSNUM21": "22",
    "SECSSNUM21": "01122",
    "OBJECTID_1": 156578,
    "DT": "14",
    "CC": "18",
    "fr": "21",
    "SEC": "011",
    "SS": "22"
  },
  "addresses": [
    {
      "id": "pt.ine.add.PTCONT.4434662",
      "street": "R CARRASCAL",
      "house": "46A",
      "postcode": "2300-311",
      "city": "TOMAR",
      "lon": "-8.391034627351656",
      "lat": "39.62608166273341"
    },
    {
      "id": "pt.ine.add.PTCONT.4460975",
      "street": "R CONCHADAS",
      "house": "3",
      "postcode": "2300-331",
      "city": "TOMAR",
      "lon": "-8.392507513330829",
      "lat": "39.62439411822166"
    },
    {
      "id": "pt.ine.add.PTCONT.4521049",
      "street": "R PRINCIPAL",
      "house": "47",
      "postcode": "2300-331",
      "city": "TOMAR",
      "lon": "-8.39132988783195",
      "lat": "39.62717983191481"
    },
    {
      "id": "pt.ine.add.PTCONT.4566169",
      "street": "R CARRASCAL ALVITO",
      "house": "51",
      "postcode": "2300-331",
      "city": "TOMAR",
      "lon": "-8.391655708577202",
      "lat": "39.62709804637638"
    },
    {
      "id": "pt.ine.add.PTCONT.4566170",
      "street": "R CARRASCAL ALVITO",
      "house": "51",
      "postcode": "2300-331",
      "city": "TOMAR",
      "lon": "-8.391655708577202",
      "lat": "39.62709804637638"
    },
    {
      "id": "pt.ine.add.PTCONT.4617331",
      "street": "R PRINCIPAL",
      "house": "7",
      "postcode": "2300-331",
      "city": "TOMAR",
      "lon": "-8.391296452509103",
      "lat": "39.627585210514574"
    },
    {
      "id": "pt.ine.add.PTCONT.4625115",
      "street": "R CARRASCAL",
      "house": "46C",
      "postcode": "2300-311",
      "city": "TOMAR",
      "lon": "-8.392980155547168",
      "lat": "39.62620342166623"
    },
    {
      "id": "pt.ine.add.PTCONT.4647338",
      "street": "R PRINCIPAL CASAL DAS GAZETAS",
      "house": "49",
      "postcode": "2300-331",
      "city": "TOMAR",
      "lon": "-8.390842341537788",
      "lat": "39.62762224592526"
    },
    {
      "id": "pt.ine.add.PTCONT.4656050",
      "street": "R CARRASCAL",
      "house": "52",
      "postcode": "2300-311",
      "city": "TOMAR",
      "lon": "-8.390084567021685",
      "lat": "39.62743478263064"
    },
    {
      "id": "pt.ine.add.PTCONT.4658049",
      "street": "R CONCHADAS",
      "house": "",
      "postcode": "2300-331",
      "city": "TOMAR",
      "lon": "-8.393717898078693",
      "lat": "39.62415723337398"
    },
    {
      "id": "pt.ine.add.PTCONT.4658805",
      "street": "R CONCHADAS",
      "house": "3A",
      "postcode": "2300-331",
      "city": "TOMAR",
      "lon": "-8.39251966454287",
      "lat": "39.62452919258327"
    }
  ]
}