{
  "data": {
    "distrito": "Lisboa",
    "concelho": "Mafra",
    "freguesia": "Encarnação",
    "OBJECTID": 1365,
    "BGRI2021": "11090400227",
    "DT21": "11",
    "DTMN21": "1109",
    "DTMNFR21": "110904",
    "DTMNFRSEC21": "110904002",
    "SECNUM21": "002",
    "SSNUM21": "27",
    "SECSSNUM21": "00227",
    "OBJECTID_1": 107958,
    "DT": "11",
    "CC": "09",
    "fr": "04",
    "SEC": "002",
    "SS": "27"
  },
  "addresses": [
    {
      "id": "pt.ine.add.PTCONT.2298974",
      "street": "R CALFADA ESTREITA",
      "house": "2",
      "postcode": "2640-201",
      "city": "ENCARNAÇÃO",
      "lon": "-9.38584600367569",
      "lat": "39.059507434652886"
    },
    {
      "id": "pt.ine.add.PTCONT.2307989",
      "street": "R CALFADA ESTREITA",
      "house": "6",
      "postcode": "2640-201",
      "city": "ENCARNAÇÃO",
      "lon": "-9.385943344080564",
      "lat": "39.059785612435796"
    },
    {
      "id": "pt.ine.add.PTCONT.2613714",
      "street": "R TANOEIROS",
      "house": "2A",
      "postcode": "2640-262",
      "city": "ENCARNAÇÃO",
      "lon": "-9.3862757692933",
      "lat": "39.05963792498111"
    },
    {
      "id": "pt.ine.add.PTCONT.2722249",
      "street": "R CALFADA ESTREITA",
      "house": "8",
      "postcode": "2640-201",
      "city": "ENCARNAÇÃO",
      "lon": "-9.386197142911694",
      "lat": "39.05976487090783"
    },
    {
      "id": "pt.ine.add.PTCONT.2838668",
      "street": "R TANOEIROS",
      "house": "6",
      "postcode": "2640-262",
      "city": "ENCARNAÇÃO",
      "lon": "-9.386438435359588",
      "lat": "39.059690219981974"
    },
    {
      "id": "pt.ine.add.PTCONT.3069468",
      "street": "R TANOEIROS",
      "house": "2",
      "postcode": "2640-262",
      "city": "ENCARNAÇÃO",
      "lon": "-9.386100597529273",
      "lat": "39.059531720858786"
    },
    {
      "id": "pt.ine.add.PTCONT.3087029",
      "street": "R CALÃO DA ESTREITA",
      "house": "12",
      "postcode": "2640-201",
      "city": "ENCARNAÇÃO",
      "lon": "-9.38633973298971",
      "lat": "39.05998851879827"
    },
    {
      "id": "pt.ine.add.PTCONT.3106726",
      "street": "R CALFADA ESTREITA",
      "house": "3",
      "postcode": "2640-201",
      "city": "ENCARNAÇÃO",
      "lon": "-9.386360286910675",
      "lat": "39.059844182513565"
    },
    {
      "id": "pt.ine.add.PTCONT.3240846",
      "street": "R EIRA VELHA",
      "house": "2",
      "postcode": "2640-262",
      "city": "ENCARNAÇÃO",
      "lon": "-9.386733416379483",
      "lat": "39.060038330297935"
    },
    {
      "id": "pt.ine.add.PTCONT.3252747",
      "street": "R TANOEIROS",
      "house": "4",
      "postcode": "2640-262",
      "city": "ENCARNAÇÃO",
      "lon": "-9.386367856904076",
      "lat": "39.05961892086548"
    },
    {
      "id": "pt.ine.add.PTCONT.3280624",
      "street": "R CALÇADA ESTREITA",
      "house": "7",
      "postcode": "2640-201",
      "city": "ENCARNAÇÃO",
      "lon": "-9.386671202661638",
      "lat": "39.05978679722249"
    }
  ]
}