{
  "data": {
    "distrito": "Leiria",
    "concelho": "Pombal",
    "freguesia": "União das freguesias de Santiago e São Simão de Litém e Albergaria dos Doze",
    "OBJECTID": 2659,
    "BGRI2021": "10151900848",
    "DT21": "10",
    "DTMN21": "1015",
    "DTMNFR21": "101519",
    "DTMNFRSEC21": "101519008",
    "SECNUM21": "008",
    "SSNUM21": "48",
    "SECSSNUM21": "00848",
    "OBJECTID_1": 97653,
    "DT": "10",
    "CC": "15",
    "fr": "19",
    "SEC": "008",
    "SS": "48"
  },
  "addresses": [
    {
      "id": "pt.ine.add.PTCONT.1992371",
      "street": "R CASTANHEIRO",
      "house": "24",
      "postcode": "3100-081",
      "city": "ALBERGARIA DOS DOZE",
      "lon": "-8.612444848292665",
      "lat": "39.79772919204668"
    },
    {
      "id": "pt.ine.add.PTCONT.2003311",
      "street": "R PRINCIPAL",
      "house": "17",
      "postcode": "3100-092",
      "city": "ALBERGARIA DOS DOZE",
      "lon": "-8.612517252946242",
      "lat": "39.80143054536967"
    },
    {
      "id": "pt.ine.add.PTCONT.2082063",
      "street": "R EIRAS",
      "house": "",
      "postcode": "3100-092",
      "city": "ALBERGARIA DOS DOZE",
      "lon": "-8.614951812374652",
      "lat": "39.80059186820598"
    },
    {
      "id": "pt.ine.add.PTCONT.2100520",
      "street": "R PRINCIPAL",
      "house": "25",
      "postcode": "3100-092",
      "city": "ALBERGARIA DOS DOZE",
      "lon": "-8.613881245337778",
      "lat": "39.80111868282627"
    },
    {
      "id": "pt.ine.add.PTCONT.2125993",
      "street": "R PRINCIPAL",
      "house": "23",
      "postcode": "3100-092",
      "city": "ALBERGARIA DOS DOZE",
      "lon": "-8.613509110132618",
      "lat": "39.80133637886142"
    },
    {
      "id": "pt.ine.add.PTCONT.2182711",
      "street": "R CASTANHEIROS",
      "house": "31",
      "postcode": "3100-081",
      "city": "ALBERGARIA DOS DOZE",
      "lon": "-8.61294289585808",
      "lat": "39.79715072046533"
    },
    {
      "id": "pt.ine.add.PTCONT.2189361",
      "street": "R PRINCIPAL",
      "house": "",
      "postcode": "3100-092",
      "city": "ALBERGARIA DOS DOZE",
      "lon": "-8.614932294236684",
      "lat": "39.80114134276301"
    },
    {
      "id": "pt.ine.add.PTCONT.2238205",
      "street": "R CASTANHEIROS",
      "house": "",
      "postcode": "3100-081",
      "city": "ALBERGARIA DOS DOZE",
      "lon": "-8.61261773148685",
      "lat": "39.797404245351466"
    },
    {
      "id": "pt.ine.add.PTCONT.2254124",
      "street": "R CASTANHEIROS",
      "house": "29",
      "postcode": "3100-081",
      "city": "ALBERGARIA DOS DOZE",
      "lon": "-8.613059025412015",
      "lat": "39.797060175643104"
    },
    {
      "id": "pt.ine.add.PTCONT.2267490",
      "street": "R MURTELEIRA",
      "house": "",
      "postcode": "3100-092",
      "city": "ALBERGARIA DOS DOZE",
      "lon": "-8.60924894876584",
      "lat": "39.80159711170234"
    }
  ]
}