{
  "data": {
    "distrito": "Lisboa",
    "concelho": "Vila Franca de Xira",
    "freguesia": "Vialonga",
    "OBJECTID": 759,
    "BGRI2021": "11140801220",
    "DT21": "11",
    "DTMN21": "1114",
    "DTMNFR21": "111408",
    "DTMNFRSEC21": "111408012",
    "SECNUM21": "012",
    "SSNUM21": "20",
    "SECSSNUM21": "01220",
    "OBJECTID_1": 118111,
    "DT": "11",
    "CC": "14",
    "fr": "08",
    "SEC": "012",
    "SS": "20"
  },
  "addresses": [
    {
      "id": "pt.ine.add.PTCONT.2271979",
      "street": "PCT MIRANDAS",
      "house": "",
      "postcode": "2625-606",
      "city": "VIALONGA",
      "lon": "-9.101132666908132",
      "lat": "38.88576117683843"
    },
    {
      "id": "pt.ine.add.PTCONT.2271980",
      "street": "PCT MIRANDAS",
      "house": "",
      "postcode": "2625-606",
      "city": "VIALONGA",
      "lon": "-9.101132666908132",
      "lat": "38.88576117683843"
    },
    {
      "id": "pt.ine.add.PTCONT.2282929",
      "street": "BR FONTE SANTA",
      "house": "",
      "postcode": "2625-606",
      "city": "VIALONGA",
      "lon": "-9.102026183500422",
      "lat": "38.88790659459395"
    },
    {
      "id": "pt.ine.add.PTCONT.2291905",
      "street": "PCT MIRANDAS",
      "house": "",
      "postcode": "2625-606",
      "city": "VIALONGA",
      "lon": "-9.10176387380529",
      "lat": "38.886413500834195"
    },
    {
      "id": "pt.ine.add.PTCONT.2310124",
      "street": "R FONTE SANTA",
      "house": "",
      "postcode": "2625-606",
      "city": "VIALONGA",
      "lon": "-9.105599933519681",
      "lat": "38.89135383535829"
    },
    {
      "id": "pt.ine.add.PTCONT.2355054",
      "street": "R AFONSO DE ALBUQUERQUE",
      "house": "",
      "postcode": "2625-606",
      "city": "VIALONGA",
      "lon": "-9.10685380871662",
      "lat": "38.892018958172095"
    },
    {
      "id": "pt.ine.add.PTCONT.2447496",
      "street": "R FONTE SANTA",
      "house": "166-167",
      "postcode": "2625-606",
      "city": "VIALONGA",
      "lon": "-9.105332658554575",
      "lat": "38.89119392361926"
    },
    {
      "id": "pt.ine.add.PTCONT.2555021",
      "street": "R FONTE SANTA",
      "house": "",
      "postcode": "2625-606",
      "city": "VIALONGA",
      "lon": "-9.10436557318961",
      "lat": "38.89042731485812"
    },
    {
      "id": "pt.ine.add.PTCONT.2612841",
      "street": "PCT MIRANDAS",
      "house": "",
      "postcode": "2625-606",
      "city": "VIALONGA",
      "lon": "-9.101716310991616",
      "lat": "38.88630580356604"
    },
    {
      "id": "pt.ine.add.PTCONT.2644934",
      "street": "R FONTE SANTA",
      "house": "",
      "postcode": "2625-606",
      "city": "VIALONGA",
      "lon": "-9.101920142886879",
      "lat": "38.88773632913471"
    },
    {
      "id": "pt.ine.add.PTCONT.2689296",
      "street": "R MIRANTES",
      "house": "",
      "postcode": "2625-606",
      "city": "VIALONGA",
      "lon": "-9.101941134586845",
      "lat": "38.88673630565047"
    },
    {
      "id": "pt.ine.add.PTCONT.2784879",
      "street": "R MIRANTES",
      "house": "",
      "postcode": "2625-606",
      "city": "VIALONGA",
      "lon": "-9.101536577945552",
      "lat": "38.88664958520503"
    },
    {
      "id": "pt.ine.add.PTCONT.2784880",
      "street": "R MIRANTES",
      "house": "",
      "postcode": "2625-606",
      "city": "VIALONGA",
      "lon": "-9.101536577945552",
      "lat": "38.88664958520503"
    },
    {
      "id": "pt.ine.add.PTCONT.2784878",
      "street": "R MIRANTES",
      "house": "",
      "postcode": "2625-606",
      "city": "VIALONGA",
      "lon": "-9.101536577945552",
      "lat": "38.88664958520503"
    },
    {
      "id": "pt.ine.add.PTCONT.2893397",
      "street": "AV LIBERDADE",
      "house": "",
      "postcode": "2625-606",
      "city": "VIALONGA",
      "lon": "-9.101551554344136",
      "lat": "38.88605495589436"
    },
    {
      "id": "pt.ine.add.PTCONT.2959398",
      "street": "R AFONSO DE ALBUQUERQUE",
      "house": "",
      "postcode": "2625-606",
      "city": "VIALONGA",
      "lon": "-9.101955716998221",
      "lat": "38.88696137595289"
    },
    {
      "id": "pt.ine.add.PTCONT.3254783",
      "street": "R AFONSO DE ALBUQUERQUE",
      "house": "",
      "postcode": "2625-606",
      "city": "VIALONGA",
      "lon": "-9.106794217795349",
      "lat": "38.89187533287042"
    },
    {
      "id": "pt.ine.add.PTCONT.3452701",
      "street": "R FONTE SANTA",
      "house": "166-167",
      "postcode": "2625-606",
      "city": "VIALONGA",
      "lon": "-9.105332658554575",
      "lat": "38.89119392361926"
    }
  ]
}