{
  "data": {
    "distrito": "Lisboa",
    "concelho": "Torres Vedras",
    "freguesia": "Ventosa",
    "OBJECTID": 3,
    "BGRI2021": "11131800130",
    "DT21": "11",
    "DTMN21": "1113",
    "DTMNFR21": "111318",
    "DTMNFRSEC21": "111318001",
    "SECNUM21": "001",
    "SSNUM21": "30",
    "SECSSNUM21": "00130",
    "OBJECTID_1": 116770,
    "DT": "11",
    "CC": "13",
    "fr": "18",
    "SEC": "001",
    "SS": "30"
  },
  "addresses": [
    {
      "id": "pt.ine.add.PTCONT.2325556",
      "street": "CSL LOURAL DE CIMA",
      "house": "10",
      "postcode": "2565-839",
      "city": "VENTOSA TVD",
      "lon": "-9.350834608426096",
      "lat": "39.051762786388494"
    },
    {
      "id": "pt.ine.add.PTCONT.2325557",
      "street": "CSL LOURAL DE CIMA",
      "house": "6",
      "postcode": "2565-839",
      "city": "VENTOSA TVD",
      "lon": "-9.35085291274079",
      "lat": "39.051483370542414"
    },
    {
      "id": "pt.ine.add.PTCONT.2461777",
      "street": "R GOMES",
      "house": "3",
      "postcode": "2565-839",
      "city": "VENTOSA TVD",
      "lon": "-9.347319181784073",
      "lat": "39.05087169552587"
    },
    {
      "id": "pt.ine.add.PTCONT.2679836",
      "street": "CSL LOURAL CIMA",
      "house": "8",
      "postcode": "2565-839",
      "city": "VENTOSA TVD",
      "lon": "-9.350798412841794",
      "lat": "39.051673091862185"
    },
    {
      "id": "pt.ine.add.PTCONT.2859474",
      "street": "CSL LOURAL DE CIMA",
      "house": "4",
      "postcode": "2565-839",
      "city": "VENTOSA TVD",
      "lon": "-9.350835330954288",
      "lat": "39.05113227142389"
    },
    {
      "id": "pt.ine.add.PTCONT.2904650",
      "street": "R JOÃO RAFAEL",
      "house": "6",
      "postcode": "2565-839",
      "city": "VENTOSA TVD",
      "lon": "-9.347256653641546",
      "lat": "39.0505931217308"
    },
    {
      "id": "pt.ine.add.PTCONT.3065106",
      "street": "R JOÃO RAFAEL",
      "house": "5",
      "postcode": "2565-839",
      "city": "VENTOSA TVD",
      "lon": "-9.347495644608696",
      "lat": "39.05038346642368"
    },
    {
      "id": "pt.ine.add.PTCONT.3150730",
      "street": "R GOMES",
      "house": "17",
      "postcode": "2565-839",
      "city": "VENTOSA TVD",
      "lon": "-9.349902642876417",
      "lat": "39.0519796812242"
    },
    {
      "id": "pt.ine.add.PTCONT.3391498",
      "street": "R JOÃO RAFAEL",
      "house": "7",
      "postcode": "2565-839",
      "city": "VENTOSA TVD",
      "lon": "-9.347131151595999",
      "lat": "39.05068450085298"
    }
  ]
}