{
  "data": {
    "distrito": "Leiria",
    "concelho": "Pombal",
    "freguesia": "Pelariga",
    "OBJECTID": 27,
    "BGRI2021": "10150800243",
    "DT21": "10",
    "DTMN21": "1015",
    "DTMNFR21": "101508",
    "DTMNFRSEC21": "101508002",
    "SECNUM21": "002",
    "SSNUM21": "43",
    "SECSSNUM21": "00243",
    "OBJECTID_1": 96809,
    "DT": "10",
    "CC": "15",
    "fr": "08",
    "SEC": "002",
    "SS": "43"
  },
  "addresses": [
    {
      "id": "pt.ine.add.PTCONT.1987880",
      "street": "R QUINTA",
      "house": "6",
      "postcode": "3105-291",
      "city": "PELARIGA",
      "lon": "-8.6190408672013",
      "lat": "39.96817344263381"
    },
    {
      "id": "pt.ine.add.PTCONT.1990201",
      "street": "R CAVADA",
      "house": "9",
      "postcode": "3105-291",
      "city": "PELARIGA",
      "lon": "-8.617209980202958",
      "lat": "39.969135759398064"
    },
    {
      "id": "pt.ine.add.PTCONT.2005312",
      "street": "R QUINTA",
      "house": "10",
      "postcode": "3105-291",
      "city": "PELARIGA",
      "lon": "-8.619334502838118",
      "lat": "39.96831631041481"
    },
    {
      "id": "pt.ine.add.PTCONT.2048351",
      "street": "R QUINTA",
      "house": "2",
      "postcode": "3105-291",
      "city": "PELARIGA",
      "lon": "-8.618548000346019",
      "lat": "39.96799538382666"
    },
    {
      "id": "pt.ine.add.PTCONT.2070452",
      "street": "R QUINTA",
      "house": "",
      "postcode": "3105-291",
      "city": "PELARIGA",
      "lon": "-8.619216946371848",
      "lat": "39.96824475391517"
    },
    {
      "id": "pt.ine.add.PTCONT.2085344",
      "street": "URB CAVADA",
      "house": "",
      "postcode": "3105-291",
      "city": "PELARIGA",
      "lon": "-8.618239362077675",
      "lat": "39.96904139404689"
    },
    {
      "id": "pt.ine.add.PTCONT.2137010",
      "street": "R CAVADA",
      "house": "11",
      "postcode": "3105-291",
      "city": "PELARIGA",
      "lon": "-8.617305270354882",
      "lat": "39.96936952235124"
    },
    {
      "id": "pt.ine.add.PTCONT.2163097",
      "street": "R CAVADA",
      "house": "9",
      "postcode": "3105-291",
      "city": "PELARIGA",
      "lon": "-8.617209027264025",
      "lat": "39.96900067052262"
    },
    {
      "id": "pt.ine.add.PTCONT.2237719",
      "street": "URB CAVADA",
      "house": "",
      "postcode": "3105-291",
      "city": "PELARIGA",
      "lon": "-8.617477155551132",
      "lat": "39.96884644522624"
    },
    {
      "id": "pt.ine.add.PTCONT.2258422",
      "street": "R DA CAVADA",
      "house": "9",
      "postcode": "3105-291",
      "city": "PELARIGA",
      "lon": "-8.617680141798667",
      "lat": "39.96941298685423"
    }
  ]
}