{
  "data": {
    "distrito": "Leiria",
    "concelho": "Pombal",
    "freguesia": "Pelariga",
    "OBJECTID": 906,
    "BGRI2021": "10150800256",
    "DT21": "10",
    "DTMN21": "1015",
    "DTMNFR21": "101508",
    "DTMNFRSEC21": "101508002",
    "SECNUM21": "002",
    "SSNUM21": "56",
    "SECSSNUM21": "00256",
    "OBJECTID_1": 96792,
    "DT": "10",
    "CC": "15",
    "fr": "08",
    "SEC": "002",
    "SS": "56"
  },
  "addresses": [
    {
      "id": "pt.ine.add.PTCONT.1980207",
      "street": "R SILVA",
      "house": "3",
      "postcode": "3105-295",
      "city": "PELARIGA",
      "lon": "-8.623325364570993",
      "lat": "39.9813494569107"
    },
    {
      "id": "pt.ine.add.PTCONT.1990200",
      "street": "R PATOS",
      "house": "1",
      "postcode": "3105-295",
      "city": "PELARIGA",
      "lon": "-8.621385636098358",
      "lat": "39.97857473697162"
    },
    {
      "id": "pt.ine.add.PTCONT.2003390",
      "street": "R SEGUNDO SARGENTO",
      "house": "9",
      "postcode": "3105-295",
      "city": "PELARIGA",
      "lon": "-8.62322816684756",
      "lat": "39.97921540528234"
    },
    {
      "id": "pt.ine.add.PTCONT.2038447",
      "street": "R SILVA",
      "house": "1",
      "postcode": "3105-295",
      "city": "PELARIGA",
      "lon": "-8.622904433099968",
      "lat": "39.98142328572914"
    },
    {
      "id": "pt.ine.add.PTCONT.2048350",
      "street": "IC 2",
      "house": "9",
      "postcode": "3105-295",
      "city": "PELARIGA",
      "lon": "-8.622236989796985",
      "lat": "39.97812083882794"
    },
    {
      "id": "pt.ine.add.PTCONT.2065295",
      "street": "R TERCEIROS",
      "house": "2",
      "postcode": "3105-295",
      "city": "PELARIGA",
      "lon": "-8.622504628143146",
      "lat": "39.97789455476404"
    },
    {
      "id": "pt.ine.add.PTCONT.2097342",
      "street": "R SILVA",
      "house": "",
      "postcode": "3105-295",
      "city": "PELARIGA",
      "lon": "-8.624029643454486",
      "lat": "39.98160765511768"
    },
    {
      "id": "pt.ine.add.PTCONT.2097345",
      "street": "R SILVA",
      "house": "",
      "postcode": "3105-295",
      "city": "PELARIGA",
      "lon": "-8.6242060202604",
      "lat": "39.981714981999836"
    },
    {
      "id": "pt.ine.add.PTCONT.2109790",
      "street": "R ESCOLA",
      "house": "3",
      "postcode": "3105-295",
      "city": "PELARIGA",
      "lon": "-8.623066978714387",
      "lat": "39.98287259192306"
    },
    {
      "id": "pt.ine.add.PTCONT.2119857",
      "street": "R TERCEIROS",
      "house": "",
      "postcode": "3105-295",
      "city": "PELARIGA",
      "lon": "-8.623150208302244",
      "lat": "39.978134994004094"
    },
    {
      "id": "pt.ine.add.PTCONT.2227028",
      "street": "R PRINCIPAL",
      "house": "21",
      "postcode": "3105-295",
      "city": "PELARIGA",
      "lon": "-8.622802478963758",
      "lat": "39.98190104348861"
    },
    {
      "id": "pt.ine.add.PTCONT.2233485",
      "street": "R TERCEIROS",
      "house": "4",
      "postcode": "3105-295",
      "city": "PELARIGA",
      "lon": "-8.622530032306658",
      "lat": "39.9781736389344"
    }
  ]
}