{
  "data": {
    "distrito": "Bragança",
    "concelho": "Vinhais",
    "freguesia": "União das freguesias de Sobreiro de Baixo e Alvaredos",
    "OBJECTID": 704,
    "BGRI2021": "04124000102",
    "DT21": "04",
    "DTMN21": "0412",
    "DTMNFR21": "041240",
    "DTMNFRSEC21": "041240001",
    "SECNUM21": "001",
    "SSNUM21": "02",
    "SECSSNUM21": "00102",
    "OBJECTID_1": 39603,
    "DT": "04",
    "CC": "12",
    "fr": "40",
    "SEC": "001",
    "SS": "02"
  },
  "addresses": [
    {
      "id": "pt.ine.add.PTCONT.852293",
      "street": "R DA MOREIRA",
      "house": "",
      "postcode": "5320-010",
      "city": "ALVAREDOS",
      "lon": "-7.065225426537558",
      "lat": "41.802172964312696"
    },
    {
      "id": "pt.ine.add.PTCONT.865324",
      "street": "LG DE S JOÃO",
      "house": "",
      "postcode": "5320-010",
      "city": "ALVAREDOS",
      "lon": "-7.06524784351461",
      "lat": "41.80227220790509"
    },
    {
      "id": "pt.ine.add.PTCONT.879508",
      "street": "R DA MOREIRA",
      "house": "",
      "postcode": "5320-010",
      "city": "ALVAREDOS",
      "lon": "-7.06545385857586",
      "lat": "41.802184090972716"
    },
    {
      "id": "pt.ine.add.PTCONT.881818",
      "street": "R DA MOREIRA",
      "house": "",
      "postcode": "5320-010",
      "city": "ALVAREDOS",
      "lon": "-7.065321521905214",
      "lat": "41.802182860851424"
    },
    {
      "id": "pt.ine.add.PTCONT.884857",
      "street": "LG DE S JOÃO",
      "house": "",
      "postcode": "5320-010",
      "city": "ALVAREDOS",
      "lon": "-7.065187690403105",
      "lat": "41.80227164866914"
    },
    {
      "id": "pt.ine.add.PTCONT.893884",
      "street": "R DE TRÁS",
      "house": "",
      "postcode": "5320-010",
      "city": "ALVAREDOS",
      "lon": "-7.065432338001976",
      "lat": "41.802030836554906"
    },
    {
      "id": "pt.ine.add.PTCONT.932637",
      "street": "AV CAP SOBRINHO ALVES",
      "house": "",
      "postcode": "5320-010",
      "city": "ALVAREDOS",
      "lon": "-7.06531277955227",
      "lat": "41.80198470920066"
    },
    {
      "id": "pt.ine.add.PTCONT.943558",
      "street": "R DA MOREIRA",
      "house": "",
      "postcode": "5320-010",
      "city": "ALVAREDOS",
      "lon": "-7.065287672132176",
      "lat": "41.802047498193254"
    },
    {
      "id": "pt.ine.add.PTCONT.943753",
      "street": "TV DO CASAROLHO",
      "house": "",
      "postcode": "5320-010",
      "city": "ALVAREDOS",
      "lon": "-7.065410219718529",
      "lat": "41.80191358937151"
    }
  ]
}