{
  "data": {
    "distrito": "Porto",
    "concelho": "Paredes",
    "freguesia": "Paredes",
    "OBJECTID": 296,
    "BGRI2021": "13102500208",
    "DT21": "13",
    "DTMN21": "1310",
    "DTMNFR21": "131025",
    "DTMNFRSEC21": "131025002",
    "SECNUM21": "002",
    "SSNUM21": "08",
    "SECSSNUM21": "00208",
    "OBJECTID_1": 135058,
    "DT": "13",
    "CC": "10",
    "fr": "25",
    "SEC": "002",
    "SS": "08"
  },
  "addresses": [
    {
      "id": "pt.ine.add.PTCONT.3754129",
      "street": "R 1 DEZEMBRO",
      "house": "20",
      "postcode": "4580-021",
      "city": "PAREDES",
      "lon": "-8.33373765958672",
      "lat": "41.20727016911038"
    },
    {
      "id": "pt.ine.add.PTCONT.3896829",
      "street": "R VITORINO LEÃO RAMOS",
      "house": "76",
      "postcode": "4580-219",
      "city": "PAREDES",
      "lon": "-8.334477437045049",
      "lat": "41.207448964012684"
    },
    {
      "id": "pt.ine.add.PTCONT.4104807",
      "street": "R VITORINO LEÃO RAMOS",
      "house": "9",
      "postcode": "4580-219",
      "city": "PAREDES",
      "lon": "-8.334060930199268",
      "lat": "41.20771081632834"
    },
    {
      "id": "pt.ine.add.PTCONT.4250076",
      "street": "PQ JOSE GUILHERME",
      "house": "48",
      "postcode": "4580-130",
      "city": "PAREDES",
      "lon": "-8.333869775764677",
      "lat": "41.207585089482635"
    },
    {
      "id": "pt.ine.add.PTCONT.4389124",
      "street": "R 1 DE DEZEMBRO",
      "house": "20",
      "postcode": "4580-021",
      "city": "PAREDES",
      "lon": "-8.33410677627363",
      "lat": "41.207107448007"
    }
  ]
}