{
  "data": {
    "distrito": "Setúbal",
    "concelho": "Setúbal",
    "freguesia": "União das freguesias de Setúbal (São Julião, Nossa Senhora da Anunciada e Santa Maria da Graça)",
    "OBJECTID": 275,
    "BGRI2021": "15121002424",
    "DT21": "15",
    "DTMN21": "1512",
    "DTMNFR21": "151210",
    "DTMNFRSEC21": "151210024",
    "SECNUM21": "024",
    "SSNUM21": "24",
    "SECSSNUM21": "02424",
    "OBJECTID_1": 170077,
    "DT": "15",
    "CC": "12",
    "fr": "10",
    "SEC": "024",
    "SS": "24"
  },
  "addresses": [
    {
      "id": "pt.ine.add.PTCONT.4685157",
      "street": "AV 5 DE OUTUBRO",
      "house": "113",
      "postcode": "2900-312",
      "city": "SETÚBAL",
      "lon": "-8.893233874149841",
      "lat": "38.525401958918735"
    },
    {
      "id": "pt.ine.add.PTCONT.4685158",
      "street": "AV 5 DE OUTUBRO",
      "house": "113",
      "postcode": "2900-312",
      "city": "SETÚBAL",
      "lon": "-8.893233874149841",
      "lat": "38.525401958918735"
    },
    {
      "id": "pt.ine.add.PTCONT.4694534",
      "street": "AV 5 DE OUTUBRO",
      "house": "117",
      "postcode": "2900-312",
      "city": "SETÚBAL",
      "lon": "-8.893440178146252",
      "lat": "38.525391611165865"
    },
    {
      "id": "pt.ine.add.PTCONT.4694535",
      "street": "AV 5 DE OUTUBRO",
      "house": "117",
      "postcode": "2900-312",
      "city": "SETÚBAL",
      "lon": "-8.893440178146252",
      "lat": "38.525391611165865"
    },
    {
      "id": "pt.ine.add.PTCONT.4694536",
      "street": "AV 5 DE OUTUBRO",
      "house": "117",
      "postcode": "2900-312",
      "city": "SETÚBAL",
      "lon": "-8.893440178146252",
      "lat": "38.525391611165865"
    },
    {
      "id": "pt.ine.add.PTCONT.4694537",
      "street": "AV 5 DE OUTUBRO",
      "house": "117",
      "postcode": "2900-312",
      "city": "SETÚBAL",
      "lon": "-8.893440178146252",
      "lat": "38.525391611165865"
    },
    {
      "id": "pt.ine.add.PTCONT.4715828",
      "street": "TV SAPALINHO",
      "house": "2",
      "postcode": "2900-632",
      "city": "SETÚBAL",
      "lon": "-8.892726313528813",
      "lat": "38.525116986926804"
    },
    {
      "id": "pt.ine.add.PTCONT.4715829",
      "street": "TV SAPALINHO",
      "house": "2",
      "postcode": "2900-632",
      "city": "SETÚBAL",
      "lon": "-8.892726313528813",
      "lat": "38.525116986926804"
    },
    {
      "id": "pt.ine.add.PTCONT.4719562",
      "street": "TV SAPALINHO",
      "house": "4",
      "postcode": "2900-632",
      "city": "SETÚBAL",
      "lon": "-8.892795302264568",
      "lat": "38.52513455596651"
    },
    {
      "id": "pt.ine.add.PTCONT.5021684",
      "street": "R TEN VALADIM",
      "house": "13",
      "postcode": "2900-652",
      "city": "SETÚBAL",
      "lon": "-8.892740147469821",
      "lat": "38.52534210485742"
    },
    {
      "id": "pt.ine.add.PTCONT.5021685",
      "street": "R TEN VALADIM",
      "house": "13",
      "postcode": "2900-652",
      "city": "SETÚBAL",
      "lon": "-8.892740147469821",
      "lat": "38.52534210485742"
    },
    {
      "id": "pt.ine.add.PTCONT.5021686",
      "street": "R TEN VALADIM",
      "house": "13",
      "postcode": "2900-652",
      "city": "SETÚBAL",
      "lon": "-8.892740147469821",
      "lat": "38.52534210485742"
    },
    {
      "id": "pt.ine.add.PTCONT.5021687",
      "street": "R TEN VALADIM",
      "house": "13",
      "postcode": "2900-652",
      "city": "SETÚBAL",
      "lon": "-8.892740147469821",
      "lat": "38.52534210485742"
    },
    {
      "id": "pt.ine.add.PTCONT.5055438",
      "street": "LG SAPALINHO",
      "house": "10",
      "postcode": "2900-631",
      "city": "SETÚBAL",
      "lon": "-8.892888455435326",
      "lat": "38.52526907616269"
    },
    {
      "id": "pt.ine.add.PTCONT.5093906",
      "street": "AV 5 DE OUTUBRO",
      "house": "103",
      "postcode": "2900-312",
      "city": "SETÚBAL",
      "lon": "-8.893108025781558",
      "lat": "38.52542980074141"
    },
    {
      "id": "pt.ine.add.PTCONT.5093907",
      "street": "AV 5 DE OUTUBRO",
      "house": "103",
      "postcode": "2900-312",
      "city": "SETÚBAL",
      "lon": "-8.893108025781558",
      "lat": "38.52542980074141"
    }
  ]
}