{
  "data": {
    "distrito": "Guarda",
    "concelho": "Almeida",
    "freguesia": "União das freguesias de Azinhal, Peva e Valverde",
    "OBJECTID": 478,
    "BGRI2021": "09023100108",
    "DT21": "09",
    "DTMN21": "0902",
    "DTMNFR21": "090231",
    "DTMNFRSEC21": "090231001",
    "SECNUM21": "001",
    "SSNUM21": "08",
    "SECSSNUM21": "00108",
    "OBJECTID_1": 75861,
    "DT": "09",
    "CC": "02",
    "fr": "31",
    "SEC": "001",
    "SS": "08"
  },
  "addresses": [
    {
      "id": "pt.ine.add.PTCONT.1909958",
      "street": "LG DAS EIRAS",
      "house": "",
      "postcode": "6350-331",
      "city": "PEVA ALD",
      "lon": "-6.989681677446752",
      "lat": "40.65518670252178"
    },
    {
      "id": "pt.ine.add.PTCONT.1911907",
      "street": "R DA PROCISSÃO",
      "house": "",
      "postcode": "6350-331",
      "city": "PEVA ALD",
      "lon": "-6.989965721689493",
      "lat": "40.65447812791915"
    },
    {
      "id": "pt.ine.add.PTCONT.1915803",
      "street": "TV DA CAPELA",
      "house": "",
      "postcode": "6350-331",
      "city": "PEVA ALD",
      "lon": "-6.988748161913516",
      "lat": "40.656537193677934"
    },
    {
      "id": "pt.ine.add.PTCONT.1915804",
      "street": "R DIREITA",
      "house": "",
      "postcode": "6350-331",
      "city": "PEVA ALD",
      "lon": "-6.989352953224793",
      "lat": "40.65574175042049"
    },
    {
      "id": "pt.ine.add.PTCONT.1921692",
      "street": "R DIREITA",
      "house": "",
      "postcode": "6350-331",
      "city": "PEVA ALD",
      "lon": "-6.989396550655659",
      "lat": "40.65595829989523"
    },
    {
      "id": "pt.ine.add.PTCONT.1960695",
      "street": "R DIREITA",
      "house": "",
      "postcode": "6350-331",
      "city": "PEVA ALD",
      "lon": "-6.989777789523137",
      "lat": "40.655097605299304"
    },
    {
      "id": "pt.ine.add.PTCONT.1973583",
      "street": "R DE STO ANTÓNIO",
      "house": "",
      "postcode": "6350-331",
      "city": "PEVA ALD",
      "lon": "-6.988830608936421",
      "lat": "40.656556020617934"
    },
    {
      "id": "pt.ine.add.PTCONT.1975935",
      "street": "R DA PROCISSÃO",
      "house": "",
      "postcode": "6350-331",
      "city": "PEVA ALD",
      "lon": "-6.9893270400741585",
      "lat": "40.65448981247935"
    },
    {
      "id": "pt.ine.add.PTCONT.1978565",
      "street": "R DA CAPELA",
      "house": "",
      "postcode": "6350-331",
      "city": "PEVA ALD",
      "lon": "-6.988777037174951",
      "lat": "40.65623131331116"
    },
    {
      "id": "pt.ine.add.PTCONT.1869858",
      "street": "R DIREITA",
      "house": "",
      "postcode": "6350-331",
      "city": "PEVA ALD",
      "lon": "-6.989276638995707",
      "lat": "40.65605616590365"
    },
    {
      "id": "pt.ine.add.PTCONT.1871884",
      "street": "LG DAS EIRAS",
      "house": "",
      "postcode": "6350-331",
      "city": "PEVA ALD",
      "lon": "-6.989383516741153",
      "lat": "40.655336832667786"
    },
    {
      "id": "pt.ine.add.PTCONT.1872861",
      "street": "R DA PROCISSÃO",
      "house": "",
      "postcode": "6350-331",
      "city": "PEVA ALD",
      "lon": "-6.9900579905647495",
      "lat": "40.65461411495346"
    },
    {
      "id": "pt.ine.add.PTCONT.1889389",
      "street": "R DIREITA",
      "house": "",
      "postcode": "6350-331",
      "city": "PEVA ALD",
      "lon": "-6.989121876102006",
      "lat": "40.65611766687859"
    },
    {
      "id": "pt.ine.add.PTCONT.1892355",
      "street": "R DIREITA",
      "house": "",
      "postcode": "6350-331",
      "city": "PEVA ALD",
      "lon": "-6.989285404645374",
      "lat": "40.65554297344696"
    }
  ]
}