{
  "data": {
    "distrito": "Ã‰vora",
    "concelho": "Estremoz",
    "freguesia": "Veiros",
    "OBJECTID": 269,
    "BGRI2021": "07041300109",
    "DT21": "07",
    "DTMN21": "0704",
    "DTMNFR21": "070413",
    "DTMNFRSEC21": "070413001",
    "SECNUM21": "001",
    "SSNUM21": "09",
    "SECSSNUM21": "00109",
    "OBJECTID_1": 59648,
    "DT": "07",
    "CC": "04",
    "fr": "13",
    "SEC": "001",
    "SS": "09"
  },
  "addresses": [
    {
      "id": "pt.ine.add.PTCONT.1382264",
      "street": "R JOSE MARIA CORTES",
      "house": "",
      "postcode": "7100-703",
      "city": "VEIROS ETZ",
      "lon": "-7.507214080578648",
      "lat": "38.95266803841116"
    },
    {
      "id": "pt.ine.add.PTCONT.1408919",
      "street": "R JOSE MARIA CORTES",
      "house": "30",
      "postcode": "7100-703",
      "city": "VEIROS ETZ",
      "lon": "-7.50733020420028",
      "lat": "38.95274753712002"
    },
    {
      "id": "pt.ine.add.PTCONT.1414374",
      "street": "R ESTREMOZ",
      "house": "",
      "postcode": "7100-699",
      "city": "VEIROS ETZ",
      "lon": "-7.5073947566319985",
      "lat": "38.95246621205237"
    },
    {
      "id": "pt.ine.add.PTCONT.1422803",
      "street": "LG COMBATENTES GRANDE GUERRA",
      "house": "14",
      "postcode": "7100-686",
      "city": "VEIROS ETZ",
      "lon": "-7.507740749940104",
      "lat": "38.95290467207239"
    },
    {
      "id": "pt.ine.add.PTCONT.1429830",
      "street": "R ESTREMOZ",
      "house": "11",
      "postcode": "7100-699",
      "city": "VEIROS ETZ",
      "lon": "-7.50763299956435",
      "lat": "38.952457955300886"
    },
    {
      "id": "pt.ine.add.PTCONT.1440974",
      "street": "R NOVA",
      "house": "4",
      "postcode": "7100-708",
      "city": "VEIROS ETZ",
      "lon": "-7.507826669527878",
      "lat": "38.95277676080849"
    },
    {
      "id": "pt.ine.add.PTCONT.1443954",
      "street": "R JOSE MARIA CORTES",
      "house": "13",
      "postcode": "7100-703",
      "city": "VEIROS ETZ",
      "lon": "-7.5076706681673455",
      "lat": "38.95287990635797"
    },
    {
      "id": "pt.ine.add.PTCONT.1448636",
      "street": "R JOSE MARIA CORTES",
      "house": "11",
      "postcode": "7100-703",
      "city": "VEIROS ETZ",
      "lon": "-7.5076033027581905",
      "lat": "38.952857288185726"
    },
    {
      "id": "pt.ine.add.PTCONT.1459993",
      "street": "R JOSE MARIA CORTES",
      "house": "",
      "postcode": "7100-703",
      "city": "VEIROS ETZ",
      "lon": "-7.507274664236293",
      "lat": "38.952712497473385"
    },
    {
      "id": "pt.ine.add.PTCONT.1460650",
      "street": "R NOVA",
      "house": "2",
      "postcode": "7100-708",
      "city": "VEIROS ETZ",
      "lon": "-7.507816261985818",
      "lat": "38.952808765298954"
    }
  ]
}