{
  "data": {
    "distrito": "Porto",
    "concelho": "Paredes",
    "freguesia": "Recarei",
    "OBJECTID": 1003,
    "BGRI2021": "13101900201",
    "DT21": "13",
    "DTMN21": "1310",
    "DTMNFR21": "131019",
    "DTMNFRSEC21": "131019002",
    "SECNUM21": "002",
    "SSNUM21": "01",
    "SECSSNUM21": "00201",
    "OBJECTID_1": 135382,
    "DT": "13",
    "CC": "10",
    "fr": "19",
    "SEC": "002",
    "SS": "01"
  },
  "addresses": [
    {
      "id": "pt.ine.add.PTCONT.3723043",
      "street": "CC GRANJAS",
      "house": "12",
      "postcode": "4585-591",
      "city": "RECAREI",
      "lon": "-8.420902838320897",
      "lat": "41.151852712999144"
    },
    {
      "id": "pt.ine.add.PTCONT.3782651",
      "street": "TV MALMEQUERES",
      "house": "51",
      "postcode": "4585-591",
      "city": "RECAREI",
      "lon": "-8.420125046164982",
      "lat": "41.151062267894936"
    },
    {
      "id": "pt.ine.add.PTCONT.3840135",
      "street": "R CENTRAL DO OUTEIRO",
      "house": "551",
      "postcode": "4585-591",
      "city": "RECAREI",
      "lon": "-8.420594126491128",
      "lat": "41.152087597803664"
    },
    {
      "id": "pt.ine.add.PTCONT.3884284",
      "street": "R MALMEQUERES",
      "house": "132",
      "postcode": "4585-591",
      "city": "RECAREI",
      "lon": "-8.41970927718578",
      "lat": "41.151333434589695"
    },
    {
      "id": "pt.ine.add.PTCONT.3922490",
      "street": "CC GRANJAS",
      "house": "26",
      "postcode": "4585-591",
      "city": "RECAREI",
      "lon": "-8.420808125849879",
      "lat": "41.15198801532198"
    },
    {
      "id": "pt.ine.add.PTCONT.3980160",
      "street": "CC GRANJAS",
      "house": "36",
      "postcode": "4585-591",
      "city": "RECAREI",
      "lon": "-8.420581505581252",
      "lat": "41.15192555042321"
    },
    {
      "id": "pt.ine.add.PTCONT.4113934",
      "street": "R MALMEQUERES",
      "house": "72",
      "postcode": "4585-591",
      "city": "RECAREI",
      "lon": "-8.42022262637916",
      "lat": "41.15158427894649"
    },
    {
      "id": "pt.ine.add.PTCONT.4113935",
      "street": "R MALMEQUERES",
      "house": "72",
      "postcode": "4585-591",
      "city": "RECAREI",
      "lon": "-8.42022262637916",
      "lat": "41.15158427894649"
    },
    {
      "id": "pt.ine.add.PTCONT.4302397",
      "street": "R LIRIOS",
      "house": "",
      "postcode": "4585-591",
      "city": "RECAREI",
      "lon": "-8.420818897136895",
      "lat": "41.15172686133236"
    },
    {
      "id": "pt.ine.add.PTCONT.4335495",
      "street": "TV MALMEQUERES",
      "house": "18",
      "postcode": "4585-591",
      "city": "RECAREI",
      "lon": "-8.419946747749975",
      "lat": "41.151152755845885"
    },
    {
      "id": "pt.ine.add.PTCONT.4335498",
      "street": "TV MALMEQUERES",
      "house": "18",
      "postcode": "4585-591",
      "city": "RECAREI",
      "lon": "-8.419946747749975",
      "lat": "41.151152755845885"
    }
  ]
}