{
  "data": {
    "distrito": "Vila Real",
    "concelho": "Chaves",
    "freguesia": "Vilela do Tâmega",
    "OBJECTID": 1646,
    "BGRI2021": "17034900111",
    "DT21": "17",
    "DTMN21": "1703",
    "DTMNFR21": "170349",
    "DTMNFRSEC21": "170349001",
    "SECNUM21": "001",
    "SSNUM21": "11",
    "SECSSNUM21": "00111",
    "OBJECTID_1": 181747,
    "DT": "17",
    "CC": "03",
    "fr": "49",
    "SEC": "001",
    "SS": "11"
  },
  "addresses": [
    {
      "id": "pt.ine.add.PTCONT.5309082",
      "street": "R DOS PASSOS",
      "house": "",
      "postcode": "5400-827",
      "city": "VILELA DO TÂMEGA",
      "lon": "-7.544359337596862",
      "lat": "41.68266835885503"
    },
    {
      "id": "pt.ine.add.PTCONT.5311666",
      "street": "R DA CAROLICE",
      "house": "4",
      "postcode": "5400-827",
      "city": "VILELA DO TÂMEGA",
      "lon": "-7.543313500911724",
      "lat": "41.68277103862043"
    },
    {
      "id": "pt.ine.add.PTCONT.5322706",
      "street": "R DO CIMO DE VILA",
      "house": "2",
      "postcode": "5400-827",
      "city": "VILELA DO TÂMEGA",
      "lon": "-7.543997073540803",
      "lat": "41.68288258668593"
    },
    {
      "id": "pt.ine.add.PTCONT.5363804",
      "street": "R DOS PASSOS",
      "house": "1",
      "postcode": "5400-827",
      "city": "VILELA DO TÂMEGA",
      "lon": "-7.544243179970809",
      "lat": "41.68223559533313"
    },
    {
      "id": "pt.ine.add.PTCONT.5371374",
      "street": "ESTR DO AREAL",
      "house": "10",
      "postcode": "5400-827",
      "city": "VILELA DO TÂMEGA",
      "lon": "-7.543772469756271",
      "lat": "41.67985625572278"
    },
    {
      "id": "pt.ine.add.PTCONT.5387965",
      "street": "R DA CAROLICE",
      "house": "2",
      "postcode": "5400-827",
      "city": "VILELA DO TÂMEGA",
      "lon": "-7.542895791051491",
      "lat": "41.682480781970725"
    },
    {
      "id": "pt.ine.add.PTCONT.5400355",
      "street": "R DA CAROLICE",
      "house": "",
      "postcode": "5400-827",
      "city": "VILELA DO TÂMEGA",
      "lon": "-7.5433991313090685",
      "lat": "41.68260041137773"
    },
    {
      "id": "pt.ine.add.PTCONT.5407183",
      "street": "R DA CAROLICE",
      "house": "2",
      "postcode": "5400-827",
      "city": "VILELA DO TÂMEGA",
      "lon": "-7.543415251098967",
      "lat": "41.682150318658444"
    },
    {
      "id": "pt.ine.add.PTCONT.5411043",
      "street": "R DOS PASSOS",
      "house": "",
      "postcode": "5400-827",
      "city": "VILELA DO TÂMEGA",
      "lon": "-7.544359830013755",
      "lat": "41.682614340327284"
    }
  ]
}