{
  "data": {
    "distrito": "Évora",
    "concelho": "Montemor-O-Novo",
    "freguesia": "União das freguesias de Nossa Senhora da Vila, Nossa Senhora do Bispo e Silveiras",
    "OBJECTID": 586,
    "BGRI2021": "07061200330",
    "DT21": "07",
    "DTMN21": "0706",
    "DTMNFR21": "070612",
    "DTMNFRSEC21": "070612003",
    "SECNUM21": "003",
    "SSNUM21": "30",
    "SECSSNUM21": "00330",
    "OBJECTID_1": 61565,
    "DT": "07",
    "CC": "06",
    "fr": "12",
    "SEC": "003",
    "SS": "30"
  },
  "addresses": [
    {
      "id": "pt.ine.add.PTCONT.1373424",
      "street": "MTE POMAR DAS ALMAS",
      "house": "",
      "postcode": "7050-012",
      "city": "MONTEMOR-O-NOVO",
      "lon": "-8.245614849330448",
      "lat": "38.671066185904216"
    },
    {
      "id": "pt.ine.add.PTCONT.1376422",
      "street": "MTE POMAR DAS ALMAS",
      "house": "",
      "postcode": "7050-012",
      "city": "MONTEMOR-O-NOVO",
      "lon": "-8.245546609109311",
      "lat": "38.671516664382075"
    },
    {
      "id": "pt.ine.add.PTCONT.1396288",
      "street": "MTE POMAR DAS ALMAS",
      "house": "",
      "postcode": "7050-012",
      "city": "MONTEMOR-O-NOVO",
      "lon": "-8.245237690784252",
      "lat": "38.67237274527516"
    },
    {
      "id": "pt.ine.add.PTCONT.1413445",
      "street": "CASA BRANCA",
      "house": "",
      "postcode": "7050-343",
      "city": "MONTEMOR-O-NOVO",
      "lon": "-8.24356226062545",
      "lat": "38.68131953044498"
    },
    {
      "id": "pt.ine.add.PTCONT.1421879",
      "street": "POMAR DA CAPELA",
      "house": "",
      "postcode": "7050-012",
      "city": "MONTEMOR-O-NOVO",
      "lon": "-8.239174464154052",
      "lat": "38.66731575869599"
    },
    {
      "id": "pt.ine.add.PTCONT.1427046",
      "street": "MTE POMAR DAS ALMAS",
      "house": "",
      "postcode": "7050-012",
      "city": "MONTEMOR-O-NOVO",
      "lon": "-8.245259829490989",
      "lat": "38.67183222869274"
    },
    {
      "id": "pt.ine.add.PTCONT.1438118",
      "street": "MTE DA CAPELINHA",
      "house": "",
      "postcode": "7050-343",
      "city": "MONTEMOR-O-NOVO",
      "lon": "-8.238350902253977",
      "lat": "38.669865840690825"
    },
    {
      "id": "pt.ine.add.PTCONT.1442069",
      "street": "MTE POMAR DAS ALMAS",
      "house": "",
      "postcode": "7050-012",
      "city": "MONTEMOR-O-NOVO",
      "lon": "-8.246811743704397",
      "lat": "38.672236101862104"
    },
    {
      "id": "pt.ine.add.PTCONT.1450239",
      "street": "CASA BRANCA",
      "house": "",
      "postcode": "7050-343",
      "city": "MONTEMOR-O-NOVO",
      "lon": "-8.243653257721286",
      "lat": "38.68070688399527"
    }
  ]
}