{
  "data": {
    "distrito": "Braga",
    "concelho": "Esposende",
    "freguesia": "Forjães",
    "OBJECTID": 422,
    "BGRI2021": "03060800116",
    "DT21": "03",
    "DTMN21": "0306",
    "DTMNFR21": "030608",
    "DTMNFRSEC21": "030608001",
    "SECNUM21": "001",
    "SSNUM21": "16",
    "SECSSNUM21": "00116",
    "OBJECTID_1": 24242,
    "DT": "03",
    "CC": "06",
    "fr": "08",
    "SEC": "001",
    "SS": "16"
  },
  "addresses": [
    {
      "id": "pt.ine.add.PTCONT.480716",
      "street": "AV RODRIGUES FARIA",
      "house": "148",
      "postcode": "4740-438",
      "city": "FORJÃES",
      "lon": "-8.74144764488907",
      "lat": "41.604982612926804"
    },
    {
      "id": "pt.ine.add.PTCONT.651583",
      "street": "R PROF JOSE ALBINO FARIA",
      "house": "17",
      "postcode": "4740-438",
      "city": "FORJÃES",
      "lon": "-8.741485406901052",
      "lat": "41.605171489227295"
    },
    {
      "id": "pt.ine.add.PTCONT.695914",
      "street": "AV SANTA MARINHA",
      "house": "103",
      "postcode": "4740-438",
      "city": "FORJÃES",
      "lon": "-8.742198720919456",
      "lat": "41.60576195142071"
    },
    {
      "id": "pt.ine.add.PTCONT.707759",
      "street": "AV RODRIGUES FARIA",
      "house": "184",
      "postcode": "4740-438",
      "city": "FORJÃES",
      "lon": "-8.741505168714555",
      "lat": "41.60472120338092"
    },
    {
      "id": "pt.ine.add.PTCONT.718253",
      "street": "AV MARGARIDA DE QUEIROZ",
      "house": "46",
      "postcode": "4740-438",
      "city": "FORJÃES",
      "lon": "-8.741324574521895",
      "lat": "41.605928644679594"
    },
    {
      "id": "pt.ine.add.PTCONT.720887",
      "street": "AV RODRIGUES FARIA",
      "house": "170",
      "postcode": "4740-438",
      "city": "FORJÃES",
      "lon": "-8.741482108494338",
      "lat": "41.60482036529699"
    },
    {
      "id": "pt.ine.add.PTCONT.824454",
      "street": "AV MARGARIDA DE QUEIROZ",
      "house": "2",
      "postcode": "4740-438",
      "city": "FORJÃES",
      "lon": "-8.741123271557843",
      "lat": "41.60620882183843"
    }
  ]
}