{
  "data": {
    "distrito": "Braga",
    "concelho": "Esposende",
    "freguesia": "Forjães",
    "OBJECTID": 60,
    "BGRI2021": "03060800130",
    "DT21": "03",
    "DTMN21": "0306",
    "DTMNFR21": "030608",
    "DTMNFRSEC21": "030608001",
    "SECNUM21": "001",
    "SSNUM21": "30",
    "SECSSNUM21": "00130",
    "OBJECTID_1": 24769,
    "DT": "03",
    "CC": "06",
    "fr": "08",
    "SEC": "001",
    "SS": "30"
  },
  "addresses": [
    {
      "id": "pt.ine.add.PTCONT.468670",
      "street": "AV 30 DE JUNHO",
      "house": "",
      "postcode": "4740-438",
      "city": "FORJÃES",
      "lon": "-8.737140440066495",
      "lat": "41.608768838694246"
    },
    {
      "id": "pt.ine.add.PTCONT.485293",
      "street": "AV 30 DE JUNHO",
      "house": "291",
      "postcode": "4740-438",
      "city": "FORJÃES",
      "lon": "-8.737965306366098",
      "lat": "41.60845837862848"
    },
    {
      "id": "pt.ine.add.PTCONT.517956",
      "street": "TV 30 JUNHO",
      "house": "62",
      "postcode": "4740-438",
      "city": "FORJÃES",
      "lon": "-8.73826890755352",
      "lat": "41.60885294015851"
    },
    {
      "id": "pt.ine.add.PTCONT.563868",
      "street": "R CASAINHOS",
      "house": "28",
      "postcode": "4740-434",
      "city": "FORJÃES",
      "lon": "-8.738044210553898",
      "lat": "41.610483777730956"
    },
    {
      "id": "pt.ine.add.PTCONT.569786",
      "street": "R CASAINHOS",
      "house": "90",
      "postcode": "4740-434",
      "city": "FORJÃES",
      "lon": "-8.737804451908298",
      "lat": "41.61050304635"
    },
    {
      "id": "pt.ine.add.PTCONT.578228",
      "street": "R SANTA",
      "house": "75",
      "postcode": "4740-451",
      "city": "FORJÃES",
      "lon": "-8.737434562359793",
      "lat": "41.60943356079707"
    },
    {
      "id": "pt.ine.add.PTCONT.693902",
      "street": "AV 30 DE JUNHO",
      "house": "321",
      "postcode": "4740-438",
      "city": "FORJÃES",
      "lon": "-8.737678327814328",
      "lat": "41.60855892799723"
    },
    {
      "id": "pt.ine.add.PTCONT.803792",
      "street": "R CASAINHOS",
      "house": "",
      "postcode": "4740-434",
      "city": "FORJÃES",
      "lon": "-8.737551688236445",
      "lat": "41.610414339437426"
    }
  ]
}