{
  "data": {
    "distrito": "Coimbra",
    "concelho": "Vila Nova de Poiares",
    "freguesia": "São Miguel de Poiares",
    "OBJECTID": 12,
    "BGRI2021": "06170400241",
    "DT21": "06",
    "DTMN21": "0617",
    "DTMNFR21": "061704",
    "DTMNFRSEC21": "061704002",
    "SECNUM21": "002",
    "SSNUM21": "41",
    "SECSSNUM21": "00241",
    "OBJECTID_1": 58145,
    "DT": "06",
    "CC": "17",
    "fr": "04",
    "SEC": "002",
    "SS": "41"
  },
  "addresses": [
    {
      "id": "pt.ine.add.PTCONT.1103601",
      "street": "R EIRA DO ALEM",
      "house": "",
      "postcode": "3350-201",
      "city": "SÃO MIGUEL DE POIARES",
      "lon": "-8.210033394441515",
      "lat": "40.21790455553158"
    },
    {
      "id": "pt.ine.add.PTCONT.1124271",
      "street": "R EIRA DO ALEM",
      "house": "",
      "postcode": "3350-201",
      "city": "SÃO MIGUEL DE POIARES",
      "lon": "-8.209586844082823",
      "lat": "40.21778777528092"
    },
    {
      "id": "pt.ine.add.PTCONT.1149828",
      "street": "SIT PORTELA",
      "house": "",
      "postcode": "3350-201",
      "city": "SÃO MIGUEL DE POIARES",
      "lon": "-8.213839027893075",
      "lat": "40.217334594807504"
    },
    {
      "id": "pt.ine.add.PTCONT.1164872",
      "street": "LG SANTIAGO",
      "house": "",
      "postcode": "3350-201",
      "city": "SÃO MIGUEL DE POIARES",
      "lon": "-8.212616239625502",
      "lat": "40.21646187282625"
    },
    {
      "id": "pt.ine.add.PTCONT.1178053",
      "street": "R CAPELA",
      "house": "",
      "postcode": "3350-201",
      "city": "SÃO MIGUEL DE POIARES",
      "lon": "-8.212005478720922",
      "lat": "40.21656135519103"
    },
    {
      "id": "pt.ine.add.PTCONT.1182950",
      "street": "",
      "house": "",
      "postcode": "3350-201",
      "city": "SÃO MIGUEL DE POIARES",
      "lon": "-8.210762245031624",
      "lat": "40.21832734416509"
    },
    {
      "id": "pt.ine.add.PTCONT.1189110",
      "street": "LG CAPELA RAMADA",
      "house": "RAMADA",
      "postcode": "3350-201",
      "city": "SÃO MIGUEL DE POIARES",
      "lon": "-8.212181598937375",
      "lat": "40.2164801822746"
    },
    {
      "id": "pt.ine.add.PTCONT.1272262",
      "street": "R SANTIAGO",
      "house": "",
      "postcode": "3350-201",
      "city": "SÃO MIGUEL DE POIARES",
      "lon": "-8.211817620861156",
      "lat": "40.21665154168007"
    },
    {
      "id": "pt.ine.add.PTCONT.1294790",
      "street": "R SANTIAGO",
      "house": "",
      "postcode": "3350-201",
      "city": "SÃO MIGUEL DE POIARES",
      "lon": "-8.211547435423794",
      "lat": "40.21666073094453"
    },
    {
      "id": "pt.ine.add.PTCONT.1298862",
      "street": "R SOBREIROS",
      "house": "",
      "postcode": "3350-201",
      "city": "SÃO MIGUEL DE POIARES",
      "lon": "-8.210631816915098",
      "lat": "40.21727374621387"
    },
    {
      "id": "pt.ine.add.PTCONT.1312746",
      "street": "R SOBREIROS",
      "house": "",
      "postcode": "3350-201",
      "city": "SÃO MIGUEL DE POIARES",
      "lon": "-8.210795904899026",
      "lat": "40.216940419418755"
    },
    {
      "id": "pt.ine.add.PTCONT.1316631",
      "street": "R EIRA DO ALEM",
      "house": "",
      "postcode": "3350-201",
      "city": "SÃO MIGUEL DE POIARES",
      "lon": "-8.209645796081745",
      "lat": "40.217976859330264"
    },
    {
      "id": "pt.ine.add.PTCONT.1326722",
      "street": "R FUNDO DA CAPELA",
      "house": "",
      "postcode": "3350-201",
      "city": "SÃO MIGUEL DE POIARES",
      "lon": "-8.211430176708518",
      "lat": "40.21684993339493"
    },
    {
      "id": "pt.ine.add.PTCONT.1326723",
      "street": "R FUNDO DA CAPELA",
      "house": "",
      "postcode": "3350-201",
      "city": "SÃO MIGUEL DE POIARES",
      "lon": "-8.211430176708518",
      "lat": "40.21684993339493"
    },
    {
      "id": "pt.ine.add.PTCONT.1341257",
      "street": "R EIRA DO ALEM",
      "house": "",
      "postcode": "3350-201",
      "city": "SÃO MIGUEL DE POIARES",
      "lon": "-8.209680897775781",
      "lat": "40.21785075410598"
    },
    {
      "id": "pt.ine.add.PTCONT.1353564",
      "street": "R EIRA DO ALEM",
      "house": "",
      "postcode": "3350-201",
      "city": "SÃO MIGUEL DE POIARES",
      "lon": "-8.209669403327414",
      "lat": "40.218075908151974"
    }
  ]
}