{
  "data": {
    "distrito": "Viseu",
    "concelho": "Castro Daire",
    "freguesia": "União das freguesias de Reriz e Gafanhão",
    "OBJECTID": 171,
    "BGRI2021": "18032700157",
    "DT21": "18",
    "DTMN21": "1803",
    "DTMNFR21": "180327",
    "DTMNFRSEC21": "180327001",
    "SECNUM21": "001",
    "SSNUM21": "57",
    "SECSSNUM21": "00157",
    "OBJECTID_1": 189698,
    "DT": "18",
    "CC": "03",
    "fr": "27",
    "SEC": "001",
    "SS": "57"
  },
  "addresses": [
    {
      "id": "pt.ine.add.PTCONT.5428547",
      "street": "ESTR PRINCIPAL",
      "house": "3701",
      "postcode": "3600-579",
      "city": "RERIZ",
      "lon": "-7.975146921451115",
      "lat": "40.910880179908865"
    },
    {
      "id": "pt.ine.add.PTCONT.5520747",
      "street": "R CONDE",
      "house": "173",
      "postcode": "3600-599",
      "city": "RERIZ",
      "lon": "-7.974441568138701",
      "lat": "40.908024698660576"
    },
    {
      "id": "pt.ine.add.PTCONT.5596962",
      "street": "R CONDE",
      "house": "237",
      "postcode": "3600-599",
      "city": "RERIZ",
      "lon": "-7.973942396427878",
      "lat": "40.908303158833036"
    },
    {
      "id": "pt.ine.add.PTCONT.5605939",
      "street": "R CRUZ DE FERRO",
      "house": "386",
      "postcode": "3600-599",
      "city": "RERIZ",
      "lon": "-7.9746676614372145",
      "lat": "40.90778188056965"
    },
    {
      "id": "pt.ine.add.PTCONT.5619255",
      "street": "R CRUZEIRO",
      "house": "31",
      "postcode": "3600-599",
      "city": "RERIZ",
      "lon": "-7.975735407295024",
      "lat": "40.907981447600505"
    }
  ]
}