{
  "data": {
    "distrito": "Setúbal",
    "concelho": "Palmela",
    "freguesia": "União das freguesias de Poceirão e Marateca",
    "OBJECTID": 831,
    "BGRI2021": "15080600704",
    "DT21": "15",
    "DTMN21": "1508",
    "DTMNFR21": "150806",
    "DTMNFRSEC21": "150806007",
    "SECNUM21": "007",
    "SSNUM21": "04",
    "SECSSNUM21": "00704",
    "OBJECTID_1": 166063,
    "DT": "15",
    "CC": "08",
    "fr": "06",
    "SEC": "007",
    "SS": "04"
  },
  "addresses": [
    {
      "id": "pt.ine.add.PTCONT.4678431",
      "street": "ESTR LAGAMECAS",
      "house": "",
      "postcode": "2965-261",
      "city": "POCEIRÃO",
      "lon": "-8.774323760572809",
      "lat": "38.60881865577366"
    },
    {
      "id": "pt.ine.add.PTCONT.4882984",
      "street": "R CHAFRUDAO PALMELA",
      "house": "",
      "postcode": "2965-261",
      "city": "POCEIRÃO",
      "lon": "-8.769579126171285",
      "lat": "38.61338260654196"
    },
    {
      "id": "pt.ine.add.PTCONT.4905837",
      "street": "ESTR LAGAMECAS",
      "house": "",
      "postcode": "2965-261",
      "city": "POCEIRÃO",
      "lon": "-8.773890318829006",
      "lat": "38.609136318181946"
    },
    {
      "id": "pt.ine.add.PTCONT.4928970",
      "street": "R CHAFRUDAO DE PALMELA",
      "house": "",
      "postcode": "2965-261",
      "city": "POCEIRÃO",
      "lon": "-8.77049617228321",
      "lat": "38.61401645296119"
    },
    {
      "id": "pt.ine.add.PTCONT.4928971",
      "street": "ESTR LAGAMECAS",
      "house": "",
      "postcode": "2965-261",
      "city": "POCEIRÃO",
      "lon": "-8.775003051884294",
      "lat": "38.608560601214975"
    },
    {
      "id": "pt.ine.add.PTCONT.4958351",
      "street": "R ESCOLA PRIMARIA",
      "house": "",
      "postcode": "2965-256",
      "city": "POCEIRÃO",
      "lon": "-8.769638045991538",
      "lat": "38.61253761254265"
    },
    {
      "id": "pt.ine.add.PTCONT.4968879",
      "street": "R CONSTANTINO LOUREIRO",
      "house": "",
      "postcode": "2965-261",
      "city": "POCEIRÃO",
      "lon": "-8.775545658592836",
      "lat": "38.6132349934584"
    },
    {
      "id": "pt.ine.add.PTCONT.5013427",
      "street": "R ESCOLA PRIMARIA",
      "house": "",
      "postcode": "2965-256",
      "city": "POCEIRÃO",
      "lon": "-8.769842293420641",
      "lat": "38.61388563543429"
    },
    {
      "id": "pt.ine.add.PTCONT.5042077",
      "street": "ESTR LAGAMECAS",
      "house": "",
      "postcode": "2965-261",
      "city": "POCEIRÃO",
      "lon": "-8.773782551746093",
      "lat": "38.61115129790728"
    },
    {
      "id": "pt.ine.add.PTCONT.5074636",
      "street": "R CHAFRUDAO DE PALMELA",
      "house": "",
      "postcode": "2965-261",
      "city": "POCEIRÃO",
      "lon": "-8.77014590954778",
      "lat": "38.61335879702913"
    },
    {
      "id": "pt.ine.add.PTCONT.5103233",
      "street": "R CHAFRUDAO DE PALMELA",
      "house": "",
      "postcode": "2965-261",
      "city": "POCEIRÃO",
      "lon": "-8.770364526137655",
      "lat": "38.61371434498762"
    }
  ]
}