{
  "data": {
    "distrito": "Évora",
    "concelho": "Vila Viçosa",
    "freguesia": "Bencatel",
    "OBJECTID": 198,
    "BGRI2021": "07140100108",
    "DT21": "07",
    "DTMN21": "0714",
    "DTMNFR21": "071401",
    "DTMNFRSEC21": "071401001",
    "SECNUM21": "001",
    "SSNUM21": "08",
    "SECSSNUM21": "00108",
    "OBJECTID_1": 64209,
    "DT": "07",
    "CC": "14",
    "fr": "01",
    "SEC": "001",
    "SS": "08"
  },
  "addresses": [
    {
      "id": "pt.ine.add.PTCONT.1369697",
      "street": "HORTA DA CAVALEIRA",
      "house": "",
      "postcode": "7160-013",
      "city": "BENCATEL",
      "lon": "-7.488713334779895",
      "lat": "38.71388125859026"
    },
    {
      "id": "pt.ine.add.PTCONT.1376287",
      "street": "QTA MONTE DO ALFAVAL",
      "house": "",
      "postcode": "7160-016",
      "city": "BENCATEL",
      "lon": "-7.487985708445385",
      "lat": "38.71424657697942"
    },
    {
      "id": "pt.ine.add.PTCONT.1386999",
      "street": "MTE GALVOES",
      "house": "",
      "postcode": "7160-017",
      "city": "BENCATEL",
      "lon": "-7.479624299151725",
      "lat": "38.696859591318606"
    },
    {
      "id": "pt.ine.add.PTCONT.1391468",
      "street": "QTA MONTE DO ALFAVAL",
      "house": "",
      "postcode": "7160-016",
      "city": "BENCATEL",
      "lon": "-7.488077522459099",
      "lat": "38.71426509967118"
    },
    {
      "id": "pt.ine.add.PTCONT.1414125",
      "street": "MTE GALVOES",
      "house": "",
      "postcode": "7160-017",
      "city": "BENCATEL",
      "lon": "-7.481865035701678",
      "lat": "38.70834839126814"
    },
    {
      "id": "pt.ine.add.PTCONT.1415509",
      "street": "MTE CAVALEIRA",
      "house": "",
      "postcode": "7160-017",
      "city": "BENCATEL",
      "lon": "-7.482347624096348",
      "lat": "38.70837810235571"
    },
    {
      "id": "pt.ine.add.PTCONT.1433694",
      "street": "QTA MONTE DO ALFAVAL",
      "house": "",
      "postcode": "7160-013",
      "city": "BENCATEL",
      "lon": "-7.488263092992618",
      "lat": "38.71408596189209"
    },
    {
      "id": "pt.ine.add.PTCONT.1444178",
      "street": "QTA MONTE DO ALFAVAL",
      "house": "",
      "postcode": "7160-016",
      "city": "BENCATEL",
      "lon": "-7.487940449233805",
      "lat": "38.71416525462885"
    },
    {
      "id": "pt.ine.add.PTCONT.1444183",
      "street": "MTE GALVOES",
      "house": "",
      "postcode": "7160-017",
      "city": "BENCATEL",
      "lon": "-7.4797149413915",
      "lat": "38.697004227297064"
    },
    {
      "id": "pt.ine.add.PTCONT.1450434",
      "street": "MTE CAVALEIRA",
      "house": "",
      "postcode": "7160-017",
      "city": "BENCATEL",
      "lon": "-7.482185781121863",
      "lat": "38.70847629033153"
    }
  ]
}