{
  "data": {
    "distrito": "Braga",
    "concelho": "Póvoa de Lanhoso",
    "freguesia": "União das freguesias de Calvos e Frades",
    "OBJECTID": 422,
    "BGRI2021": "03093100111",
    "DT21": "03",
    "DTMN21": "0309",
    "DTMNFR21": "030931",
    "DTMNFRSEC21": "030931001",
    "SECNUM21": "001",
    "SSNUM21": "11",
    "SECSSNUM21": "00111",
    "OBJECTID_1": 28960,
    "DT": "03",
    "CC": "09",
    "fr": "31",
    "SEC": "001",
    "SS": "11"
  },
  "addresses": [
    {
      "id": "pt.ine.add.PTCONT.472503",
      "street": "R CARVALHO",
      "house": "1175",
      "postcode": "4830-078",
      "city": "CALVOS PVL",
      "lon": "-8.263997044702798",
      "lat": "41.599278657150606"
    },
    {
      "id": "pt.ine.add.PTCONT.529224",
      "street": "R MOLEIRO",
      "house": "89",
      "postcode": "4830-062",
      "city": "CALVOS PVL",
      "lon": "-8.260459291358444",
      "lat": "41.59966078538042"
    },
    {
      "id": "pt.ine.add.PTCONT.559315",
      "street": "R BOTICA DE BAIXO",
      "house": "119",
      "postcode": "4830-063",
      "city": "CALVOS PVL",
      "lon": "-8.256752826346796",
      "lat": "41.59965582755026"
    },
    {
      "id": "pt.ine.add.PTCONT.561883",
      "street": "AV IGREJA",
      "house": "495",
      "postcode": "4830-069",
      "city": "CALVOS PVL",
      "lon": "-8.257804311316871",
      "lat": "41.59753882387711"
    },
    {
      "id": "pt.ine.add.PTCONT.599643",
      "street": "R BOTICA DE BAIXO",
      "house": "145",
      "postcode": "4830-063",
      "city": "CALVOS PVL",
      "lon": "-8.257112486040125",
      "lat": "41.59955639957702"
    },
    {
      "id": "pt.ine.add.PTCONT.623183",
      "street": "R AMAREIRA",
      "house": "87",
      "postcode": "4830-062",
      "city": "CALVOS PVL",
      "lon": "-8.263194452952598",
      "lat": "41.59981078589957"
    },
    {
      "id": "pt.ine.add.PTCONT.625583",
      "street": "R VINHAS",
      "house": "76",
      "postcode": "4830-080",
      "city": "CALVOS PVL",
      "lon": "-8.263019300431075",
      "lat": "41.596209506142166"
    },
    {
      "id": "pt.ine.add.PTCONT.646564",
      "street": "R CALVOS",
      "house": "960",
      "postcode": "4830-065",
      "city": "CALVOS PVL",
      "lon": "-8.263395705970108",
      "lat": "41.598487015181576"
    },
    {
      "id": "pt.ine.add.PTCONT.675812",
      "street": "R CALVOS",
      "house": "504",
      "postcode": "4830-065",
      "city": "CALVOS PVL",
      "lon": "-8.264623671753938",
      "lat": "41.594794101459364"
    },
    {
      "id": "pt.ine.add.PTCONT.690671",
      "street": "TV ESCOLA",
      "house": "41",
      "postcode": "4830-080",
      "city": "CALVOS PVL",
      "lon": "-8.263592471620578",
      "lat": "41.594939335602355"
    },
    {
      "id": "pt.ine.add.PTCONT.741380",
      "street": "TV ESCOLA",
      "house": "19",
      "postcode": "4830-080",
      "city": "CALVOS PVL",
      "lon": "-8.263280498389902",
      "lat": "41.59487666334775"
    },
    {
      "id": "pt.ine.add.PTCONT.792314",
      "street": "R AMAREIRA",
      "house": "376",
      "postcode": "4830-062",
      "city": "CALVOS PVL",
      "lon": "-8.26032830149964",
      "lat": "41.60014712975097"
    }
  ]
}