{
  "data": {
    "distrito": "Évora",
    "concelho": "Montemor-O-Novo",
    "freguesia": "União das freguesias de Nossa Senhora da Vila, Nossa Senhora do Bispo e Silveiras",
    "OBJECTID": 494,
    "BGRI2021": "07061200921",
    "DT21": "07",
    "DTMN21": "0706",
    "DTMNFR21": "070612",
    "DTMNFRSEC21": "070612009",
    "SECNUM21": "009",
    "SSNUM21": "21",
    "SECSSNUM21": "00921",
    "OBJECTID_1": 61558,
    "DT": "07",
    "CC": "06",
    "fr": "12",
    "SEC": "009",
    "SS": "21"
  },
  "addresses": [
    {
      "id": "pt.ine.add.PTCONT.1367955",
      "street": "MTE DO NOVO FIALHA",
      "house": "",
      "postcode": "7050-058",
      "city": "",
      "lon": "-8.221765378188122",
      "lat": "38.65684461995597"
    },
    {
      "id": "pt.ine.add.PTCONT.1371028",
      "street": "QTA DA FIALHA",
      "house": "",
      "postcode": "7050-058",
      "city": "",
      "lon": "-8.219845019543161",
      "lat": "38.65648600942638"
    },
    {
      "id": "pt.ine.add.PTCONT.1384455",
      "street": "R FLORBELA ESPANCA",
      "house": "1 A",
      "postcode": "7050-240",
      "city": "MONTEMOR-O-NOVO",
      "lon": "-8.218470248162767",
      "lat": "38.65593400407077"
    },
    {
      "id": "pt.ine.add.PTCONT.1386643",
      "street": "R FLORBELA ESPANCA",
      "house": "5",
      "postcode": "7050-240",
      "city": "MONTEMOR-O-NOVO",
      "lon": "-8.21815790683194",
      "lat": "38.655973230231965"
    },
    {
      "id": "pt.ine.add.PTCONT.1404129",
      "street": "R FLORBELA ESPANCA - FONTE TORRES",
      "house": "2",
      "postcode": "7050-240",
      "city": "MONTEMOR-O-NOVO",
      "lon": "-8.215843882667121",
      "lat": "38.65511908032565"
    },
    {
      "id": "pt.ine.add.PTCONT.1406349",
      "street": "QTA NOVA DA FIALHA",
      "house": "",
      "postcode": "7050-058",
      "city": "",
      "lon": "-8.221944906805852",
      "lat": "38.655828584693595"
    },
    {
      "id": "pt.ine.add.PTCONT.1412126",
      "street": "QTA DA FIALHA",
      "house": "",
      "postcode": "7050-058",
      "city": "",
      "lon": "-8.221095211672717",
      "lat": "38.655649126091085"
    },
    {
      "id": "pt.ine.add.PTCONT.1412127",
      "street": "QTA DA FIALHA",
      "house": "",
      "postcode": "7050-058",
      "city": "",
      "lon": "-8.221095211672717",
      "lat": "38.655649126091085"
    },
    {
      "id": "pt.ine.add.PTCONT.1412128",
      "street": "QTA DA FIALHA",
      "house": "",
      "postcode": "7050-058",
      "city": "",
      "lon": "-8.221095211672717",
      "lat": "38.655649126091085"
    },
    {
      "id": "pt.ine.add.PTCONT.1412677",
      "street": "QTA DA FIALHA",
      "house": "",
      "postcode": "7050-058",
      "city": "",
      "lon": "-8.221095211672717",
      "lat": "38.655649126091085"
    },
    {
      "id": "pt.ine.add.PTCONT.1414020",
      "street": "R LIBERDADE",
      "house": "1",
      "postcode": "7050-175",
      "city": "MONTEMOR-O-NOVO",
      "lon": "-8.218339615662211",
      "lat": "38.65605492471268"
    },
    {
      "id": "pt.ine.add.PTCONT.1417753",
      "street": "BR VALE FLORES",
      "house": "",
      "postcode": "7050-329",
      "city": "",
      "lon": "-8.22188346064488",
      "lat": "38.65485915899703"
    },
    {
      "id": "pt.ine.add.PTCONT.1423696",
      "street": "MTE DO ABADINHO DE BAIXO",
      "house": "2",
      "postcode": "7050-050",
      "city": "MONTEMOR-O-NOVO",
      "lon": "-8.216968256814178",
      "lat": "38.6548439360053"
    },
    {
      "id": "pt.ine.add.PTCONT.1438089",
      "street": "R FLORBELA ESPANCA",
      "house": "3",
      "postcode": "7050-240",
      "city": "MONTEMOR-O-NOVO",
      "lon": "-8.21825536973561",
      "lat": "38.656016850401635"
    },
    {
      "id": "pt.ine.add.PTCONT.1455518",
      "street": "MTE DO ABADINHO DE BAIXO",
      "house": "1",
      "postcode": "7050-050",
      "city": "MONTEMOR-O-NOVO",
      "lon": "-8.216904657012908",
      "lat": "38.65492982332297"
    },
    {
      "id": "pt.ine.add.PTCONT.1458808",
      "street": "R FLORBELA ESPANCA - FONTE TORRES",
      "house": "1",
      "postcode": "7050-240",
      "city": "MONTEMOR-O-NOVO",
      "lon": "-8.215964929933383",
      "lat": "38.65523581497605"
    },
    {
      "id": "pt.ine.add.PTCONT.1461655",
      "street": "EN 114 - QTA DO OLIVAL DO VALE FLORES",
      "house": "1",
      "postcode": "7050-338",
      "city": "",
      "lon": "-8.222122572709255",
      "lat": "38.6550984408975"
    }
  ]
}