{
  "data": {
    "distrito": "Leiria",
    "concelho": "Pombal",
    "freguesia": "Abiul",
    "OBJECTID": 2311,
    "BGRI2021": "10150100444",
    "DT21": "10",
    "DTMN21": "1015",
    "DTMNFR21": "101501",
    "DTMNFRSEC21": "101501004",
    "SECNUM21": "004",
    "SSNUM21": "44",
    "SECSSNUM21": "00444",
    "OBJECTID_1": 96969,
    "DT": "10",
    "CC": "15",
    "fr": "01",
    "SEC": "004",
    "SS": "44"
  },
  "addresses": [
    {
      "id": "pt.ine.add.PTCONT.2019585",
      "street": "ESTR FREIXIANDA",
      "house": "",
      "postcode": "3100-014",
      "city": "ABIUL",
      "lon": "-8.50234498968721",
      "lat": "39.84229034792099"
    },
    {
      "id": "pt.ine.add.PTCONT.2093316",
      "street": "ESTR RIBEIRA DE BAIXO",
      "house": "",
      "postcode": "3100-014",
      "city": "ABIUL",
      "lon": "-8.502980348024279",
      "lat": "39.84529646438676"
    },
    {
      "id": "pt.ine.add.PTCONT.2172968",
      "street": "ESTR RIBEIRA DE BAIXO",
      "house": "",
      "postcode": "3100-014",
      "city": "ABIUL",
      "lon": "-8.50423852372208",
      "lat": "39.84677850290013"
    },
    {
      "id": "pt.ine.add.PTCONT.2187171",
      "street": "R D CARLOS",
      "house": "",
      "postcode": "3100-014",
      "city": "ABIUL",
      "lon": "-8.502785291525363",
      "lat": "39.8437840097023"
    },
    {
      "id": "pt.ine.add.PTCONT.2189521",
      "street": "R PRINCIPAL",
      "house": "",
      "postcode": "3100-014",
      "city": "ABIUL",
      "lon": "-8.502641033532706",
      "lat": "39.84738703156426"
    },
    {
      "id": "pt.ine.add.PTCONT.2193426",
      "street": "R PRINCIPAL",
      "house": "",
      "postcode": "3100-014",
      "city": "ABIUL",
      "lon": "-8.50268670803098",
      "lat": "39.84718874519715"
    },
    {
      "id": "pt.ine.add.PTCONT.2196414",
      "street": "R D CARLOS I",
      "house": "",
      "postcode": "3100-014",
      "city": "ABIUL",
      "lon": "-8.502284643630734",
      "lat": "39.841930283527724"
    }
  ]
}