{
  "data": {
    "distrito": "Porto",
    "concelho": "Penafiel",
    "freguesia": "Irivo",
    "OBJECTID": 304,
    "BGRI2021": "13111500128",
    "DT21": "13",
    "DTMN21": "1311",
    "DTMNFR21": "131115",
    "DTMNFRSEC21": "131115001",
    "SECNUM21": "001",
    "SSNUM21": "28",
    "SECSSNUM21": "00128",
    "OBJECTID_1": 136892,
    "DT": "13",
    "CC": "11",
    "fr": "15",
    "SEC": "001",
    "SS": "28"
  },
  "addresses": [
    {
      "id": "pt.ine.add.PTCONT.3654653",
      "street": "R CHÃOS",
      "house": "30",
      "postcode": "4560-173",
      "city": "IRIVO",
      "lon": "-8.323462415756776",
      "lat": "41.17930216605961"
    },
    {
      "id": "pt.ine.add.PTCONT.3671070",
      "street": "R EGAS MONIZ",
      "house": "157",
      "postcode": "4560-173",
      "city": "IRIVO",
      "lon": "-8.321569969427713",
      "lat": "41.180178699847346"
    },
    {
      "id": "pt.ine.add.PTCONT.3674160",
      "street": "R EGAS MONIZ",
      "house": "157",
      "postcode": "4560-173",
      "city": "IRIVO",
      "lon": "-8.321569969427713",
      "lat": "41.180178699847346"
    },
    {
      "id": "pt.ine.add.PTCONT.3759403",
      "street": "R EGAS MONIZ",
      "house": "",
      "postcode": "4560-173",
      "city": "IRIVO",
      "lon": "-8.321700965030901",
      "lat": "41.180142468041716"
    },
    {
      "id": "pt.ine.add.PTCONT.3872564",
      "street": "R FONTE DA LAMA",
      "house": "7",
      "postcode": "4560-173",
      "city": "IRIVO",
      "lon": "-8.323324194171985",
      "lat": "41.18095919420925"
    },
    {
      "id": "pt.ine.add.PTCONT.3876292",
      "street": "R EGAS MONIZ",
      "house": "",
      "postcode": "4560-173",
      "city": "IRIVO",
      "lon": "-8.322823213001996",
      "lat": "41.18081595096389"
    },
    {
      "id": "pt.ine.add.PTCONT.4196669",
      "street": "R EGAS MONIZ",
      "house": "231",
      "postcode": "4560-173",
      "city": "IRIVO",
      "lon": "-8.323145368751883",
      "lat": "41.180941480710686"
    },
    {
      "id": "pt.ine.add.PTCONT.4292614",
      "street": "R CHÃOS",
      "house": "23",
      "postcode": "4560-173",
      "city": "IRIVO",
      "lon": "-8.3235335842606",
      "lat": "41.17918499189279"
    },
    {
      "id": "pt.ine.add.PTCONT.4292616",
      "street": "R CHÃOS",
      "house": "38",
      "postcode": "4560-173",
      "city": "IRIVO",
      "lon": "-8.323629397152121",
      "lat": "41.179346911709324"
    },
    {
      "id": "pt.ine.add.PTCONT.4341483",
      "street": "R FONTE LAMA",
      "house": "",
      "postcode": "4560-173",
      "city": "IRIVO",
      "lon": "-8.323322761290347",
      "lat": "41.18046395755662"
    }
  ]
}