{
  "data": {
    "distrito": "Viseu",
    "concelho": "Cinfães",
    "freguesia": "Tarouquela",
    "OBJECTID": 288,
    "BGRI2021": "18041500104",
    "DT21": "18",
    "DTMN21": "1804",
    "DTMNFR21": "180415",
    "DTMNFRSEC21": "180415001",
    "SECNUM21": "001",
    "SSNUM21": "04",
    "SECSSNUM21": "00104",
    "OBJECTID_1": 190525,
    "DT": "18",
    "CC": "04",
    "fr": "15",
    "SEC": "001",
    "SS": "04"
  },
  "addresses": [
    {
      "id": "pt.ine.add.PTCONT.5445579",
      "street": "R VISTA ALEGRE",
      "house": "152",
      "postcode": "4690-734",
      "city": "TAROUQUELA",
      "lon": "-8.182249386379269",
      "lat": "41.07182793315569"
    },
    {
      "id": "pt.ine.add.PTCONT.5490912",
      "street": "R CALVARIO",
      "house": "438",
      "postcode": "4690-713",
      "city": "TAROUQUELA",
      "lon": "-8.182675908429811",
      "lat": "41.06939652881248"
    },
    {
      "id": "pt.ine.add.PTCONT.5494844",
      "street": "R CORREDOURA",
      "house": "10",
      "postcode": "4690-719",
      "city": "TAROUQUELA",
      "lon": "-8.186055024227805",
      "lat": "41.069458057478265"
    },
    {
      "id": "pt.ine.add.PTCONT.5530910",
      "street": "R VISTA ALEGRE",
      "house": "148",
      "postcode": "4690-734",
      "city": "TAROUQUELA",
      "lon": "-8.182665626224892",
      "lat": "41.07154861468978"
    },
    {
      "id": "pt.ine.add.PTCONT.5534519",
      "street": "R LAMEIRAS",
      "house": "1081",
      "postcode": "4690-713",
      "city": "TAROUQUELA",
      "lon": "-8.180367576872467",
      "lat": "41.069262430686514"
    },
    {
      "id": "pt.ine.add.PTCONT.5546769",
      "street": "CC MOINHOS",
      "house": "10",
      "postcode": "4690-719",
      "city": "TAROUQUELA",
      "lon": "-8.184640053910412",
      "lat": "41.07062028270817"
    },
    {
      "id": "pt.ine.add.PTCONT.5549440",
      "street": "R CALVÁRIO",
      "house": "438",
      "postcode": "4690-713",
      "city": "TAROUQUELA",
      "lon": "-8.18392529394105",
      "lat": "41.069504038952964"
    },
    {
      "id": "pt.ine.add.PTCONT.5554140",
      "street": "R AGRAMUNHA",
      "house": "128",
      "postcode": "4690-719",
      "city": "TAROUQUELA",
      "lon": "-8.184616095605211",
      "lat": "41.070413189348784"
    },
    {
      "id": "pt.ine.add.PTCONT.5567584",
      "street": "R CALVÁRIO",
      "house": "438",
      "postcode": "4690-713",
      "city": "TAROUQUELA",
      "lon": "-8.1838065684926",
      "lat": "41.06983725871466"
    },
    {
      "id": "pt.ine.add.PTCONT.5602587",
      "street": "R AGRAMUNHA",
      "house": "277",
      "postcode": "4690-719",
      "city": "TAROUQUELA",
      "lon": "-8.18267684166984",
      "lat": "41.070639152947855"
    },
    {
      "id": "pt.ine.add.PTCONT.5605287",
      "street": "R CALVÁRIO",
      "house": "180",
      "postcode": "4690-713",
      "city": "TAROUQUELA",
      "lon": "-8.182257824834817",
      "lat": "41.06718159391313"
    },
    {
      "id": "pt.ine.add.PTCONT.5625091",
      "street": "R CALVÁRIO",
      "house": "138",
      "postcode": "4690-713",
      "city": "TAROUQUELA",
      "lon": "-8.18187703131945",
      "lat": "41.06709171039186"
    },
    {
      "id": "pt.ine.add.PTCONT.5628845",
      "street": "R LAMEIRAS",
      "house": "1035",
      "postcode": "4690-713",
      "city": "TAROUQUELA",
      "lon": "-8.18019953237556",
      "lat": "41.06720046245885"
    },
    {
      "id": "pt.ine.add.PTCONT.5628860",
      "street": "R AGRAMUNHA",
      "house": "202",
      "postcode": "4690-719",
      "city": "TAROUQUELA",
      "lon": "-8.183723778312118",
      "lat": "41.07048562093591"
    },
    {
      "id": "pt.ine.add.PTCONT.5644009",
      "street": "R LAMEIRAS",
      "house": "989",
      "postcode": "4690-713",
      "city": "TAROUQUELA",
      "lon": "-8.180984670994343",
      "lat": "41.06704706193057"
    },
    {
      "id": "pt.ine.add.PTCONT.5655139",
      "street": "R VISTA ALEGRE",
      "house": "150",
      "postcode": "4690-734",
      "city": "TAROUQUELA",
      "lon": "-8.18223734705774",
      "lat": "41.071638843307156"
    }
  ]
}