{
  "data": {
    "distrito": "Porto",
    "concelho": "Santo Tirso",
    "freguesia": "União das freguesias de Areias, Sequeiró, Lama e Palmeira",
    "OBJECTID": 690,
    "BGRI2021": "13143300305",
    "DT21": "13",
    "DTMN21": "1314",
    "DTMNFR21": "131433",
    "DTMNFRSEC21": "131433003",
    "SECNUM21": "003",
    "SSNUM21": "05",
    "SECSSNUM21": "00305",
    "OBJECTID_1": 141573,
    "DT": "13",
    "CC": "14",
    "fr": "33",
    "SEC": "003",
    "SS": "05"
  },
  "addresses": [
    {
      "id": "pt.ine.add.PTCONT.3707018",
      "street": "R JOAQUIM TEIXEIRA DE MELO",
      "house": "217",
      "postcode": "4780-278",
      "city": "LAMA STS",
      "lon": "-8.468977639389756",
      "lat": "41.35333604587963"
    },
    {
      "id": "pt.ine.add.PTCONT.3707019",
      "street": "R JOAQUIM TEIXEIRA DE MELO",
      "house": "217",
      "postcode": "4780-278",
      "city": "LAMA STS",
      "lon": "-8.468977639389756",
      "lat": "41.35333604587963"
    },
    {
      "id": "pt.ine.add.PTCONT.3707020",
      "street": "R JOAQUIM TEIXEIRA DE MELO",
      "house": "217",
      "postcode": "4780-278",
      "city": "LAMA STS",
      "lon": "-8.468977639389756",
      "lat": "41.35333604587963"
    },
    {
      "id": "pt.ine.add.PTCONT.3707021",
      "street": "R JOAQUIM TEIXEIRA DE MELO",
      "house": "217",
      "postcode": "4780-278",
      "city": "LAMA STS",
      "lon": "-8.468977639389756",
      "lat": "41.35333604587963"
    },
    {
      "id": "pt.ine.add.PTCONT.3787261",
      "street": "TV MACIEIRA",
      "house": "186",
      "postcode": "4780-278",
      "city": "LAMA STS",
      "lon": "-8.468557651417767",
      "lat": "41.35299511644033"
    },
    {
      "id": "pt.ine.add.PTCONT.3791787",
      "street": "TV MACIEIRA",
      "house": "232",
      "postcode": "4780-278",
      "city": "LAMA STS",
      "lon": "-8.468844853586003",
      "lat": "41.35307531552751"
    },
    {
      "id": "pt.ine.add.PTCONT.3898896",
      "street": "TV MACIEIRA",
      "house": "170",
      "postcode": "4780-278",
      "city": "LAMA STS",
      "lon": "-8.468796223287743",
      "lat": "41.352913384262756"
    },
    {
      "id": "pt.ine.add.PTCONT.3994357",
      "street": "R JOAQUIM TEIXEIRA DE MELO",
      "house": "159",
      "postcode": "4780-278",
      "city": "LAMA STS",
      "lon": "-8.468369417499144",
      "lat": "41.353571924890325"
    },
    {
      "id": "pt.ine.add.PTCONT.3994358",
      "street": "R JOAQUIM TEIXEIRA DE MELO",
      "house": "159",
      "postcode": "4780-278",
      "city": "LAMA STS",
      "lon": "-8.468369417499144",
      "lat": "41.353571924890325"
    },
    {
      "id": "pt.ine.add.PTCONT.4017782",
      "street": "R JOAQUIM TEIXEIRA MELO",
      "house": "179",
      "postcode": "4780-278",
      "city": "LAMA STS",
      "lon": "-8.46858404648239",
      "lat": "41.35348125884259"
    },
    {
      "id": "pt.ine.add.PTCONT.4017783",
      "street": "R JOAQUIM TEIXEIRA MELO",
      "house": "181",
      "postcode": "4780-278",
      "city": "LAMA STS",
      "lon": "-8.46858404648239",
      "lat": "41.35348125884259"
    },
    {
      "id": "pt.ine.add.PTCONT.4022359",
      "street": "R JOAQUIM TEIXEIRA MELO",
      "house": "175",
      "postcode": "4780-278",
      "city": "LAMA STS",
      "lon": "-8.46858404648239",
      "lat": "41.35348125884259"
    },
    {
      "id": "pt.ine.add.PTCONT.4023443",
      "street": "R JOAQUIM TEIXEIRA DE MELO",
      "house": "173",
      "postcode": "4780-278",
      "city": "LAMA STS",
      "lon": "-8.46858404648239",
      "lat": "41.35348125884259"
    },
    {
      "id": "pt.ine.add.PTCONT.4105580",
      "street": "R JOAQUIM TEIXEIRA DE MELO",
      "house": "187",
      "postcode": "4780-278",
      "city": "LAMA STS",
      "lon": "-8.468774914667073",
      "lat": "41.35341767388179"
    },
    {
      "id": "pt.ine.add.PTCONT.4105581",
      "street": "R JOAQUIM TEIXEIRA MELO",
      "house": "201",
      "postcode": "4780-278",
      "city": "LAMA STS",
      "lon": "-8.468774914667073",
      "lat": "41.35341767388179"
    },
    {
      "id": "pt.ine.add.PTCONT.4197237",
      "street": "R JOAQUIM TEIXEIRA DE MELO",
      "house": "131",
      "postcode": "4780-278",
      "city": "LAMA STS",
      "lon": "-8.468154741749945",
      "lat": "41.353653586611806"
    },
    {
      "id": "pt.ine.add.PTCONT.4229904",
      "street": "R JOSE DIAS DA COSTA",
      "house": "740",
      "postcode": "4780-279",
      "city": "LAMA STS",
      "lon": "-8.466865158227089",
      "lat": "41.35384641894228"
    },
    {
      "id": "pt.ine.add.PTCONT.4245504",
      "street": "TV MACIEIRA",
      "house": "194",
      "postcode": "4780-278",
      "city": "LAMA STS",
      "lon": "-8.468499013532439",
      "lat": "41.35321138482787"
    }
  ]
}