{
  "data": {
    "distrito": "Guarda",
    "concelho": "Trancoso",
    "freguesia": "Cótimos",
    "OBJECTID": 665,
    "BGRI2021": "09130500119",
    "DT21": "09",
    "DTMN21": "0913",
    "DTMNFR21": "091305",
    "DTMNFRSEC21": "091305001",
    "SECNUM21": "001",
    "SSNUM21": "19",
    "SECSSNUM21": "00119",
    "OBJECTID_1": 83212,
    "DT": "09",
    "CC": "13",
    "fr": "05",
    "SEC": "001",
    "SS": "19"
  },
  "addresses": [
    {
      "id": "pt.ine.add.PTCONT.1903539",
      "street": "R DA JUNQUEIRA",
      "house": "",
      "postcode": "6420-351",
      "city": "CÓTIMOS",
      "lon": "-7.239956160294227",
      "lat": "40.827982296196616"
    },
    {
      "id": "pt.ine.add.PTCONT.1917444",
      "street": "R CIMEIRA",
      "house": "4",
      "postcode": "6420-351",
      "city": "CÓTIMOS",
      "lon": "-7.2413456968784695",
      "lat": "40.828677406325006"
    },
    {
      "id": "pt.ine.add.PTCONT.1922478",
      "street": "R BÁRBARA DIZ",
      "house": "2",
      "postcode": "6420-351",
      "city": "CÓTIMOS",
      "lon": "-7.240454970088756",
      "lat": "40.82791411900118"
    },
    {
      "id": "pt.ine.add.PTCONT.1924599",
      "street": "R BÁRBARA DIZ",
      "house": "8",
      "postcode": "6420-351",
      "city": "CÓTIMOS",
      "lon": "-7.240896442880998",
      "lat": "40.827701420299796"
    },
    {
      "id": "pt.ine.add.PTCONT.1929365",
      "street": "R DA CANCELA",
      "house": "",
      "postcode": "6420-351",
      "city": "CÓTIMOS",
      "lon": "-7.240764365884265",
      "lat": "40.8278264651759"
    },
    {
      "id": "pt.ine.add.PTCONT.1931493",
      "street": "R DA JUNQUEIRA",
      "house": "",
      "postcode": "6420-351",
      "city": "CÓTIMOS",
      "lon": "-7.240039134256823",
      "lat": "40.82798293856005"
    },
    {
      "id": "pt.ine.add.PTCONT.1941755",
      "street": "R BÁRBARA DIZ",
      "house": "4",
      "postcode": "6420-351",
      "city": "CÓTIMOS",
      "lon": "-7.240655512348512",
      "lat": "40.82798770853473"
    },
    {
      "id": "pt.ine.add.PTCONT.1878427",
      "street": "R BÁRBARA DIZ",
      "house": "6",
      "postcode": "6420-351",
      "city": "CÓTIMOS",
      "lon": "-7.240800770977573",
      "lat": "40.827763713553324"
    },
    {
      "id": "pt.ine.add.PTCONT.1888337",
      "street": "R DA JUNQUEIRA",
      "house": "14",
      "postcode": "6420-351",
      "city": "CÓTIMOS",
      "lon": "-7.240311279942286",
      "lat": "40.82802106400142"
    }
  ]
}