{
  "data": {
    "distrito": "Viseu",
    "concelho": "Penalva do Castelo",
    "freguesia": "Esmolfe",
    "OBJECTID": 313,
    "BGRI2021": "18110300121",
    "DT21": "18",
    "DTMN21": "1811",
    "DTMNFR21": "181103",
    "DTMNFRSEC21": "181103001",
    "SECNUM21": "001",
    "SSNUM21": "21",
    "SECSSNUM21": "00121",
    "OBJECTID_1": 194432,
    "DT": "18",
    "CC": "11",
    "fr": "03",
    "SEC": "001",
    "SS": "21"
  },
  "addresses": [
    {
      "id": "pt.ine.add.PTCONT.5495138",
      "street": "QTA QUIJO",
      "house": "",
      "postcode": "3550-071",
      "city": "ESMOLFE",
      "lon": "-7.693116142409465",
      "lat": "40.69140177735271"
    },
    {
      "id": "pt.ine.add.PTCONT.5534371",
      "street": "R ARVELOS",
      "house": "",
      "postcode": "3550-071",
      "city": "ESMOLFE",
      "lon": "-7.690687745861079",
      "lat": "40.684719730059044"
    },
    {
      "id": "pt.ine.add.PTCONT.5535855",
      "street": "QTA QUIJO",
      "house": "",
      "postcode": "3550-071",
      "city": "ESMOLFE",
      "lon": "-7.69243218138401",
      "lat": "40.691065980765096"
    },
    {
      "id": "pt.ine.add.PTCONT.5570404",
      "street": "QTA ARVELOS",
      "house": "",
      "postcode": "3550-071",
      "city": "ESMOLFE",
      "lon": "-7.6906570820949",
      "lat": "40.68399020031929"
    },
    {
      "id": "pt.ine.add.PTCONT.5586931",
      "street": "QTA ARUELOS",
      "house": "",
      "postcode": "3550-071",
      "city": "ESMOLFE",
      "lon": "-7.68825964317981",
      "lat": "40.686961671672485"
    },
    {
      "id": "pt.ine.add.PTCONT.5610807",
      "street": "QTA QUIJO",
      "house": "",
      "postcode": "3550-071",
      "city": "ESMOLFE",
      "lon": "-7.692786139475319",
      "lat": "40.691211412551716"
    },
    {
      "id": "pt.ine.add.PTCONT.5644944",
      "street": "QTA ARUELOS",
      "house": "",
      "postcode": "3550-071",
      "city": "ESMOLFE",
      "lon": "-7.689731691507919",
      "lat": "40.686183891748954"
    },
    {
      "id": "pt.ine.add.PTCONT.5652356",
      "street": "QTA QUIJO",
      "house": "",
      "postcode": "3550-071",
      "city": "ESMOLFE",
      "lon": "-7.694861624187533",
      "lat": "40.69042686265393"
    }
  ]
}