{
  "data": {
    "distrito": "Vila Real",
    "concelho": "Chaves",
    "freguesia": "Planalto de Monforte (União das freguesias de Oucidres e Bobadela)",
    "OBJECTID": 1302,
    "BGRI2021": "17035300133",
    "DT21": "17",
    "DTMN21": "1703",
    "DTMNFR21": "170353",
    "DTMNFRSEC21": "170353001",
    "SECNUM21": "001",
    "SSNUM21": "33",
    "SECSSNUM21": "00133",
    "OBJECTID_1": 182195,
    "DT": "17",
    "CC": "03",
    "fr": "53",
    "SEC": "001",
    "SS": "33"
  },
  "addresses": [
    {
      "id": "pt.ine.add.PTCONT.5288979",
      "street": "R 25 DE ABRIL",
      "house": "9",
      "postcode": "5400-606",
      "city": "BOBADELA CHV",
      "lon": "-7.3152683866439645",
      "lat": "41.761837828072075"
    },
    {
      "id": "pt.ine.add.PTCONT.5291109",
      "street": "R DAS LUBAGUEIRAS",
      "house": "1",
      "postcode": "5400-606",
      "city": "BOBADELA CHV",
      "lon": "-7.314467826900137",
      "lat": "41.76238132983394"
    },
    {
      "id": "pt.ine.add.PTCONT.5326231",
      "street": "R DE S PEDRO",
      "house": "",
      "postcode": "5400-606",
      "city": "BOBADELA CHV",
      "lon": "-7.316694784241629",
      "lat": "41.76219910312212"
    },
    {
      "id": "pt.ine.add.PTCONT.5344747",
      "street": "R DAS LUBAGUEIRAS",
      "house": "2",
      "postcode": "5400-606",
      "city": "BOBADELA CHV",
      "lon": "-7.314594942524468",
      "lat": "41.76278738551845"
    },
    {
      "id": "pt.ine.add.PTCONT.5350929",
      "street": "LG DO EIRÓ",
      "house": "16",
      "postcode": "5400-606",
      "city": "BOBADELA CHV",
      "lon": "-7.316150815844794",
      "lat": "41.76147496955232"
    },
    {
      "id": "pt.ine.add.PTCONT.5375633",
      "street": "R DAS LUBAGUEIRAS",
      "house": "3",
      "postcode": "5400-606",
      "city": "BOBADELA CHV",
      "lon": "-7.314622308719093",
      "lat": "41.76252648382621"
    },
    {
      "id": "pt.ine.add.PTCONT.5383050",
      "street": "LG DO EIRÓ",
      "house": "",
      "postcode": "5400-606",
      "city": "BOBADELA CHV",
      "lon": "-7.316066191951485",
      "lat": "41.76151038111471"
    },
    {
      "id": "pt.ine.add.PTCONT.5383692",
      "street": "R 25 DE ABRIL",
      "house": "5",
      "postcode": "5400-606",
      "city": "BOBADELA CHV",
      "lon": "-7.314661813091081",
      "lat": "41.76225666525264"
    },
    {
      "id": "pt.ine.add.PTCONT.5389942",
      "street": "R 25 DE ABRIL",
      "house": "3",
      "postcode": "5400-606",
      "city": "BOBADELA CHV",
      "lon": "-7.314528633605434",
      "lat": "41.762327743096414"
    },
    {
      "id": "pt.ine.add.PTCONT.5396003",
      "street": "R DO CRUZEIRO",
      "house": "1",
      "postcode": "5400-606",
      "city": "BOBADELA CHV",
      "lon": "-7.318386003306347",
      "lat": "41.76158987856455"
    },
    {
      "id": "pt.ine.add.PTCONT.5401390",
      "street": "R DO CASTELO",
      "house": "2",
      "postcode": "5400-606",
      "city": "BOBADELA CHV",
      "lon": "-7.316462751499402",
      "lat": "41.761531207265534"
    },
    {
      "id": "pt.ine.add.PTCONT.5413261",
      "street": "R 25 DE ABRIL",
      "house": "11",
      "postcode": "5400-606",
      "city": "BOBADELA CHV",
      "lon": "-7.315511608137795",
      "lat": "41.761623479163035"
    },
    {
      "id": "pt.ine.add.PTCONT.5415611",
      "street": "R 25 DE ABRIL",
      "house": "14",
      "postcode": "5400-606",
      "city": "BOBADELA CHV",
      "lon": "-7.315910452742695",
      "lat": "41.76146425678161"
    },
    {
      "id": "pt.ine.add.PTCONT.5426266",
      "street": "R 25 DE ABRIL",
      "house": "12",
      "postcode": "5400-606",
      "city": "BOBADELA CHV",
      "lon": "-7.315646042005497",
      "lat": "41.761453372406045"
    }
  ]
}