{
  "data": {
    "distrito": "Porto",
    "concelho": "Penafiel",
    "freguesia": "Bustelo",
    "OBJECTID": 1592,
    "BGRI2021": "13110300117",
    "DT21": "13",
    "DTMN21": "1311",
    "DTMNFR21": "131103",
    "DTMNFRSEC21": "131103001",
    "SECNUM21": "001",
    "SSNUM21": "17",
    "SECSSNUM21": "00117",
    "OBJECTID_1": 136582,
    "DT": "13",
    "CC": "11",
    "fr": "03",
    "SEC": "001",
    "SS": "17"
  },
  "addresses": [
    {
      "id": "pt.ine.add.PTCONT.3808728",
      "street": "R VALE",
      "house": "106",
      "postcode": "4560-042",
      "city": "BUSTELO PNF",
      "lon": "-8.26323999377557",
      "lat": "41.227018772721664"
    },
    {
      "id": "pt.ine.add.PTCONT.3835835",
      "street": "R SENHOR DO CALVÁRIO",
      "house": "",
      "postcode": "4560-043",
      "city": "BUSTELO PNF",
      "lon": "-8.261356960221804",
      "lat": "41.22772321883999"
    },
    {
      "id": "pt.ine.add.PTCONT.3839773",
      "street": "R VALE",
      "house": "",
      "postcode": "4560-042",
      "city": "BUSTELO PNF",
      "lon": "-8.261319755258892",
      "lat": "41.226993913888535"
    },
    {
      "id": "pt.ine.add.PTCONT.3865034",
      "street": "R SENHOR DO CALVÁRIO",
      "house": "",
      "postcode": "4560-043",
      "city": "BUSTELO PNF",
      "lon": "-8.261523917073111",
      "lat": "41.22771402849952"
    },
    {
      "id": "pt.ine.add.PTCONT.3872692",
      "street": "R VALE",
      "house": "",
      "postcode": "4560-042",
      "city": "BUSTELO PNF",
      "lon": "-8.263313714858437",
      "lat": "41.22810820677173"
    },
    {
      "id": "pt.ine.add.PTCONT.3945784",
      "street": "R SR CALVARIO",
      "house": "",
      "postcode": "4560-043",
      "city": "BUSTELO PNF",
      "lon": "-8.261631222523395",
      "lat": "41.22769590023386"
    },
    {
      "id": "pt.ine.add.PTCONT.3948989",
      "street": "R PONTE",
      "house": "334",
      "postcode": "4560-042",
      "city": "BUSTELO PNF",
      "lon": "-8.261630129356648",
      "lat": "41.22713763632899"
    },
    {
      "id": "pt.ine.add.PTCONT.4118160",
      "street": "AV S MIGUEL DE BUSTELO",
      "house": "2626",
      "postcode": "4560-043",
      "city": "BUSTELO PNF",
      "lon": "-8.26532371433387",
      "lat": "41.23123039904524"
    }
  ]
}