{
  "data": {
    "distrito": "Viseu",
    "concelho": "Lamego",
    "freguesia": "Vila Nova de Souto d'El-Rei",
    "OBJECTID": 740,
    "BGRI2021": "18052400129",
    "DT21": "18",
    "DTMN21": "1805",
    "DTMNFR21": "180524",
    "DTMNFRSEC21": "180524001",
    "SECNUM21": "001",
    "SSNUM21": "29",
    "SECSSNUM21": "00129",
    "OBJECTID_1": 191182,
    "DT": "18",
    "CC": "05",
    "fr": "24",
    "SEC": "001",
    "SS": "29"
  },
  "addresses": [
    {
      "id": "pt.ine.add.PTCONT.5428996",
      "street": "",
      "house": "",
      "postcode": "5100-891",
      "city": "VILA NOVA SOUTO D'EL-REI",
      "lon": "-7.8244050309485536",
      "lat": "41.08355397613346"
    },
    {
      "id": "pt.ine.add.PTCONT.5443549",
      "street": "",
      "house": "",
      "postcode": "5100-891",
      "city": "VILA NOVA SOUTO D'EL-REI",
      "lon": "-7.822252101178896",
      "lat": "41.08332307603687"
    },
    {
      "id": "pt.ine.add.PTCONT.5445474",
      "street": "QTA MESQUITA",
      "house": "",
      "postcode": "5100-898",
      "city": "VILA NOVA SOUTO D'EL-REI",
      "lon": "-7.819663626980205",
      "lat": "41.084594700897355"
    },
    {
      "id": "pt.ine.add.PTCONT.5471069",
      "street": "QTA TAPADA SOUTO",
      "house": "",
      "postcode": "5100-891",
      "city": "VILA NOVA SOUTO D'EL-REI",
      "lon": "-7.821857856658838",
      "lat": "41.08364617331204"
    },
    {
      "id": "pt.ine.add.PTCONT.5505397",
      "street": "R ESTRADA",
      "house": "",
      "postcode": "5100-894",
      "city": "",
      "lon": "-7.822502307567917",
      "lat": "41.083260719347194"
    },
    {
      "id": "pt.ine.add.PTCONT.5528461",
      "street": "",
      "house": "",
      "postcode": "5100-891",
      "city": "VILA NOVA SOUTO D'EL-REI",
      "lon": "-7.822371105757874",
      "lat": "41.083323397018326"
    },
    {
      "id": "pt.ine.add.PTCONT.5558379",
      "street": "LG ESTRADA",
      "house": "",
      "postcode": "5100-891",
      "city": "VILA NOVA SOUTO D'EL-REI",
      "lon": "-7.822788003011064",
      "lat": "41.08324348012913"
    },
    {
      "id": "pt.ine.add.PTCONT.5562652",
      "street": "R ESTRADA",
      "house": "",
      "postcode": "5100-898",
      "city": "VILA NOVA SOUTO D'EL-REI",
      "lon": "-7.822204202291702",
      "lat": "41.08338597821619"
    },
    {
      "id": "pt.ine.add.PTCONT.5580303",
      "street": "R ESTRADA",
      "house": "",
      "postcode": "5100-891",
      "city": "VILA NOVA SOUTO D'EL-REI",
      "lon": "-7.822657055753061",
      "lat": "41.08325213188981"
    },
    {
      "id": "pt.ine.add.PTCONT.5583996",
      "street": "R ESTRADA",
      "house": "",
      "postcode": "5100-894",
      "city": "",
      "lon": "-7.822418834811775",
      "lat": "41.08329651225873"
    },
    {
      "id": "pt.ine.add.PTCONT.5592972",
      "street": "R ESTRADA",
      "house": "",
      "postcode": "5100-891",
      "city": "VILA NOVA SOUTO D'EL-REI",
      "lon": "-7.823513718845048",
      "lat": "41.08329045469305"
    },
    {
      "id": "pt.ine.add.PTCONT.5600669",
      "street": "R QUINTA DA MESQUITA",
      "house": "",
      "postcode": "5100-891",
      "city": "VILA NOVA SOUTO D'EL-REI",
      "lon": "-7.820485457008856",
      "lat": "41.08445286176522"
    },
    {
      "id": "pt.ine.add.PTCONT.5608063",
      "street": "R ESTRADA",
      "house": "",
      "postcode": "5100-891",
      "city": "VILA NOVA SOUTO D'EL-REI",
      "lon": "-7.822573710249277",
      "lat": "41.083260911795534"
    },
    {
      "id": "pt.ine.add.PTCONT.5621137",
      "street": "ESTR ESTRADA",
      "house": "",
      "postcode": "5100-891",
      "city": "VILA NOVA SOUTO D'EL-REI",
      "lon": "-7.8220848155248275",
      "lat": "41.08346669641103"
    },
    {
      "id": "pt.ine.add.PTCONT.5637640",
      "street": "ESTR ARNEIROS",
      "house": "",
      "postcode": "5100-891",
      "city": "VILA NOVA SOUTO D'EL-REI",
      "lon": "-7.823823299500359",
      "lat": "41.08325526810563"
    },
    {
      "id": "pt.ine.add.PTCONT.5660580",
      "street": "",
      "house": "",
      "postcode": "5100-891",
      "city": "VILA NOVA SOUTO D'EL-REI",
      "lon": "-7.826682042389127",
      "lat": "41.08269562305239"
    }
  ]
}