{
  "data": {
    "distrito": "Leiria",
    "concelho": "Caldas da Rainha",
    "freguesia": "Landal",
    "OBJECTID": 29,
    "BGRI2021": "10060700115",
    "DT21": "10",
    "DTMN21": "1006",
    "DTMNFR21": "100607",
    "DTMNFRSEC21": "100607001",
    "SECNUM21": "001",
    "SSNUM21": "15",
    "SECSSNUM21": "00115",
    "OBJECTID_1": 87859,
    "DT": "10",
    "CC": "06",
    "fr": "07",
    "SEC": "001",
    "SS": "15"
  },
  "addresses": [
    {
      "id": "pt.ine.add.PTCONT.2021088",
      "street": "R PRINCIPAL",
      "house": "6",
      "postcode": "2500-536",
      "city": "LANDAL",
      "lon": "-8.995728566224187",
      "lat": "39.302521911982375"
    },
    {
      "id": "pt.ine.add.PTCONT.2057332",
      "street": "R PRINCIPAL",
      "house": "10",
      "postcode": "2500-536",
      "city": "LANDAL",
      "lon": "-8.996001597329212",
      "lat": "39.30304229916459"
    },
    {
      "id": "pt.ine.add.PTCONT.2070959",
      "street": "R VALES",
      "house": "8",
      "postcode": "2500-536",
      "city": "LANDAL",
      "lon": "-8.996054138631054",
      "lat": "39.30260056283496"
    },
    {
      "id": "pt.ine.add.PTCONT.2155547",
      "street": "R D MARIA SEGUNDA",
      "house": "4",
      "postcode": "2500-535",
      "city": "LANDAL",
      "lon": "-8.995445767312644",
      "lat": "39.297425997732304"
    },
    {
      "id": "pt.ine.add.PTCONT.2194458",
      "street": "R ASSOCIAÇÃO",
      "house": "12",
      "postcode": "2500-535",
      "city": "LANDAL",
      "lon": "-8.996648457599655",
      "lat": "39.300020130706116"
    },
    {
      "id": "pt.ine.add.PTCONT.2210117",
      "street": "R VALES",
      "house": "",
      "postcode": "2500-536",
      "city": "LANDAL",
      "lon": "-8.995968128520861",
      "lat": "39.302204888846966"
    },
    {
      "id": "pt.ine.add.PTCONT.2232455",
      "street": "R PORTELA DO BREJO",
      "house": "",
      "postcode": "2500-535",
      "city": "LANDAL",
      "lon": "-8.9953353699103",
      "lat": "39.29693142555963"
    }
  ]
}