{
  "data": {
    "distrito": "Coimbra",
    "concelho": "Miranda do Corvo",
    "freguesia": "Miranda do Corvo",
    "OBJECTID": 306,
    "BGRI2021": "06090200507",
    "DT21": "06",
    "DTMN21": "0609",
    "DTMNFR21": "060902",
    "DTMNFRSEC21": "060902005",
    "SECNUM21": "005",
    "SSNUM21": "07",
    "SECSSNUM21": "00507",
    "OBJECTID_1": 53330,
    "DT": "06",
    "CC": "09",
    "fr": "02",
    "SEC": "005",
    "SS": "07"
  },
  "addresses": [
    {
      "id": "pt.ine.add.PTCONT.1151967",
      "street": "R ALAGOA",
      "house": "108",
      "postcode": "3220-063",
      "city": "MIRANDA DO CORVO",
      "lon": "-8.317927310195017",
      "lat": "40.0929060820309"
    },
    {
      "id": "pt.ine.add.PTCONT.1181088",
      "street": "R ALAGOA",
      "house": "120",
      "postcode": "3220-063",
      "city": "MIRANDA DO CORVO",
      "lon": "-8.317904052475486",
      "lat": "40.09297816750495"
    },
    {
      "id": "pt.ine.add.PTCONT.1211597",
      "street": "R ALAGOA",
      "house": "",
      "postcode": "3220-063",
      "city": "MIRANDA DO CORVO",
      "lon": "-8.318301868010494",
      "lat": "40.09265331451563"
    },
    {
      "id": "pt.ine.add.PTCONT.1218426",
      "street": "LG ROSSIO",
      "house": "191",
      "postcode": "3220-061",
      "city": "MIRANDA DO CORVO",
      "lon": "-8.318619063522176",
      "lat": "40.09286895207438"
    },
    {
      "id": "pt.ine.add.PTCONT.1246706",
      "street": "QLHA MARMELEIROS",
      "house": "4",
      "postcode": "3220-062",
      "city": "MIRANDA DO CORVO",
      "lon": "-8.317997984751134",
      "lat": "40.093023047844426"
    },
    {
      "id": "pt.ine.add.PTCONT.1286213",
      "street": "LG ROSSIO",
      "house": "",
      "postcode": "3220-061",
      "city": "MIRANDA DO CORVO",
      "lon": "-8.318595268671476",
      "lat": "40.092742905532695"
    },
    {
      "id": "pt.ine.add.PTCONT.1312387",
      "street": "LG ROSSIO",
      "house": "",
      "postcode": "3220-061",
      "city": "MIRANDA DO CORVO",
      "lon": "-8.318477835015498",
      "lat": "40.09268005119364"
    },
    {
      "id": "pt.ine.add.PTCONT.1338740",
      "street": "R LOMBA",
      "house": "65",
      "postcode": "3220-065",
      "city": "MIRANDA DO CORVO",
      "lon": "-8.318280294876754",
      "lat": "40.093346814538414"
    }
  ]
}