{
  "data": {
    "distrito": "Guarda",
    "concelho": "Seia",
    "freguesia": "União das freguesias de Tourais e Lajes",
    "OBJECTID": 43,
    "BGRI2021": "09123500102",
    "DT21": "09",
    "DTMN21": "0912",
    "DTMNFR21": "091235",
    "DTMNFRSEC21": "091235001",
    "SECNUM21": "001",
    "SSNUM21": "02",
    "SECSSNUM21": "00102",
    "OBJECTID_1": 82267,
    "DT": "09",
    "CC": "12",
    "fr": "35",
    "SEC": "001",
    "SS": "02"
  },
  "addresses": [
    {
      "id": "pt.ine.add.PTCONT.1921570",
      "street": "R ANTÓNIO RODRIGUES",
      "house": "",
      "postcode": "6270-584",
      "city": "TOURAIS",
      "lon": "-7.769293356733773",
      "lat": "40.44934388704046"
    },
    {
      "id": "pt.ine.add.PTCONT.1934590",
      "street": "TV JOSÉ TAVARES",
      "house": "14",
      "postcode": "6270-584",
      "city": "TOURAIS",
      "lon": "-7.76739893222266",
      "lat": "40.448707526588684"
    },
    {
      "id": "pt.ine.add.PTCONT.1939723",
      "street": "R DR ANTÓNIO PINTO PEREIRA",
      "house": "",
      "postcode": "6270-584",
      "city": "TOURAIS",
      "lon": "-7.7677877808251345",
      "lat": "40.44873577249155"
    },
    {
      "id": "pt.ine.add.PTCONT.1953706",
      "street": "R ANTÓNIO RODRIGUES",
      "house": "",
      "postcode": "6270-584",
      "city": "TOURAIS",
      "lon": "-7.769317903571457",
      "lat": "40.449163854917266"
    },
    {
      "id": "pt.ine.add.PTCONT.1953793",
      "street": "TV JOSÉ TAVARES",
      "house": "4",
      "postcode": "6270-584",
      "city": "TOURAIS",
      "lon": "-7.767634491569083",
      "lat": "40.44874429343374"
    },
    {
      "id": "pt.ine.add.PTCONT.1967909",
      "street": "R DR ANTÓNIO PINTO PEREIRA",
      "house": "",
      "postcode": "6270-584",
      "city": "TOURAIS",
      "lon": "-7.767987928546228",
      "lat": "40.44878143217242"
    },
    {
      "id": "pt.ine.add.PTCONT.1853765",
      "street": "R DR ANTÓNIO PAIS MAMEDE",
      "house": "",
      "postcode": "6270-584",
      "city": "TOURAIS",
      "lon": "-7.767646864661894",
      "lat": "40.44863626691917"
    },
    {
      "id": "pt.ine.add.PTCONT.1863715",
      "street": "LG JOSÉ BORGES",
      "house": "50",
      "postcode": "6270-584",
      "city": "TOURAIS",
      "lon": "-7.766832339297286",
      "lat": "40.44884982024969"
    },
    {
      "id": "pt.ine.add.PTCONT.1865736",
      "street": "R DR ANTÓNIO PAIS MAMEDE",
      "house": "74",
      "postcode": "6270-584",
      "city": "TOURAIS",
      "lon": "-7.767399566793681",
      "lat": "40.448590457494745"
    },
    {
      "id": "pt.ine.add.PTCONT.1876535",
      "street": "R ANTÓNIO RODRIGUES",
      "house": "",
      "postcode": "6270-584",
      "city": "TOURAIS",
      "lon": "-7.7687232604303125",
      "lat": "40.4501345726045"
    },
    {
      "id": "pt.ine.add.PTCONT.1876542",
      "street": "LG JOSÉ BORGES",
      "house": "",
      "postcode": "6270-584",
      "city": "TOURAIS",
      "lon": "-7.766572079299777",
      "lat": "40.44902009923672"
    },
    {
      "id": "pt.ine.add.PTCONT.1877476",
      "street": "LG JOSÉ BORGES",
      "house": "3",
      "postcode": "6270-584",
      "city": "TOURAIS",
      "lon": "-7.766655180695979",
      "lat": "40.448912297073896"
    },
    {
      "id": "pt.ine.add.PTCONT.1881029",
      "street": "R ANTÓNIO PINTO PEREIRA",
      "house": "94",
      "postcode": "6270-584",
      "city": "TOURAIS",
      "lon": "-7.7692119104650095",
      "lat": "40.44914551037328"
    },
    {
      "id": "pt.ine.add.PTCONT.1889235",
      "street": "TV JOSÉ TAVARES",
      "house": "3",
      "postcode": "6270-584",
      "city": "TOURAIS",
      "lon": "-7.767728208177872",
      "lat": "40.44885265531367"
    }
  ]
}