{
  "data": {
    "distrito": "Lisboa",
    "concelho": "Mafra",
    "freguesia": "Milharado",
    "OBJECTID": 1558,
    "BGRI2021": "11091100406",
    "DT21": "11",
    "DTMN21": "1109",
    "DTMNFR21": "110911",
    "DTMNFRSEC21": "110911004",
    "SECNUM21": "004",
    "SSNUM21": "06",
    "SECSSNUM21": "00406",
    "OBJECTID_1": 108117,
    "DT": "11",
    "CC": "09",
    "fr": "11",
    "SEC": "004",
    "SS": "06"
  },
  "addresses": [
    {
      "id": "pt.ine.add.PTCONT.2323685",
      "street": "AV 10 JUNHO",
      "house": "6",
      "postcode": "2665-308",
      "city": "MILHARADO",
      "lon": "-9.20098917902716",
      "lat": "38.9399177680404"
    },
    {
      "id": "pt.ine.add.PTCONT.2580652",
      "street": "R SEDE",
      "house": "3",
      "postcode": "2665-308",
      "city": "MILHARADO",
      "lon": "-9.199717828752124",
      "lat": "38.941280520331205"
    },
    {
      "id": "pt.ine.add.PTCONT.2677741",
      "street": "AV 10 JUNHO",
      "house": "16",
      "postcode": "2665-308",
      "city": "MILHARADO",
      "lon": "-9.2007640252579",
      "lat": "38.94105477447809"
    },
    {
      "id": "pt.ine.add.PTCONT.2766115",
      "street": "AV 10 JUNHO CASA DAS FORMIGAS",
      "house": "18",
      "postcode": "2665-308",
      "city": "MILHARADO",
      "lon": "-9.200305030476889",
      "lat": "38.94121210000704"
    },
    {
      "id": "pt.ine.add.PTCONT.2815467",
      "street": "AV 10 JUNHO",
      "house": "4",
      "postcode": "2665-308",
      "city": "MILHARADO",
      "lon": "-9.200994766532284",
      "lat": "38.93952138631145"
    },
    {
      "id": "pt.ine.add.PTCONT.2888295",
      "street": "AV 10 JUNHO",
      "house": "14",
      "postcode": "2665-308",
      "city": "MILHARADO",
      "lon": "-9.2008652487631",
      "lat": "38.9408827057487"
    },
    {
      "id": "pt.ine.add.PTCONT.2888296",
      "street": "AV 10 JUNHO",
      "house": "14",
      "postcode": "2665-308",
      "city": "MILHARADO",
      "lon": "-9.2008652487631",
      "lat": "38.9408827057487"
    },
    {
      "id": "pt.ine.add.PTCONT.2888297",
      "street": "AV 10 JUNHO",
      "house": "14",
      "postcode": "2665-308",
      "city": "MILHARADO",
      "lon": "-9.2008652487631",
      "lat": "38.9408827057487"
    },
    {
      "id": "pt.ine.add.PTCONT.3400760",
      "street": "AV 10 JUNHO",
      "house": "12",
      "postcode": "2665-308",
      "city": "MILHARADO",
      "lon": "-9.200918181428861",
      "lat": "38.94056695855054"
    },
    {
      "id": "pt.ine.add.PTCONT.3418799",
      "street": "R CASTELO PICAO",
      "house": "13",
      "postcode": "2665-310",
      "city": "MILHARADO",
      "lon": "-9.198667592286515",
      "lat": "38.939695783417775"
    }
  ]
}