{
  "data": {
    "distrito": "Lisboa",
    "concelho": "Mafra",
    "freguesia": "Milharado",
    "OBJECTID": 50,
    "BGRI2021": "11091100415",
    "DT21": "11",
    "DTMN21": "1109",
    "DTMNFR21": "110911",
    "DTMNFRSEC21": "110911004",
    "SECNUM21": "004",
    "SSNUM21": "15",
    "SECSSNUM21": "00415",
    "OBJECTID_1": 109378,
    "DT": "11",
    "CC": "09",
    "fr": "11",
    "SEC": "004",
    "SS": "15"
  },
  "addresses": [
    {
      "id": "pt.ine.add.PTCONT.2334925",
      "street": "R MOINHOS",
      "house": "1",
      "postcode": "2665-310",
      "city": "MILHARADO",
      "lon": "-9.198149728340306",
      "lat": "38.93977257028227"
    },
    {
      "id": "pt.ine.add.PTCONT.2368463",
      "street": "TV VALE FONTE",
      "house": "1B",
      "postcode": "2665-308",
      "city": "MILHARADO",
      "lon": "-9.199282973922072",
      "lat": "38.94150968133919"
    },
    {
      "id": "pt.ine.add.PTCONT.2368464",
      "street": "R VALE FONTE",
      "house": "1C",
      "postcode": "2665-308",
      "city": "MILHARADO",
      "lon": "-9.199282973922072",
      "lat": "38.94150968133919"
    },
    {
      "id": "pt.ine.add.PTCONT.2374481",
      "street": "R VALG",
      "house": "1D",
      "postcode": "2665-308",
      "city": "MILHARADO",
      "lon": "-9.199282973922072",
      "lat": "38.94150968133919"
    },
    {
      "id": "pt.ine.add.PTCONT.3002623",
      "street": "TV VALE FONTE",
      "house": "6",
      "postcode": "2665-308",
      "city": "MILHARADO",
      "lon": "-9.19873879701849",
      "lat": "38.94137053092142"
    },
    {
      "id": "pt.ine.add.PTCONT.3015769",
      "street": "R SEDE",
      "house": "34",
      "postcode": "2665-308",
      "city": "MILHARADO",
      "lon": "-9.199229155986032",
      "lat": "38.94099674473648"
    },
    {
      "id": "pt.ine.add.PTCONT.3021215",
      "street": "TV VALE FONTE",
      "house": "",
      "postcode": "2665-308",
      "city": "MILHARADO",
      "lon": "-9.198717485098483",
      "lat": "38.94148782316835"
    },
    {
      "id": "pt.ine.add.PTCONT.3114055",
      "street": "AV 10 DE JUNHO",
      "house": "20",
      "postcode": "2665-308",
      "city": "MILHARADO",
      "lon": "-9.199676827473034",
      "lat": "38.94162318047865"
    },
    {
      "id": "pt.ine.add.PTCONT.3114056",
      "street": "R SEDE",
      "house": "20 C",
      "postcode": "2665-308",
      "city": "MILHARADO",
      "lon": "-9.199676827473034",
      "lat": "38.94162318047865"
    },
    {
      "id": "pt.ine.add.PTCONT.3114057",
      "street": "R SEDE",
      "house": "20A",
      "postcode": "2665-308",
      "city": "MILHARADO",
      "lon": "-9.199676827473034",
      "lat": "38.94162318047865"
    },
    {
      "id": "pt.ine.add.PTCONT.3114058",
      "street": "SEDE",
      "house": "20E",
      "postcode": "2665-308",
      "city": "MILHARADO",
      "lon": "-9.199676827473034",
      "lat": "38.94162318047865"
    },
    {
      "id": "pt.ine.add.PTCONT.3114059",
      "street": "AV 10 JUNHO",
      "house": "20 M",
      "postcode": "2665-308",
      "city": "MILHARADO",
      "lon": "-9.199676827473034",
      "lat": "38.94162318047865"
    },
    {
      "id": "pt.ine.add.PTCONT.3114060",
      "street": "R SEDE",
      "house": "2B",
      "postcode": "2665-308",
      "city": "MILHARADO",
      "lon": "-9.199676827473034",
      "lat": "38.94162318047865"
    },
    {
      "id": "pt.ine.add.PTCONT.3433809",
      "street": "TV VALE FONTE",
      "house": "1A",
      "postcode": "2665-308",
      "city": "MILHARADO",
      "lon": "-9.199282973922072",
      "lat": "38.94150968133919"
    }
  ]
}