{
  "data": {
    "distrito": "Faro",
    "concelho": "Faro",
    "freguesia": "União das freguesias de Conceição e Estoi",
    "OBJECTID": 614,
    "BGRI2021": "08050700512",
    "DT21": "08",
    "DTMN21": "0805",
    "DTMNFR21": "080507",
    "DTMNFRSEC21": "080507005",
    "SECNUM21": "005",
    "SSNUM21": "12",
    "SECSSNUM21": "00512",
    "OBJECTID_1": 66643,
    "DT": "08",
    "CC": "05",
    "fr": "07",
    "SEC": "005",
    "SS": "12"
  },
  "addresses": [
    {
      "id": "pt.ine.add.PTCONT.1485521",
      "street": "ESTR S BRÁS",
      "house": "",
      "postcode": "8005-421",
      "city": "FARO",
      "lon": "-7.916375803722105",
      "lat": "37.07805418265728"
    },
    {
      "id": "pt.ine.add.PTCONT.1492984",
      "street": "ESTR JARDINA",
      "house": "",
      "postcode": "8005-421",
      "city": "FARO",
      "lon": "-7.918794169781838",
      "lat": "37.073886627191825"
    },
    {
      "id": "pt.ine.add.PTCONT.1611768",
      "street": "ESTR S BRAZ",
      "house": "",
      "postcode": "8005-421",
      "city": "FARO",
      "lon": "-7.9149792721325",
      "lat": "37.078763466785354"
    },
    {
      "id": "pt.ine.add.PTCONT.1611769",
      "street": "ESTR S BRAZ",
      "house": "",
      "postcode": "8005-421",
      "city": "FARO",
      "lon": "-7.9149792721325",
      "lat": "37.078763466785354"
    },
    {
      "id": "pt.ine.add.PTCONT.1611770",
      "street": "SIT BESOURO",
      "house": "50",
      "postcode": "8005-421",
      "city": "FARO",
      "lon": "-7.9149792721325",
      "lat": "37.078763466785354"
    },
    {
      "id": "pt.ine.add.PTCONT.1638119",
      "street": "ESTR S BRÁS",
      "house": "",
      "postcode": "8005-421",
      "city": "FARO",
      "lon": "-7.915954703563231",
      "lat": "37.07586381500588"
    },
    {
      "id": "pt.ine.add.PTCONT.1712458",
      "street": "ESTR JARDINA",
      "house": "",
      "postcode": "8005-421",
      "city": "FARO",
      "lon": "-7.918569492376283",
      "lat": "37.07380512477455"
    },
    {
      "id": "pt.ine.add.PTCONT.1733615",
      "street": "ESTR S BRÁS",
      "house": "",
      "postcode": "8005-421",
      "city": "FARO",
      "lon": "-7.916177459017503",
      "lat": "37.07662112059123"
    },
    {
      "id": "pt.ine.add.PTCONT.1775091",
      "street": "ESTR JARDINA",
      "house": "235A",
      "postcode": "8005-421",
      "city": "FARO",
      "lon": "-7.918086454125132",
      "lat": "37.073624036216266"
    },
    {
      "id": "pt.ine.add.PTCONT.1775092",
      "street": "ESTR JARDINA",
      "house": "235A",
      "postcode": "8005-421",
      "city": "FARO",
      "lon": "-7.918086454125132",
      "lat": "37.073624036216266"
    },
    {
      "id": "pt.ine.add.PTCONT.1807597",
      "street": "ESTR JARDINA",
      "house": "229A",
      "postcode": "8005-421",
      "city": "FARO",
      "lon": "-7.919165137895965",
      "lat": "37.07393235036414"
    }
  ]
}