{
  "data": {
    "distrito": "Guarda",
    "concelho": "Fornos de Algodres",
    "freguesia": "Infias",
    "OBJECTID": 75,
    "BGRI2021": "09050700104",
    "DT21": "09",
    "DTMN21": "0905",
    "DTMNFR21": "090507",
    "DTMNFRSEC21": "090507001",
    "SECNUM21": "001",
    "SSNUM21": "04",
    "SECSSNUM21": "00104",
    "OBJECTID_1": 76795,
    "DT": "09",
    "CC": "05",
    "fr": "07",
    "SEC": "001",
    "SS": "04"
  },
  "addresses": [
    {
      "id": "pt.ine.add.PTCONT.1903803",
      "street": "R DA SERRA DA ESGALHADA",
      "house": "",
      "postcode": "6370-321",
      "city": "INFIAS FAG",
      "lon": "-7.539650791118387",
      "lat": "40.62862477390609"
    },
    {
      "id": "pt.ine.add.PTCONT.1913739",
      "street": "R DO CRUZEIRO",
      "house": "",
      "postcode": "6370-321",
      "city": "INFIAS FAG",
      "lon": "-7.539843559331055",
      "lat": "40.628211527748334"
    },
    {
      "id": "pt.ine.add.PTCONT.1923792",
      "street": "R ESGALHADA",
      "house": "",
      "postcode": "6370-321",
      "city": "INFIAS FAG",
      "lon": "-7.539980366087579",
      "lat": "40.628779554475585"
    },
    {
      "id": "pt.ine.add.PTCONT.1941014",
      "street": "R DO CRUZEIRO",
      "house": "",
      "postcode": "6370-321",
      "city": "INFIAS FAG",
      "lon": "-7.539936357123943",
      "lat": "40.62841011757763"
    },
    {
      "id": "pt.ine.add.PTCONT.1941822",
      "street": "R DO CRUZEIRO",
      "house": "",
      "postcode": "6370-321",
      "city": "INFIAS FAG",
      "lon": "-7.539969582904042",
      "lat": "40.62866243223694"
    },
    {
      "id": "pt.ine.add.PTCONT.1952769",
      "street": "R DO BAIRRO NOVO",
      "house": "",
      "postcode": "6370-321",
      "city": "INFIAS FAG",
      "lon": "-7.539987695737335",
      "lat": "40.62795111893044"
    },
    {
      "id": "pt.ine.add.PTCONT.1967612",
      "street": "R ESGALHADA",
      "house": "",
      "postcode": "6370-321",
      "city": "INFIAS FAG",
      "lon": "-7.53940275359674",
      "lat": "40.62860548874508"
    },
    {
      "id": "pt.ine.add.PTCONT.1973684",
      "street": "R DA SERRA DA ESGALHADA",
      "house": "",
      "postcode": "6370-321",
      "city": "INFIAS FAG",
      "lon": "-7.539652465137945",
      "lat": "40.62843567450498"
    },
    {
      "id": "pt.ine.add.PTCONT.1876784",
      "street": "R DA SERRA DA ESGALHADA",
      "house": "",
      "postcode": "6370-321",
      "city": "INFIAS FAG",
      "lon": "-7.539678414506602",
      "lat": "40.62817465869151"
    },
    {
      "id": "pt.ine.add.PTCONT.1892488",
      "street": "R DO CRUZEIRO",
      "house": "",
      "postcode": "6370-321",
      "city": "INFIAS FAG",
      "lon": "-7.539405624532253",
      "lat": "40.62828131835283"
    }
  ]
}