{
  "data": {
    "distrito": "Guarda",
    "concelho": "Fornos de Algodres",
    "freguesia": "Infias",
    "OBJECTID": 104,
    "BGRI2021": "09050700112",
    "DT21": "09",
    "DTMN21": "0905",
    "DTMNFR21": "090507",
    "DTMNFRSEC21": "090507001",
    "SECNUM21": "001",
    "SSNUM21": "12",
    "SECSSNUM21": "00112",
    "OBJECTID_1": 76959,
    "DT": "09",
    "CC": "05",
    "fr": "07",
    "SEC": "001",
    "SS": "12"
  },
  "addresses": [
    {
      "id": "pt.ine.add.PTCONT.1903801",
      "street": "AV DO TABULADO",
      "house": "",
      "postcode": "6370-321",
      "city": "INFIAS FAG",
      "lon": "-7.541594931850494",
      "lat": "40.630651899802885"
    },
    {
      "id": "pt.ine.add.PTCONT.1923793",
      "street": "QTA DO CASAINHO",
      "house": "",
      "postcode": "6370-321",
      "city": "INFIAS FAG",
      "lon": "-7.545686987240511",
      "lat": "40.631726388209245"
    },
    {
      "id": "pt.ine.add.PTCONT.1928607",
      "street": "QTA CASAINHO",
      "house": "10",
      "postcode": "6370-321",
      "city": "INFIAS FAG",
      "lon": "-7.541614835868841",
      "lat": "40.63107524332496"
    },
    {
      "id": "pt.ine.add.PTCONT.1969714",
      "street": "ESTR MUNICIPAL",
      "house": "",
      "postcode": "6370-321",
      "city": "INFIAS FAG",
      "lon": "-7.541862883214387",
      "lat": "40.63109452379481"
    },
    {
      "id": "pt.ine.add.PTCONT.1864935",
      "street": "R QUINTA CASAINHO",
      "house": "11",
      "postcode": "6370-321",
      "city": "INFIAS FAG",
      "lon": "-7.541604923561949",
      "lat": "40.63085906920155"
    }
  ]
}