{
  "data": {
    "distrito": "Setúbal",
    "concelho": "Alcácer do Sal",
    "freguesia": "União das freguesias de Alcácer do Sal (Santa Maria do Castelo e Santiago) e Santa Susana",
    "OBJECTID": 433,
    "BGRI2021": "15010700843",
    "DT21": "15",
    "DTMN21": "1501",
    "DTMNFR21": "150107",
    "DTMNFRSEC21": "150107008",
    "SECNUM21": "008",
    "SSNUM21": "43",
    "SECSSNUM21": "00843",
    "OBJECTID_1": 159931,
    "DT": "15",
    "CC": "01",
    "fr": "07",
    "SEC": "008",
    "SS": "43"
  },
  "addresses": [
    {
      "id": "pt.ine.add.PTCONT.4699761",
      "street": "MTE PESCAINHA",
      "house": "",
      "postcode": "7580-713",
      "city": "SANTA SUSANA",
      "lon": "-8.332808561711051",
      "lat": "38.447703114172306"
    },
    {
      "id": "pt.ine.add.PTCONT.4761781",
      "street": "HRD FONTE COICE",
      "house": "",
      "postcode": "7580-703",
      "city": "SANTA SUSANA",
      "lon": "-8.346942500896034",
      "lat": "38.46647006458075"
    },
    {
      "id": "pt.ine.add.PTCONT.4811475",
      "street": "MTE CAEIRINHA",
      "house": "",
      "postcode": "7580-703",
      "city": "SANTA SUSANA",
      "lon": "-8.329680000765293",
      "lat": "38.45568100472146"
    },
    {
      "id": "pt.ine.add.PTCONT.4816754",
      "street": "MTE CAEIRINHA",
      "house": "",
      "postcode": "7580-703",
      "city": "SANTA SUSANA",
      "lon": "-8.32962254721377",
      "lat": "38.455618041028984"
    },
    {
      "id": "pt.ine.add.PTCONT.4825558",
      "street": "",
      "house": "",
      "postcode": "7580-703",
      "city": "SANTA SUSANA",
      "lon": "-8.330813776849954",
      "lat": "38.45972394871025"
    },
    {
      "id": "pt.ine.add.PTCONT.4843192",
      "street": "MTE NOVO",
      "house": "",
      "postcode": "7580-703",
      "city": "SANTA SUSANA",
      "lon": "-8.32624211739305",
      "lat": "38.46822665493651"
    },
    {
      "id": "pt.ine.add.PTCONT.4905727",
      "street": "MTE CAEIRINHA",
      "house": "",
      "postcode": "7580-703",
      "city": "SANTA SUSANA",
      "lon": "-8.329863133465059",
      "lat": "38.45561763725451"
    },
    {
      "id": "pt.ine.add.PTCONT.4949911",
      "street": "MTE CAEIRINHA",
      "house": "",
      "postcode": "7580-703",
      "city": "SANTA SUSANA",
      "lon": "-8.329920269060079",
      "lat": "38.45556348980134"
    },
    {
      "id": "pt.ine.add.PTCONT.4957704",
      "street": "",
      "house": "",
      "postcode": "7580-703",
      "city": "SANTA SUSANA",
      "lon": "-8.341725558575902",
      "lat": "38.46129954440044"
    },
    {
      "id": "pt.ine.add.PTCONT.4996099",
      "street": "MTE NOVO",
      "house": "",
      "postcode": "7580-703",
      "city": "SANTA SUSANA",
      "lon": "-8.326207501704387",
      "lat": "38.46813662637045"
    },
    {
      "id": "pt.ine.add.PTCONT.5001093",
      "street": "COURELA DO CAZARAO",
      "house": "",
      "postcode": "7580-703",
      "city": "SANTA SUSANA",
      "lon": "-8.333097717458022",
      "lat": "38.45700849063221"
    },
    {
      "id": "pt.ine.add.PTCONT.5026990",
      "street": "MTE PESCAINHA",
      "house": "",
      "postcode": "7580-703",
      "city": "SANTA SUSANA",
      "lon": "-8.332877566302768",
      "lat": "38.44780209107134"
    },
    {
      "id": "pt.ine.add.PTCONT.5063370",
      "street": "HRD CAEIRA",
      "house": "",
      "postcode": "7580-703",
      "city": "SANTA SUSANA",
      "lon": "-8.333143295519017",
      "lat": "38.45691832703209"
    },
    {
      "id": "pt.ine.add.PTCONT.5075169",
      "street": "HRD FONTE COICE",
      "house": "",
      "postcode": "7580-703",
      "city": "SANTA SUSANA",
      "lon": "-8.347068594246538",
      "lat": "38.46648785148588"
    },
    {
      "id": "pt.ine.add.PTCONT.5115988",
      "street": "HRD PACO",
      "house": "",
      "postcode": "7580-703",
      "city": "SANTA SUSANA",
      "lon": "-8.341610881059333",
      "lat": "38.46126371425896"
    },
    {
      "id": "pt.ine.add.PTCONT.5120966",
      "street": "MTE VERMELHA",
      "house": "",
      "postcode": "7580-703",
      "city": "SANTA SUSANA",
      "lon": "-8.330882175307407",
      "lat": "38.45959771321407"
    }
  ]
}