{
  "data": {
    "distrito": "Coimbra",
    "concelho": "Soure",
    "freguesia": "Vila Nova de Anços",
    "OBJECTID": 738,
    "BGRI2021": "06151100132",
    "DT21": "06",
    "DTMN21": "0615",
    "DTMNFR21": "061511",
    "DTMNFRSEC21": "061511001",
    "SECNUM21": "001",
    "SSNUM21": "32",
    "SECSSNUM21": "00132",
    "OBJECTID_1": 56839,
    "DT": "06",
    "CC": "15",
    "fr": "11",
    "SEC": "001",
    "SS": "32"
  },
  "addresses": [
    {
      "id": "pt.ine.add.PTCONT.1100575",
      "street": "R DQ DE CADAVAL",
      "house": "50",
      "postcode": "3130-400",
      "city": "VILA NOVA DE ANÇOS",
      "lon": "-8.633766385301886",
      "lat": "40.11405422361528"
    },
    {
      "id": "pt.ine.add.PTCONT.1116046",
      "street": "R DO PRANTO",
      "house": "7",
      "postcode": "3130-400",
      "city": "VILA NOVA DE ANÇOS",
      "lon": "-8.633333206484362",
      "lat": "40.11388782703282"
    },
    {
      "id": "pt.ine.add.PTCONT.1130491",
      "street": "BC S DOMINGUES",
      "house": "8",
      "postcode": "3130-400",
      "city": "VILA NOVA DE ANÇOS",
      "lon": "-8.633440928199963",
      "lat": "40.114460898311904"
    },
    {
      "id": "pt.ine.add.PTCONT.1245323",
      "street": "R PRANTO",
      "house": "3",
      "postcode": "3130-400",
      "city": "VILA NOVA DE ANÇOS",
      "lon": "-8.633716561710726",
      "lat": "40.113658176635774"
    },
    {
      "id": "pt.ine.add.PTCONT.1262262",
      "street": "BC S DOMINGUES",
      "house": "7",
      "postcode": "3130-400",
      "city": "VILA NOVA DE ANÇOS",
      "lon": "-8.633524619651407",
      "lat": "40.114676679809484"
    },
    {
      "id": "pt.ine.add.PTCONT.1288383",
      "street": "R DQ DE CADAVAL",
      "house": "48",
      "postcode": "3130-400",
      "city": "VILA NOVA DE ANÇOS",
      "lon": "-8.63387003556349",
      "lat": "40.11379260260926"
    },
    {
      "id": "pt.ine.add.PTCONT.1332724",
      "street": "BC S DOMINGUES",
      "house": "",
      "postcode": "3130-400",
      "city": "VILA NOVA DE ANÇOS",
      "lon": "-8.633252924652187",
      "lat": "40.11441668051901"
    }
  ]
}