{
  "data": {
    "distrito": "Bragança",
    "concelho": "Vimioso",
    "freguesia": "Pinelo",
    "OBJECTID": 174,
    "BGRI2021": "04110900111",
    "DT21": "04",
    "DTMN21": "0411",
    "DTMNFR21": "041109",
    "DTMNFRSEC21": "041109001",
    "SECNUM21": "001",
    "SSNUM21": "11",
    "SECSSNUM21": "00111",
    "OBJECTID_1": 39375,
    "DT": "04",
    "CC": "11",
    "fr": "09",
    "SEC": "001",
    "SS": "11"
  },
  "addresses": [
    {
      "id": "pt.ine.add.PTCONT.851463",
      "street": "LG DAS EIRAS DE CIMA",
      "house": "3",
      "postcode": "5230-181",
      "city": "PINELO",
      "lon": "-6.550116946060657",
      "lat": "41.63689170010554"
    },
    {
      "id": "pt.ine.add.PTCONT.858362",
      "street": "LG DAS EIRAS DE BAIXO",
      "house": "16",
      "postcode": "5230-181",
      "city": "PINELO",
      "lon": "-6.5506493381628825",
      "lat": "41.63720514192145"
    },
    {
      "id": "pt.ine.add.PTCONT.858635",
      "street": "LG DAS EIRAS DE BAIXO",
      "house": "20",
      "postcode": "5230-181",
      "city": "PINELO",
      "lon": "-6.550984824424835",
      "lat": "41.63722776742385"
    },
    {
      "id": "pt.ine.add.PTCONT.859743",
      "street": "LG DAS EIRAS DE BAIXO",
      "house": "21",
      "postcode": "5230-181",
      "city": "PINELO",
      "lon": "-6.551140350123188",
      "lat": "41.63724791485773"
    },
    {
      "id": "pt.ine.add.PTCONT.865279",
      "street": "LG DAS EIRAS DE BAIXO",
      "house": "10",
      "postcode": "5230-181",
      "city": "PINELO",
      "lon": "-6.550227007027914",
      "lat": "41.63729836127394"
    },
    {
      "id": "pt.ine.add.PTCONT.865794",
      "street": "LG DAS EIRAS DE BAIXO",
      "house": "19",
      "postcode": "5230-181",
      "city": "PINELO",
      "lon": "-6.550964352376031",
      "lat": "41.637083433953784"
    },
    {
      "id": "pt.ine.add.PTCONT.904325",
      "street": "R EMPEDRADA",
      "house": "29",
      "postcode": "5230-181",
      "city": "PINELO",
      "lon": "-6.55052639645529",
      "lat": "41.6368343166756"
    },
    {
      "id": "pt.ine.add.PTCONT.905027",
      "street": "TV DO PASSADIÇO",
      "house": "2",
      "postcode": "5230-181",
      "city": "PINELO",
      "lon": "-6.5499796882728045",
      "lat": "41.63710588683901"
    },
    {
      "id": "pt.ine.add.PTCONT.911195",
      "street": "R DO PASSADIÇO",
      "house": "3",
      "postcode": "5230-181",
      "city": "PINELO",
      "lon": "-6.550546206783173",
      "lat": "41.63700565079488"
    },
    {
      "id": "pt.ine.add.PTCONT.912647",
      "street": "LG DAS EIRAS DE CIMA",
      "house": "1",
      "postcode": "5230-181",
      "city": "PINELO",
      "lon": "-6.5502024691878145",
      "lat": "41.6368298555043"
    },
    {
      "id": "pt.ine.add.PTCONT.942249",
      "street": "R DO PASSADIÇO",
      "house": "1",
      "postcode": "5230-181",
      "city": "PINELO",
      "lon": "-6.55041533727885",
      "lat": "41.63695883243756"
    }
  ]
}