{
  "data": {
    "distrito": "Santarém",
    "concelho": "Ourém",
    "freguesia": "União das freguesias de Matas e Cercal",
    "OBJECTID": 985,
    "BGRI2021": "14212100115",
    "DT21": "14",
    "DTMN21": "1421",
    "DTMNFR21": "142121",
    "DTMNFRSEC21": "142121001",
    "SECNUM21": "001",
    "SSNUM21": "15",
    "SECSSNUM21": "00115",
    "OBJECTID_1": 158510,
    "DT": "14",
    "CC": "21",
    "fr": "21",
    "SEC": "001",
    "SS": "15"
  },
  "addresses": [
    {
      "id": "pt.ine.add.PTCONT.4405278",
      "street": "R OUTEIRO",
      "house": "30",
      "postcode": "2490-122",
      "city": "CERCAL VNO",
      "lon": "-8.666224894830318",
      "lat": "39.71303154581442"
    },
    {
      "id": "pt.ine.add.PTCONT.4419797",
      "street": "R CENTRAL",
      "house": "76",
      "postcode": "2490-119",
      "city": "CERCAL VNO",
      "lon": "-8.6643466986314",
      "lat": "39.70838375411063"
    },
    {
      "id": "pt.ine.add.PTCONT.4487444",
      "street": "R CENTRAL",
      "house": "66",
      "postcode": "2490-122",
      "city": "CERCAL VNO",
      "lon": "-8.664563705041004",
      "lat": "39.70931043880254"
    },
    {
      "id": "pt.ine.add.PTCONT.4512989",
      "street": "R PADRE FAUSTINO JACINTO FERREIRA",
      "house": "3",
      "postcode": "2490-119",
      "city": "CERCAL VNO",
      "lon": "-8.664632198211965",
      "lat": "39.70759887488377"
    },
    {
      "id": "pt.ine.add.PTCONT.4532840",
      "street": "R CARVALHINHO",
      "house": "60",
      "postcode": "2490-122",
      "city": "CERCAL VNO",
      "lon": "-8.665875056781175",
      "lat": "39.71303315163543"
    },
    {
      "id": "pt.ine.add.PTCONT.4544104",
      "street": "R PRINCIPAL",
      "house": "57",
      "postcode": "2490-120",
      "city": "CERCAL VNO",
      "lon": "-8.665715849455552",
      "lat": "39.70749483667115"
    },
    {
      "id": "pt.ine.add.PTCONT.4562520",
      "street": "R PRINCIPAL",
      "house": "55",
      "postcode": "2490-120",
      "city": "CERCAL VNO",
      "lon": "-8.665973069689828",
      "lat": "39.707583722300456"
    },
    {
      "id": "pt.ine.add.PTCONT.4572940",
      "street": "R CARVALHINHO",
      "house": "",
      "postcode": "2490-122",
      "city": "CERCAL VNO",
      "lon": "-8.666025128591743",
      "lat": "39.71283431828601"
    },
    {
      "id": "pt.ine.add.PTCONT.4581198",
      "street": "R PEREIRAS",
      "house": "8",
      "postcode": "2490-122",
      "city": "CERCAL VNO",
      "lon": "-8.665697575089693",
      "lat": "39.7127007226722"
    },
    {
      "id": "pt.ine.add.PTCONT.4587499",
      "street": "R PADRE FAUSTINO JACINTO FERREIRA",
      "house": "5",
      "postcode": "2490-119",
      "city": "CERCAL VNO",
      "lon": "-8.664352971311477",
      "lat": "39.70768121203729"
    },
    {
      "id": "pt.ine.add.PTCONT.4597775",
      "street": "R PEREIRAS",
      "house": "5",
      "postcode": "2490-122",
      "city": "CERCAL VNO",
      "lon": "-8.665442205257529",
      "lat": "39.7128550055678"
    },
    {
      "id": "pt.ine.add.PTCONT.4597776",
      "street": "R PADRE FAUSTINO JACINTO FERREIRA",
      "house": "1",
      "postcode": "2490-119",
      "city": "CERCAL VNO",
      "lon": "-8.66486485221399",
      "lat": "39.70752575694585"
    },
    {
      "id": "pt.ine.add.PTCONT.4605711",
      "street": "R PEREIRAS",
      "house": "3",
      "postcode": "2490-122",
      "city": "CERCAL VNO",
      "lon": "-8.665431997772075",
      "lat": "39.713044190418564"
    }
  ]
}