{
  "data": {
    "distrito": "Bragança",
    "concelho": "Vimioso",
    "freguesia": "Matela",
    "OBJECTID": 120,
    "BGRI2021": "04110800112",
    "DT21": "04",
    "DTMN21": "0411",
    "DTMNFR21": "041108",
    "DTMNFRSEC21": "041108001",
    "SECNUM21": "001",
    "SSNUM21": "12",
    "SECSSNUM21": "00112",
    "OBJECTID_1": 39193,
    "DT": "04",
    "CC": "11",
    "fr": "08",
    "SEC": "001",
    "SS": "12"
  },
  "addresses": [
    {
      "id": "pt.ine.add.PTCONT.856850",
      "street": "R DO PORDOMINGO",
      "house": "6",
      "postcode": "5230-160",
      "city": "MATELA VMS",
      "lon": "-6.630404808039405",
      "lat": "41.51127428959846"
    },
    {
      "id": "pt.ine.add.PTCONT.869880",
      "street": "R DA PORTELA",
      "house": "9",
      "postcode": "5230-157",
      "city": "MATELA VMS",
      "lon": "-6.6310237386227096",
      "lat": "41.51144443864645"
    },
    {
      "id": "pt.ine.add.PTCONT.896680",
      "street": "R DE STO ANTÃO",
      "house": "16",
      "postcode": "5230-157",
      "city": "MATELA VMS",
      "lon": "-6.631481177149009",
      "lat": "41.51186457214175"
    },
    {
      "id": "pt.ine.add.PTCONT.908154",
      "street": "R DE STO ANTÃO",
      "house": "14",
      "postcode": "5230-157",
      "city": "MATELA VMS",
      "lon": "-6.631327379202572",
      "lat": "41.511781532483774"
    },
    {
      "id": "pt.ine.add.PTCONT.909722",
      "street": "R DA PORTELA",
      "house": "3",
      "postcode": "5230-157",
      "city": "MATELA VMS",
      "lon": "-6.630756649156465",
      "lat": "41.5110808112119"
    },
    {
      "id": "pt.ine.add.PTCONT.914978",
      "street": "R DA PORTELA",
      "house": "",
      "postcode": "5230-157",
      "city": "MATELA VMS",
      "lon": "-6.631139114441586",
      "lat": "41.511635018252164"
    },
    {
      "id": "pt.ine.add.PTCONT.925165",
      "street": "LG DO PORDOMINGO",
      "house": "8",
      "postcode": "5230-155",
      "city": "MATELA VMS",
      "lon": "-6.630491960798394",
      "lat": "41.51113137331056"
    },
    {
      "id": "pt.ine.add.PTCONT.931928",
      "street": "R DA PORTELA",
      "house": "",
      "postcode": "5230-157",
      "city": "MATELA VMS",
      "lon": "-6.631057165089862",
      "lat": "41.51155291671674"
    }
  ]
}