{
  "data": {
    "distrito": "Coimbra",
    "concelho": "Penacova",
    "freguesia": "Penacova",
    "OBJECTID": 586,
    "BGRI2021": "06130700345",
    "DT21": "06",
    "DTMN21": "0613",
    "DTMNFR21": "061307",
    "DTMNFRSEC21": "061307003",
    "SECNUM21": "003",
    "SSNUM21": "45",
    "SECSSNUM21": "00345",
    "OBJECTID_1": 55828,
    "DT": "06",
    "CC": "13",
    "fr": "07",
    "SEC": "003",
    "SS": "45"
  },
  "addresses": [
    {
      "id": "pt.ine.add.PTCONT.1111543",
      "street": "R NOVA",
      "house": "9",
      "postcode": "3360-204",
      "city": "PENACOVA",
      "lon": "-8.266133423061497",
      "lat": "40.27579402389862"
    },
    {
      "id": "pt.ine.add.PTCONT.1190888",
      "street": "R MUACHA",
      "house": "14",
      "postcode": "3360-204",
      "city": "PENACOVA",
      "lon": "-8.26457687062898",
      "lat": "40.27768104324228"
    },
    {
      "id": "pt.ine.add.PTCONT.1239244",
      "street": "VL NOVA",
      "house": "",
      "postcode": "3360-204",
      "city": "PENACOVA",
      "lon": "-8.264460526144688",
      "lat": "40.27832058443052"
    },
    {
      "id": "pt.ine.add.PTCONT.1245108",
      "street": "R MUACHA",
      "house": "6",
      "postcode": "3360-200",
      "city": "PENACOVA",
      "lon": "-8.265217178977517",
      "lat": "40.27497011666003"
    },
    {
      "id": "pt.ine.add.PTCONT.1266176",
      "street": "TV SOITO",
      "house": "3",
      "postcode": "3360-204",
      "city": "PENACOVA",
      "lon": "-8.266366578373527",
      "lat": "40.27546584221444"
    },
    {
      "id": "pt.ine.add.PTCONT.1270077",
      "street": "TV SOITO",
      "house": "8",
      "postcode": "3360-204",
      "city": "PENACOVA",
      "lon": "-8.266221358289423",
      "lat": "40.274689719549386"
    },
    {
      "id": "pt.ine.add.PTCONT.1282229",
      "street": "TV SOITO",
      "house": "",
      "postcode": "3360-204",
      "city": "PENACOVA",
      "lon": "-8.266298821367055",
      "lat": "40.27474480514147"
    },
    {
      "id": "pt.ine.add.PTCONT.1353403",
      "street": "R EIRA POVO",
      "house": "2",
      "postcode": "3360-204",
      "city": "PENACOVA",
      "lon": "-8.264307180972063",
      "lat": "40.27806859709028"
    }
  ]
}