{
  "data": {
    "distrito": "Porto",
    "concelho": "Penafiel",
    "freguesia": "Cabeça Santa",
    "OBJECTID": 577,
    "BGRI2021": "13110400130",
    "DT21": "13",
    "DTMN21": "1311",
    "DTMNFR21": "131104",
    "DTMNFRSEC21": "131104001",
    "SECNUM21": "001",
    "SSNUM21": "30",
    "SECSSNUM21": "00130",
    "OBJECTID_1": 136813,
    "DT": "13",
    "CC": "11",
    "fr": "04",
    "SEC": "001",
    "SS": "30"
  },
  "addresses": [
    {
      "id": "pt.ine.add.PTCONT.3789921",
      "street": "TV CIMO DE VILA",
      "house": "10",
      "postcode": "4575-131",
      "city": "CABEÇA SANTA",
      "lon": "-8.285236052739679",
      "lat": "41.13059123059901"
    },
    {
      "id": "pt.ine.add.PTCONT.3796671",
      "street": "R CIMO",
      "house": "118",
      "postcode": "4575-131",
      "city": "CABEÇA SANTA",
      "lon": "-8.285343567917286",
      "lat": "41.130735159400835"
    },
    {
      "id": "pt.ine.add.PTCONT.3839982",
      "street": "R ALTO",
      "house": "",
      "postcode": "4575-123",
      "city": "CABEÇA SANTA",
      "lon": "-8.284897017790442",
      "lat": "41.133338027312895"
    },
    {
      "id": "pt.ine.add.PTCONT.3893625",
      "street": "R ALTO",
      "house": "415",
      "postcode": "4575-123",
      "city": "CABEÇA SANTA",
      "lon": "-8.284837926092573",
      "lat": "41.13353620244718"
    },
    {
      "id": "pt.ine.add.PTCONT.3932169",
      "street": "CAM COMUNHA",
      "house": "346",
      "postcode": "4575-125",
      "city": "CABEÇA SANTA",
      "lon": "-8.285038707623555",
      "lat": "41.13280657958719"
    },
    {
      "id": "pt.ine.add.PTCONT.3975632",
      "street": "TV NOVA DE CIMO DE VILA",
      "house": "168",
      "postcode": "4575-131",
      "city": "CABEÇA SANTA",
      "lon": "-8.285522872065249",
      "lat": "41.13102306396329"
    },
    {
      "id": "pt.ine.add.PTCONT.3980366",
      "street": "CAM COMUNHA",
      "house": "384",
      "postcode": "4575-125",
      "city": "CABEÇA SANTA",
      "lon": "-8.285039019231528",
      "lat": "41.13294164552434"
    },
    {
      "id": "pt.ine.add.PTCONT.4196528",
      "street": "TV CIMO DE VILA",
      "house": "10",
      "postcode": "4575-131",
      "city": "CABEÇA SANTA",
      "lon": "-8.285271946557543",
      "lat": "41.13066321860913"
    },
    {
      "id": "pt.ine.add.PTCONT.4271765",
      "street": "CAM COMUNHA",
      "house": "72",
      "postcode": "4575-125",
      "city": "CABEÇA SANTA",
      "lon": "-8.285140571851155",
      "lat": "41.13050131237409"
    },
    {
      "id": "pt.ine.add.PTCONT.4302477",
      "street": "CAM COMUNHA",
      "house": "214",
      "postcode": "4575-125",
      "city": "CABEÇA SANTA",
      "lon": "-8.28534523306446",
      "lat": "41.13145551127852"
    },
    {
      "id": "pt.ine.add.PTCONT.4367530",
      "street": "CAM COMUNHA",
      "house": "118",
      "postcode": "4575-125",
      "city": "CABEÇA SANTA",
      "lon": "-8.285474464455756",
      "lat": "41.13068996422164"
    }
  ]
}