{
  "data": {
    "distrito": "Portalegre",
    "concelho": "Portalegre",
    "freguesia": "União das freguesias da Sé e São Lourenço",
    "OBJECTID": 140,
    "BGRI2021": "12141100711",
    "DT21": "12",
    "DTMN21": "1214",
    "DTMNFR21": "121411",
    "DTMNFRSEC21": "121411007",
    "SECNUM21": "007",
    "SSNUM21": "11",
    "SECSSNUM21": "00711",
    "OBJECTID_1": 124417,
    "DT": "12",
    "CC": "14",
    "fr": "11",
    "SEC": "007",
    "SS": "11"
  },
  "addresses": [
    {
      "id": "pt.ine.add.PTCONT.3535166",
      "street": "R MOUZINHO DE ALBUQUERQUE",
      "house": "43",
      "postcode": "7300-197",
      "city": "PORTALEGRE",
      "lon": "-7.430869837975542",
      "lat": "39.29179374627865"
    },
    {
      "id": "pt.ine.add.PTCONT.3535167",
      "street": "R MOUZINHO DE ALBUQUERQUE",
      "house": "43",
      "postcode": "7300-197",
      "city": "PORTALEGRE",
      "lon": "-7.430869837975542",
      "lat": "39.29179374627865"
    },
    {
      "id": "pt.ine.add.PTCONT.3464944",
      "street": "R MOUZINHO DE ALBUQUERQUE",
      "house": "59-61",
      "postcode": "7300-197",
      "city": "PORTALEGRE",
      "lon": "-7.43066316349294",
      "lat": "39.291655079025766"
    },
    {
      "id": "pt.ine.add.PTCONT.3464945",
      "street": "R MOUZINHO DE ALBUQUERQUE",
      "house": "59-61",
      "postcode": "7300-197",
      "city": "PORTALEGRE",
      "lon": "-7.43066316349294",
      "lat": "39.291655079025766"
    },
    {
      "id": "pt.ine.add.PTCONT.3464946",
      "street": "R MOUZINHO DE ALBUQUERQUE",
      "house": "59-61",
      "postcode": "7300-197",
      "city": "PORTALEGRE",
      "lon": "-7.43066316349294",
      "lat": "39.291655079025766"
    },
    {
      "id": "pt.ine.add.PTCONT.3493031",
      "street": "R MOUZINHO ALBUQUERQUE",
      "house": "65",
      "postcode": "7300-197",
      "city": "PORTALEGRE",
      "lon": "-7.4305912003660985",
      "lat": "39.29158354046862"
    },
    {
      "id": "pt.ine.add.PTCONT.3494467",
      "street": "TV LARGO DE S TIAGO",
      "house": "6",
      "postcode": "7300-234",
      "city": "PORTALEGRE",
      "lon": "-7.430957807052713",
      "lat": "39.291674486038474"
    },
    {
      "id": "pt.ine.add.PTCONT.3496317",
      "street": "R MOUZINHO DE ALBUQUERQUE",
      "house": "53",
      "postcode": "7300-197",
      "city": "PORTALEGRE",
      "lon": "-7.430721088860259",
      "lat": "39.291694436720576"
    },
    {
      "id": "pt.ine.add.PTCONT.3496318",
      "street": "R MOUZINHO DE ALBUQUERQUE",
      "house": "53",
      "postcode": "7300-197",
      "city": "PORTALEGRE",
      "lon": "-7.430721088860259",
      "lat": "39.291694436720576"
    },
    {
      "id": "pt.ine.add.PTCONT.3496319",
      "street": "R MOUZINHO DE ALBUQUERQUE",
      "house": "53",
      "postcode": "7300-197",
      "city": "PORTALEGRE",
      "lon": "-7.430721088860259",
      "lat": "39.291694436720576"
    },
    {
      "id": "pt.ine.add.PTCONT.3496320",
      "street": "R CARMO",
      "house": "",
      "postcode": "7300-158",
      "city": "PORTALEGRE",
      "lon": "-7.430906921803969",
      "lat": "39.29164827904881"
    },
    {
      "id": "pt.ine.add.PTCONT.3497608",
      "street": "TV DE S. TIAGO",
      "house": "16",
      "postcode": "7300-234",
      "city": "PORTALEGRE",
      "lon": "-7.430715915358806",
      "lat": "39.29152809451049"
    },
    {
      "id": "pt.ine.add.PTCONT.3497609",
      "street": "TV DE S. TIAGO",
      "house": "16",
      "postcode": "7300-234",
      "city": "PORTALEGRE",
      "lon": "-7.430715915358806",
      "lat": "39.29152809451049"
    },
    {
      "id": "pt.ine.add.PTCONT.3497616",
      "street": "TV DE S. TIAGO",
      "house": "16",
      "postcode": "7300-234",
      "city": "PORTALEGRE",
      "lon": "-7.430715915358806",
      "lat": "39.29152809451049"
    },
    {
      "id": "pt.ine.add.PTCONT.3497748",
      "street": "TV DE S. TIAGO",
      "house": "16",
      "postcode": "7300-234",
      "city": "PORTALEGRE",
      "lon": "-7.430715915358806",
      "lat": "39.29152809451049"
    },
    {
      "id": "pt.ine.add.PTCONT.3505834",
      "street": "R MOUZINHO DE ALBUQUERQUE",
      "house": "45",
      "postcode": "7300-197",
      "city": "PORTALEGRE",
      "lon": "-7.430840727194277",
      "lat": "39.291773102812044"
    },
    {
      "id": "pt.ine.add.PTCONT.3505835",
      "street": "R MOUZINHO DE ALBUQUERQUE",
      "house": "45",
      "postcode": "7300-197",
      "city": "PORTALEGRE",
      "lon": "-7.430840727194277",
      "lat": "39.291773102812044"
    },
    {
      "id": "pt.ine.add.PTCONT.3505836",
      "street": "R MOUZINHO DE ALBUQUERQUE",
      "house": "45",
      "postcode": "7300-197",
      "city": "PORTALEGRE",
      "lon": "-7.430840727194277",
      "lat": "39.291773102812044"
    },
    {
      "id": "pt.ine.add.PTCONT.3512695",
      "street": "R MOUZINHO ALBUQUERQUE",
      "house": "47",
      "postcode": "7300-197",
      "city": "PORTALEGRE",
      "lon": "-7.430790112009288",
      "lat": "39.2917379604915"
    },
    {
      "id": "pt.ine.add.PTCONT.3512696",
      "street": "R MOUZINHO ALBUQUERQUE",
      "house": "47",
      "postcode": "7300-197",
      "city": "PORTALEGRE",
      "lon": "-7.430790112009288",
      "lat": "39.2917379604915"
    },
    {
      "id": "pt.ine.add.PTCONT.3512710",
      "street": "R MOUZINHO DE ALBUQUERQUE",
      "house": "",
      "postcode": "7300-197",
      "city": "PORTALEGRE",
      "lon": "-7.430790112009288",
      "lat": "39.2917379604915"
    },
    {
      "id": "pt.ine.add.PTCONT.3532751",
      "street": "R MOUZINHO DE ALBUQUERQUE",
      "house": "55",
      "postcode": "7300-197",
      "city": "PORTALEGRE",
      "lon": "-7.4306879338455225",
      "lat": "39.29167681774302"
    },
    {
      "id": "pt.ine.add.PTCONT.3532752",
      "street": "R MOUZINHO DE ALBUQUERQUE",
      "house": "55",
      "postcode": "7300-197",
      "city": "PORTALEGRE",
      "lon": "-7.4306879338455225",
      "lat": "39.29167681774302"
    },
    {
      "id": "pt.ine.add.PTCONT.3532753",
      "street": "R MOUZINHO DE ALBUQUERQUE",
      "house": "55",
      "postcode": "7300-197",
      "city": "PORTALEGRE",
      "lon": "-7.4306879338455225",
      "lat": "39.29167681774302"
    }
  ]
}