{
  "data": {
    "distrito": "Portalegre",
    "concelho": "Portalegre",
    "freguesia": "União das freguesias da Sé e São Lourenço",
    "OBJECTID": 280,
    "BGRI2021": "12141100727",
    "DT21": "12",
    "DTMN21": "1214",
    "DTMNFR21": "121411",
    "DTMNFRSEC21": "121411007",
    "SECNUM21": "007",
    "SSNUM21": "27",
    "SECSSNUM21": "00727",
    "OBJECTID_1": 124589,
    "DT": "12",
    "CC": "14",
    "fr": "11",
    "SEC": "007",
    "SS": "27"
  },
  "addresses": [
    {
      "id": "pt.ine.add.PTCONT.3460553",
      "street": "R LUIS DE CAMÕES",
      "house": "",
      "postcode": "7300-194",
      "city": "PORTALEGRE",
      "lon": "-7.432181240910136",
      "lat": "39.293032305596384"
    },
    {
      "id": "pt.ine.add.PTCONT.3470195",
      "street": "LG CRISTÓVÃO FALCÃO",
      "house": "19",
      "postcode": "7300-089",
      "city": "PORTALEGRE",
      "lon": "-7.433600912942314",
      "lat": "39.291979047638236"
    },
    {
      "id": "pt.ine.add.PTCONT.3471594",
      "street": "R FIGUEIRA",
      "house": "13",
      "postcode": "7300-139",
      "city": "PORTALEGRE",
      "lon": "-7.4331711781263525",
      "lat": "39.29234246483677"
    },
    {
      "id": "pt.ine.add.PTCONT.3471873",
      "street": "TV RUA 1 DE MAIO",
      "house": "8",
      "postcode": "7300-228",
      "city": "PORTALEGRE",
      "lon": "-7.4320706900253075",
      "lat": "39.29339431702687"
    },
    {
      "id": "pt.ine.add.PTCONT.3478984",
      "street": "R S VICENTE",
      "house": "1",
      "postcode": "7300-154",
      "city": "PORTALEGRE",
      "lon": "-7.433608307217436",
      "lat": "39.291918809804905"
    },
    {
      "id": "pt.ine.add.PTCONT.3480220",
      "street": "R S VICENTE",
      "house": "9",
      "postcode": "7300-154",
      "city": "PORTALEGRE",
      "lon": "-7.43360514847968",
      "lat": "39.29182014524741"
    },
    {
      "id": "pt.ine.add.PTCONT.3483425",
      "street": "R S VICENTE",
      "house": "",
      "postcode": "7300-154",
      "city": "PORTALEGRE",
      "lon": "-7.4336059959611065",
      "lat": "39.291942334345215"
    },
    {
      "id": "pt.ine.add.PTCONT.3489448",
      "street": "R S VICENTE",
      "house": "11",
      "postcode": "7300-154",
      "city": "PORTALEGRE",
      "lon": "-7.433623980301393",
      "lat": "39.29177967930322"
    },
    {
      "id": "pt.ine.add.PTCONT.3492993",
      "street": "LG CAMÕES",
      "house": "2",
      "postcode": "7300-231",
      "city": "PORTALEGRE",
      "lon": "-7.4325402582119215",
      "lat": "39.29257267903477"
    },
    {
      "id": "pt.ine.add.PTCONT.3496513",
      "street": "R LUIS DE CAMÕES",
      "house": "1",
      "postcode": "7300-194",
      "city": "PORTALEGRE",
      "lon": "-7.4320568126268505",
      "lat": "39.29316357533166"
    },
    {
      "id": "pt.ine.add.PTCONT.3502896",
      "street": "R S VICENTE",
      "house": "7",
      "postcode": "7300-154",
      "city": "PORTALEGRE",
      "lon": "-7.433609082827936",
      "lat": "39.29183736446537"
    },
    {
      "id": "pt.ine.add.PTCONT.3505159",
      "street": "R FIGUEIRA",
      "house": "15",
      "postcode": "7300-139",
      "city": "PORTALEGRE",
      "lon": "-7.433192609487859",
      "lat": "39.29232105934461"
    },
    {
      "id": "pt.ine.add.PTCONT.3506458",
      "street": "R 5 DE OUTUBRO",
      "house": "133",
      "postcode": "7300-133",
      "city": "PORTALEGRE",
      "lon": "-7.431979716299127",
      "lat": "39.29323741117131"
    },
    {
      "id": "pt.ine.add.PTCONT.3506459",
      "street": "R 5 DE OUTUBRO",
      "house": "133",
      "postcode": "7300-133",
      "city": "PORTALEGRE",
      "lon": "-7.431979716299127",
      "lat": "39.29323741117131"
    },
    {
      "id": "pt.ine.add.PTCONT.3522139",
      "street": "TV RUA 1 DE MAIO",
      "house": "2",
      "postcode": "7300-228",
      "city": "PORTALEGRE",
      "lon": "-7.431972608697244",
      "lat": "39.29335440564432"
    }
  ]
}