{
  "data": {
    "distrito": "Viseu",
    "concelho": "Viseu",
    "freguesia": "Calde",
    "OBJECTID": 1863,
    "BGRI2021": "18230500104",
    "DT21": "18",
    "DTMN21": "1823",
    "DTMNFR21": "182305",
    "DTMNFRSEC21": "182305001",
    "SECNUM21": "001",
    "SSNUM21": "04",
    "SECSSNUM21": "00104",
    "OBJECTID_1": 202285,
    "DT": "18",
    "CC": "23",
    "fr": "05",
    "SEC": "001",
    "SS": "04"
  },
  "addresses": [
    {
      "id": "pt.ine.add.PTCONT.5433006",
      "street": "TV CANASTROS",
      "house": "3",
      "postcode": "3515-745",
      "city": "CALDE",
      "lon": "-7.915589064973143",
      "lat": "40.757285931848216"
    },
    {
      "id": "pt.ine.add.PTCONT.5445917",
      "street": "R CUME",
      "house": "34",
      "postcode": "3515-745",
      "city": "CALDE",
      "lon": "-7.915470672207162",
      "lat": "40.75727670364589"
    },
    {
      "id": "pt.ine.add.PTCONT.5455142",
      "street": "R CUME",
      "house": "32",
      "postcode": "3515-745",
      "city": "CALDE",
      "lon": "-7.915316841008778",
      "lat": "40.757240393433975"
    },
    {
      "id": "pt.ine.add.PTCONT.5531909",
      "street": "R CUME",
      "house": "44",
      "postcode": "3515-745",
      "city": "CALDE",
      "lon": "-7.915955704764565",
      "lat": "40.757430702373014"
    },
    {
      "id": "pt.ine.add.PTCONT.5577076",
      "street": "R ESCOLA",
      "house": "",
      "postcode": "3515-745",
      "city": "CALDE",
      "lon": "-7.914948260763771",
      "lat": "40.757689947610345"
    },
    {
      "id": "pt.ine.add.PTCONT.5602877",
      "street": "R CONSELHO",
      "house": "2",
      "postcode": "3515-745",
      "city": "CALDE",
      "lon": "-7.9153743479715395",
      "lat": "40.7577627922843"
    },
    {
      "id": "pt.ine.add.PTCONT.5610117",
      "street": "R CUME",
      "house": "",
      "postcode": "3515-745",
      "city": "CALDE",
      "lon": "-7.915399677691134",
      "lat": "40.75725855973495"
    },
    {
      "id": "pt.ine.add.PTCONT.5629183",
      "street": "R CANASTROS",
      "house": "12",
      "postcode": "3515-745",
      "city": "CALDE",
      "lon": "-7.915103593068818",
      "lat": "40.75726700584382"
    },
    {
      "id": "pt.ine.add.PTCONT.5631130",
      "street": "R ESCOLA",
      "house": "",
      "postcode": "3515-745",
      "city": "CALDE",
      "lon": "-7.915682599789835",
      "lat": "40.757655313343044"
    },
    {
      "id": "pt.ine.add.PTCONT.5638018",
      "street": "LG SANTO ANTÃ“NIO",
      "house": "3",
      "postcode": "3515-745",
      "city": "CALDE",
      "lon": "-7.914617502317849",
      "lat": "40.75743718175473"
    },
    {
      "id": "pt.ine.add.PTCONT.5644351",
      "street": "R ESCOLA",
      "house": "1",
      "postcode": "3515-745",
      "city": "CALDE",
      "lon": "-7.914735335378724",
      "lat": "40.757617504884294"
    }
  ]
}