{
  "data": {
    "distrito": "Viseu",
    "concelho": "Viseu",
    "freguesia": "Calde",
    "OBJECTID": 1304,
    "BGRI2021": "18230500108",
    "DT21": "18",
    "DTMN21": "1823",
    "DTMNFR21": "182305",
    "DTMNFRSEC21": "182305001",
    "SECNUM21": "001",
    "SSNUM21": "08",
    "SECSSNUM21": "00108",
    "OBJECTID_1": 200724,
    "DT": "18",
    "CC": "23",
    "fr": "05",
    "SEC": "001",
    "SS": "08"
  },
  "addresses": [
    {
      "id": "pt.ine.add.PTCONT.5455205",
      "street": "R PONTE ROMANA",
      "house": "16",
      "postcode": "3515-695",
      "city": "CALDE",
      "lon": "-7.893815027400006",
      "lat": "40.759494090895636"
    },
    {
      "id": "pt.ine.add.PTCONT.5461722",
      "street": "R PONTE ROMANA",
      "house": "11",
      "postcode": "3515-695",
      "city": "CALDE",
      "lon": "-7.894336939011117",
      "lat": "40.759261041815215"
    },
    {
      "id": "pt.ine.add.PTCONT.5466440",
      "street": "EN 2",
      "house": "115",
      "postcode": "3515-699",
      "city": "CALDE",
      "lon": "-7.899313439560152",
      "lat": "40.76190069013428"
    },
    {
      "id": "pt.ine.add.PTCONT.5491277",
      "street": "R LAGAR DO AZEITE",
      "house": "5",
      "postcode": "3515-699",
      "city": "CALDE",
      "lon": "-7.897516353127911",
      "lat": "40.76103255583462"
    },
    {
      "id": "pt.ine.add.PTCONT.5566128",
      "street": "EN 2",
      "house": "29",
      "postcode": "3515-699",
      "city": "CALDE",
      "lon": "-7.8943760295023315",
      "lat": "40.761575407534835"
    },
    {
      "id": "pt.ine.add.PTCONT.5597571",
      "street": "EN 2",
      "house": "81",
      "postcode": "3515-699",
      "city": "CALDE",
      "lon": "-7.896340362908086",
      "lat": "40.762029704016754"
    },
    {
      "id": "pt.ine.add.PTCONT.5605256",
      "street": "TV CERDEIRINHA",
      "house": "1",
      "postcode": "3515-695",
      "city": "CALDE",
      "lon": "-7.895341630355084",
      "lat": "40.75980341606885"
    },
    {
      "id": "pt.ine.add.PTCONT.5614854",
      "street": "R CERDEIRINHA",
      "house": "20",
      "postcode": "3515-699",
      "city": "CALDE",
      "lon": "-7.895010293390742",
      "lat": "40.75973069297971"
    },
    {
      "id": "pt.ine.add.PTCONT.5628003",
      "street": "R FONTAO",
      "house": "101",
      "postcode": "3515-846",
      "city": "CALDE",
      "lon": "-7.899730433429984",
      "lat": "40.761190139259504"
    },
    {
      "id": "pt.ine.add.PTCONT.5655516",
      "street": "R CERDEIRINHA",
      "house": "33",
      "postcode": "3515-699",
      "city": "CALDE",
      "lon": "-7.896112489605229",
      "lat": "40.75949883156609"
    },
    {
      "id": "pt.ine.add.PTCONT.5659269",
      "street": "R CERDEIRINHA",
      "house": "8",
      "postcode": "3515-699",
      "city": "CALDE",
      "lon": "-7.89367126846859",
      "lat": "40.75995304776033"
    },
    {
      "id": "pt.ine.add.PTCONT.5661125",
      "street": "R LAGAR DO AZEITE",
      "house": "7",
      "postcode": "3515-699",
      "city": "CALDE",
      "lon": "-7.897172145916071",
      "lat": "40.76124797264443"
    }
  ]
}