{
  "data": {
    "distrito": "Viana do Castelo",
    "concelho": "Ponte de Lima",
    "freguesia": "Calvelo",
    "OBJECTID": 346,
    "BGRI2021": "16071400126",
    "DT21": "16",
    "DTMN21": "1607",
    "DTMNFR21": "160714",
    "DTMNFRSEC21": "160714001",
    "SECNUM21": "001",
    "SSNUM21": "26",
    "SECSSNUM21": "00126",
    "OBJECTID_1": 175833,
    "DT": "16",
    "CC": "07",
    "fr": "14",
    "SEC": "001",
    "SS": "26"
  },
  "addresses": [
    {
      "id": "pt.ine.add.PTCONT.5167079",
      "street": "R MERECE",
      "house": "518",
      "postcode": "4990-580",
      "city": "CALVELO",
      "lon": "-8.54806885500098",
      "lat": "41.677268811662074"
    },
    {
      "id": "pt.ine.add.PTCONT.5170298",
      "street": "R COUTO CALVELO",
      "house": "",
      "postcode": "4990-580",
      "city": "CALVELO",
      "lon": "-8.549694387967",
      "lat": "41.67979292673301"
    },
    {
      "id": "pt.ine.add.PTCONT.5187751",
      "street": "R MERECE",
      "house": "541",
      "postcode": "4990-580",
      "city": "CALVELO",
      "lon": "-8.548565917785748",
      "lat": "41.677996303043116"
    },
    {
      "id": "pt.ine.add.PTCONT.5190110",
      "street": "R MERECE",
      "house": "547",
      "postcode": "4990-580",
      "city": "CALVELO",
      "lon": "-8.548750922301105",
      "lat": "41.67875193175848"
    },
    {
      "id": "pt.ine.add.PTCONT.5209214",
      "street": "R CORTO DE CALVELO",
      "house": "2401",
      "postcode": "4990-580",
      "city": "CALVELO",
      "lon": "-8.550122895718228",
      "lat": "41.67919713902716"
    },
    {
      "id": "pt.ine.add.PTCONT.5213133",
      "street": "R COUTO DE CALVELO",
      "house": "2289",
      "postcode": "4990-580",
      "city": "CALVELO",
      "lon": "-8.549851325408241",
      "lat": "41.67991840735128"
    },
    {
      "id": "pt.ine.add.PTCONT.5231715",
      "street": "R CORTO DE CALVELO",
      "house": "2565",
      "postcode": "4990-580",
      "city": "CALVELO",
      "lon": "-8.551522985103883",
      "lat": "41.678417745840335"
    },
    {
      "id": "pt.ine.add.PTCONT.5243186",
      "street": "MERECE",
      "house": "",
      "postcode": "4990-580",
      "city": "CALVELO",
      "lon": "-8.548738681217767",
      "lat": "41.678715961856646"
    },
    {
      "id": "pt.ine.add.PTCONT.5274437",
      "street": "R MERECE",
      "house": "540",
      "postcode": "4990-580",
      "city": "CALVELO",
      "lon": "-8.54888105500858",
      "lat": "41.67844534061687"
    },
    {
      "id": "pt.ine.add.PTCONT.5279009",
      "street": "R COUTO DE CALVELO",
      "house": "2281",
      "postcode": "4990-580",
      "city": "CALVELO",
      "lon": "-8.549732913682526",
      "lat": "41.680179939323125"
    },
    {
      "id": "pt.ine.add.PTCONT.5280721",
      "street": "R MERECE",
      "house": "611",
      "postcode": "4990-580",
      "city": "CALVELO",
      "lon": "-8.549332128791168",
      "lat": "41.67948811882991"
    }
  ]
}