{
  "data": {
    "distrito": "Viana do Castelo",
    "concelho": "Ponte de Lima",
    "freguesia": "Calvelo",
    "OBJECTID": 1442,
    "BGRI2021": "16071400137",
    "DT21": "16",
    "DTMN21": "1607",
    "DTMNFR21": "160714",
    "DTMNFRSEC21": "160714001",
    "SECNUM21": "001",
    "SSNUM21": "37",
    "SECSSNUM21": "00137",
    "OBJECTID_1": 176297,
    "DT": "16",
    "CC": "07",
    "fr": "14",
    "SEC": "001",
    "SS": "37"
  },
  "addresses": [
    {
      "id": "pt.ine.add.PTCONT.5137256",
      "street": "TV MILHAOS",
      "house": "39",
      "postcode": "4990-580",
      "city": "CALVELO",
      "lon": "-8.535441598400212",
      "lat": "41.68218462492126"
    },
    {
      "id": "pt.ine.add.PTCONT.5144886",
      "street": "R COUTO DE CALVELO",
      "house": "238",
      "postcode": "4990-580",
      "city": "CALVELO",
      "lon": "-8.535253824374902",
      "lat": "41.6809608006802"
    },
    {
      "id": "pt.ine.add.PTCONT.5153407",
      "street": "R GANDARA",
      "house": "69",
      "postcode": "4990-580",
      "city": "CALVELO",
      "lon": "-8.535905385113033",
      "lat": "41.68144471019071"
    },
    {
      "id": "pt.ine.add.PTCONT.5157993",
      "street": "R GANDARA",
      "house": "1",
      "postcode": "4990-580",
      "city": "CALVELO",
      "lon": "-8.535234849526486",
      "lat": "41.681771185689534"
    },
    {
      "id": "pt.ine.add.PTCONT.5163827",
      "street": "R COUTO DE CALVELO",
      "house": "310",
      "postcode": "4990-580",
      "city": "CALVELO",
      "lon": "-8.535820137101204",
      "lat": "41.68125593458422"
    },
    {
      "id": "pt.ine.add.PTCONT.5223557",
      "street": "R GANDARA",
      "house": "108",
      "postcode": "4990-580",
      "city": "CALVELO",
      "lon": "-8.536685914965684",
      "lat": "41.68142396494271"
    },
    {
      "id": "pt.ine.add.PTCONT.5245632",
      "street": "TV MILHAOS",
      "house": "46",
      "postcode": "4990-580",
      "city": "CALVELO",
      "lon": "-8.535346751773975",
      "lat": "41.68238303476106"
    },
    {
      "id": "pt.ine.add.PTCONT.5252618",
      "street": "R COUTO DE CALVELO",
      "house": "270",
      "postcode": "4990-580",
      "city": "CALVELO",
      "lon": "-8.535495029850852",
      "lat": "41.68112202017703"
    },
    {
      "id": "pt.ine.add.PTCONT.5260996",
      "street": "R CRUZINHA",
      "house": "60",
      "postcode": "4990-580",
      "city": "CALVELO",
      "lon": "-8.537204649154537",
      "lat": "41.68179128736702"
    },
    {
      "id": "pt.ine.add.PTCONT.5283119",
      "street": "R GANDARA",
      "house": "81",
      "postcode": "4990-580",
      "city": "CALVELO",
      "lon": "-8.5362052388699",
      "lat": "41.68138063412411"
    }
  ]
}