{
  "data": {
    "distrito": "Bragança",
    "concelho": "Macedo de Cavaleiros",
    "freguesia": "Cortiços",
    "OBJECTID": 608,
    "BGRI2021": "04051000102",
    "DT21": "04",
    "DTMN21": "0405",
    "DTMNFR21": "040510",
    "DTMNFRSEC21": "040510001",
    "SECNUM21": "001",
    "SSNUM21": "02",
    "SECSSNUM21": "00102",
    "OBJECTID_1": 35573,
    "DT": "04",
    "CC": "05",
    "fr": "10",
    "SEC": "001",
    "SS": "02"
  },
  "addresses": [
    {
      "id": "pt.ine.add.PTCONT.874486",
      "street": "R PRINCIPAL",
      "house": "",
      "postcode": "5340-101",
      "city": "CORTIÇOS",
      "lon": "-7.039761973999915",
      "lat": "41.508485168904386"
    },
    {
      "id": "pt.ine.add.PTCONT.882401",
      "street": "R TANQUE",
      "house": "2",
      "postcode": "5340-101",
      "city": "CORTIÇOS",
      "lon": "-7.03935918520258",
      "lat": "41.50822023328796"
    },
    {
      "id": "pt.ine.add.PTCONT.890248",
      "street": "LG PRADO",
      "house": "",
      "postcode": "5340-101",
      "city": "CORTIÇOS",
      "lon": "-7.039387076665816",
      "lat": "41.50798640402807"
    },
    {
      "id": "pt.ine.add.PTCONT.897877",
      "street": "R IGREJA",
      "house": "",
      "postcode": "5340-101",
      "city": "CORTIÇOS",
      "lon": "-7.039076764710081",
      "lat": "41.507920426884354"
    },
    {
      "id": "pt.ine.add.PTCONT.915388",
      "street": "R IGREJA",
      "house": "",
      "postcode": "5340-101",
      "city": "CORTIÇOS",
      "lon": "-7.0388745392203065",
      "lat": "41.508548757338524"
    },
    {
      "id": "pt.ine.add.PTCONT.933229",
      "street": "LG PRADO",
      "house": "",
      "postcode": "5340-101",
      "city": "CORTIÇOS",
      "lon": "-7.0394263436692945",
      "lat": "41.50849998470428"
    },
    {
      "id": "pt.ine.add.PTCONT.936153",
      "street": "R IGREJA",
      "house": "",
      "postcode": "5340-101",
      "city": "CORTIÇOS",
      "lon": "-7.038912741039563",
      "lat": "41.508414066302834"
    },
    {
      "id": "pt.ine.add.PTCONT.939181",
      "street": "R MOREIRA",
      "house": "5",
      "postcode": "5340-101",
      "city": "CORTIÇOS",
      "lon": "-7.039220778231613",
      "lat": "41.507903789575195"
    },
    {
      "id": "pt.ine.add.PTCONT.949730",
      "street": "LG MOREIRA",
      "house": "",
      "postcode": "5340-101",
      "city": "CORTIÇOS",
      "lon": "-7.039542611639405",
      "lat": "41.50799688680025"
    }
  ]
}