{
  "data": {
    "distrito": "Lisboa",
    "concelho": "Loures",
    "freguesia": "União das freguesias de Camarate, Unhos e Apelação",
    "OBJECTID": 856,
    "BGRI2021": "11073102520",
    "DT21": "11",
    "DTMN21": "1107",
    "DTMNFR21": "110731",
    "DTMNFRSEC21": "110731025",
    "SECNUM21": "025",
    "SSNUM21": "20",
    "SECSSNUM21": "02520",
    "OBJECTID_1": 105592,
    "DT": "11",
    "CC": "07",
    "fr": "31",
    "SEC": "025",
    "SS": "20"
  },
  "addresses": [
    {
      "id": "pt.ine.add.PTCONT.2945664",
      "street": "R MARIA",
      "house": "",
      "postcode": "2680-554",
      "city": "UNHOS",
      "lon": "-9.118076638057529",
      "lat": "38.81744022504192"
    },
    {
      "id": "pt.ine.add.PTCONT.2956774",
      "street": "AV FORCAS ARMADAS",
      "house": "1",
      "postcode": "2680-332",
      "city": "UNHOS",
      "lon": "-9.118739097397645",
      "lat": "38.818722745408735"
    },
    {
      "id": "pt.ine.add.PTCONT.2956775",
      "street": "AV FORCAS ARMADAS",
      "house": "2",
      "postcode": "2680-332",
      "city": "UNHOS",
      "lon": "-9.118739097397645",
      "lat": "38.818722745408735"
    },
    {
      "id": "pt.ine.add.PTCONT.2956776",
      "street": "AV FORCAS ARMADAS",
      "house": "3",
      "postcode": "2680-332",
      "city": "UNHOS",
      "lon": "-9.118739097397645",
      "lat": "38.818722745408735"
    },
    {
      "id": "pt.ine.add.PTCONT.2956777",
      "street": "AV FORCAS ARMADAS",
      "house": "1544",
      "postcode": "2680-332",
      "city": "UNHOS",
      "lon": "-9.118739097397645",
      "lat": "38.818722745408735"
    },
    {
      "id": "pt.ine.add.PTCONT.2956778",
      "street": "AV FORCAS ARMADAS",
      "house": "CASA 5",
      "postcode": "2680-332",
      "city": "UNHOS",
      "lon": "-9.118739097397645",
      "lat": "38.818722745408735"
    },
    {
      "id": "pt.ine.add.PTCONT.2956779",
      "street": "AV FORCAS ARMADAS",
      "house": "6",
      "postcode": "2680-332",
      "city": "UNHOS",
      "lon": "-9.118739097397645",
      "lat": "38.818722745408735"
    },
    {
      "id": "pt.ine.add.PTCONT.3160822",
      "street": "ESTR MILITAR ALTO CINCO TOSTOES AMA",
      "house": "10",
      "postcode": "2680-332",
      "city": "UNHOS",
      "lon": "-9.118275358969374",
      "lat": "38.818492455687625"
    },
    {
      "id": "pt.ine.add.PTCONT.3215730",
      "street": "AV FORCAS ARMADAS",
      "house": "",
      "postcode": "2680-332",
      "city": "UNHOS",
      "lon": "-9.118914397137154",
      "lat": "38.818910428901354"
    },
    {
      "id": "pt.ine.add.PTCONT.3215731",
      "street": "AV FORCAS ARMADAS",
      "house": "",
      "postcode": "2680-332",
      "city": "UNHOS",
      "lon": "-9.118914397137154",
      "lat": "38.818910428901354"
    },
    {
      "id": "pt.ine.add.PTCONT.3215732",
      "street": "AV FORCAS ARMADAS A M A",
      "house": "A M A",
      "postcode": "2680-332",
      "city": "UNHOS",
      "lon": "-9.118914397137154",
      "lat": "38.818910428901354"
    },
    {
      "id": "pt.ine.add.PTCONT.3215733",
      "street": "AV FORCAS ARMADAS A M A",
      "house": "A M A",
      "postcode": "2680-332",
      "city": "UNHOS",
      "lon": "-9.118914397137154",
      "lat": "38.818910428901354"
    },
    {
      "id": "pt.ine.add.PTCONT.3215734",
      "street": "AV FORCAS ARMADAS",
      "house": "",
      "postcode": "2680-332",
      "city": "UNHOS",
      "lon": "-9.118914397137154",
      "lat": "38.818910428901354"
    },
    {
      "id": "pt.ine.add.PTCONT.3215737",
      "street": "AV FORCAS ARMADAS AMA",
      "house": "AMA",
      "postcode": "2680-332",
      "city": "UNHOS",
      "lon": "-9.118914397137154",
      "lat": "38.818910428901354"
    },
    {
      "id": "pt.ine.add.PTCONT.3215738",
      "street": "AV FORCAS ARMADAS",
      "house": "510",
      "postcode": "2680-332",
      "city": "UNHOS",
      "lon": "-9.118914397137154",
      "lat": "38.818910428901354"
    },
    {
      "id": "pt.ine.add.PTCONT.3243899",
      "street": "R MARIA",
      "house": "",
      "postcode": "2680-554",
      "city": "UNHOS",
      "lon": "-9.118052496261534",
      "lat": "38.81735935886239"
    },
    {
      "id": "pt.ine.add.PTCONT.3361713",
      "street": "AV FORÇAS ARMADAS",
      "house": "",
      "postcode": "2680-332",
      "city": "UNHOS",
      "lon": "-9.118387850272308",
      "lat": "38.81746462395408"
    },
    {
      "id": "pt.ine.add.PTCONT.3427078",
      "street": "R JOAO DEUS",
      "house": "1",
      "postcode": "2680-535",
      "city": "UNHOS",
      "lon": "-9.118142611594893",
      "lat": "38.81721447510644"
    },
    {
      "id": "pt.ine.add.PTCONT.3427079",
      "street": "R JOAO DE DEUS",
      "house": "",
      "postcode": "2680-535",
      "city": "UNHOS",
      "lon": "-9.118142611594893",
      "lat": "38.81721447510644"
    },
    {
      "id": "pt.ine.add.PTCONT.3427080",
      "street": "R JOAO DE DEUS",
      "house": "",
      "postcode": "2680-535",
      "city": "UNHOS",
      "lon": "-9.118142611594893",
      "lat": "38.81721447510644"
    },
    {
      "id": "pt.ine.add.PTCONT.3430876",
      "street": "R JOAO DEUS",
      "house": "3",
      "postcode": "2680-535",
      "city": "UNHOS",
      "lon": "-9.118142611594893",
      "lat": "38.81721447510644"
    },
    {
      "id": "pt.ine.add.PTCONT.3431137",
      "street": "R JOAO DE DEUS",
      "house": "",
      "postcode": "2680-535",
      "city": "UNHOS",
      "lon": "-9.118142611594893",
      "lat": "38.81721447510644"
    },
    {
      "id": "pt.ine.add.PTCONT.3443987",
      "street": "AV FORCAS ARMADAS",
      "house": "11",
      "postcode": "2680-332",
      "city": "UNHOS",
      "lon": "-9.118914397137154",
      "lat": "38.818910428901354"
    },
    {
      "id": "pt.ine.add.PTCONT.2352614",
      "street": "R MARIA",
      "house": "",
      "postcode": "2680-554",
      "city": "UNHOS",
      "lon": "-9.117986646375751",
      "lat": "38.81759411544777"
    },
    {
      "id": "pt.ine.add.PTCONT.2356486",
      "street": "R MARIA",
      "house": "",
      "postcode": "2680-554",
      "city": "UNHOS",
      "lon": "-9.117986646375751",
      "lat": "38.81759411544777"
    },
    {
      "id": "pt.ine.add.PTCONT.2516685",
      "street": "R MARIA",
      "house": "",
      "postcode": "2680-554",
      "city": "UNHOS",
      "lon": "-9.118079988016678",
      "lat": "38.81768340595933"
    },
    {
      "id": "pt.ine.add.PTCONT.2516686",
      "street": "R MARIA",
      "house": "",
      "postcode": "2680-554",
      "city": "UNHOS",
      "lon": "-9.118079988016678",
      "lat": "38.81768340595933"
    },
    {
      "id": "pt.ine.add.PTCONT.2516687",
      "street": "R MARIA",
      "house": "",
      "postcode": "2680-554",
      "city": "UNHOS",
      "lon": "-9.118079988016678",
      "lat": "38.81768340595933"
    },
    {
      "id": "pt.ine.add.PTCONT.2516688",
      "street": "R MARIA",
      "house": "",
      "postcode": "2680-554",
      "city": "UNHOS",
      "lon": "-9.118079988016678",
      "lat": "38.81768340595933"
    },
    {
      "id": "pt.ine.add.PTCONT.2575577",
      "street": "R MARIA",
      "house": "",
      "postcode": "2680-554",
      "city": "UNHOS",
      "lon": "-9.118225557166369",
      "lat": "38.81738492288889"
    },
    {
      "id": "pt.ine.add.PTCONT.2575578",
      "street": "R MARIA",
      "house": "",
      "postcode": "2680-554",
      "city": "UNHOS",
      "lon": "-9.118225557166369",
      "lat": "38.81738492288889"
    },
    {
      "id": "pt.ine.add.PTCONT.2575582",
      "street": "R MARIA",
      "house": "",
      "postcode": "2680-554",
      "city": "UNHOS",
      "lon": "-9.118225557166369",
      "lat": "38.81738492288889"
    },
    {
      "id": "pt.ine.add.PTCONT.2642951",
      "street": "ESTR MILITAR TALUDE",
      "house": "3",
      "postcode": "2680-601",
      "city": "UNHOS",
      "lon": "-9.117880675942972",
      "lat": "38.817423861592424"
    },
    {
      "id": "pt.ine.add.PTCONT.2642952",
      "street": "ESTR MILITAR TALUDE",
      "house": "4",
      "postcode": "2680-601",
      "city": "UNHOS",
      "lon": "-9.117880675942972",
      "lat": "38.817423861592424"
    },
    {
      "id": "pt.ine.add.PTCONT.2642953",
      "street": "R MARIA",
      "house": "4",
      "postcode": "2680-601",
      "city": "UNHOS",
      "lon": "-9.117880675942972",
      "lat": "38.817423861592424"
    },
    {
      "id": "pt.ine.add.PTCONT.2646170",
      "street": "ESTR MILITAR TALUDE",
      "house": "2",
      "postcode": "2680-601",
      "city": "UNHOS",
      "lon": "-9.117880675942972",
      "lat": "38.817423861592424"
    },
    {
      "id": "pt.ine.add.PTCONT.2738002",
      "street": "AV FORÇAS ARMADAS",
      "house": "",
      "postcode": "2680-332",
      "city": "UNHOS",
      "lon": "-9.118384995731278",
      "lat": "38.817257469851285"
    },
    {
      "id": "pt.ine.add.PTCONT.2738003",
      "street": "AV FORÇAS ARMADAS",
      "house": "",
      "postcode": "2680-332",
      "city": "UNHOS",
      "lon": "-9.118384995731278",
      "lat": "38.817257469851285"
    },
    {
      "id": "pt.ine.add.PTCONT.2749180",
      "street": "R MARIA",
      "house": "",
      "postcode": "2680-554",
      "city": "UNHOS",
      "lon": "-9.118100779909987",
      "lat": "38.81752109121461"
    },
    {
      "id": "pt.ine.add.PTCONT.2865400",
      "street": "R MARIA",
      "house": "",
      "postcode": "2680-554",
      "city": "UNHOS",
      "lon": "-9.118250195541929",
      "lat": "38.81750181583083"
    },
    {
      "id": "pt.ine.add.PTCONT.2865401",
      "street": "R MARIA",
      "house": "",
      "postcode": "2680-554",
      "city": "UNHOS",
      "lon": "-9.118250195541929",
      "lat": "38.81750181583083"
    },
    {
      "id": "pt.ine.add.PTCONT.2865402",
      "street": "R MARIA",
      "house": "",
      "postcode": "2680-554",
      "city": "UNHOS",
      "lon": "-9.118250195541929",
      "lat": "38.81750181583083"
    }
  ]
}