{
  "data": {
    "distrito": "Viana do Castelo",
    "concelho": "Ponte de Lima",
    "freguesia": "Feitosa",
    "OBJECTID": 372,
    "BGRI2021": "16071900120",
    "DT21": "16",
    "DTMN21": "1607",
    "DTMNFR21": "160719",
    "DTMNFRSEC21": "160719001",
    "SECNUM21": "001",
    "SSNUM21": "20",
    "SECSSNUM21": "00120",
    "OBJECTID_1": 175871,
    "DT": "16",
    "CC": "07",
    "fr": "19",
    "SEC": "001",
    "SS": "20"
  },
  "addresses": [
    {
      "id": "pt.ine.add.PTCONT.5162827",
      "street": "R SENHOR PIAS",
      "house": "",
      "postcode": "4990-351",
      "city": "PONTE DE LIMA",
      "lon": "-8.57788316379445",
      "lat": "41.75149905878758"
    },
    {
      "id": "pt.ine.add.PTCONT.5202147",
      "street": "R SENHOR DE PIAS",
      "house": "",
      "postcode": "4990-351",
      "city": "PONTE DE LIMA",
      "lon": "-8.576969053690627",
      "lat": "41.751448573130475"
    },
    {
      "id": "pt.ine.add.PTCONT.5237635",
      "street": "R PIAS",
      "house": "",
      "postcode": "4990-179",
      "city": "PONTE DE LIMA",
      "lon": "-8.577656095932076",
      "lat": "41.75169801288709"
    },
    {
      "id": "pt.ine.add.PTCONT.5257538",
      "street": "R PIAS",
      "house": "46",
      "postcode": "4990-179",
      "city": "PONTE DE LIMA",
      "lon": "-8.578549348607902",
      "lat": "41.75047008754422"
    },
    {
      "id": "pt.ine.add.PTCONT.5286002",
      "street": "R OLIVEIRAS",
      "house": "59",
      "postcode": "4990-351",
      "city": "PONTE DE LIMA",
      "lon": "-8.579553860363777",
      "lat": "41.753158212657375"
    }
  ]
}