{
  "data": {
    "distrito": "Braga",
    "concelho": "Braga",
    "freguesia": "União das freguesias de Merelim (São Pedro) e Frossos",
    "OBJECTID": 215,
    "BGRI2021": "03037500117",
    "DT21": "03",
    "DTMN21": "0303",
    "DTMNFR21": "030375",
    "DTMNFRSEC21": "030375001",
    "SECNUM21": "001",
    "SSNUM21": "17",
    "SECSSNUM21": "00117",
    "OBJECTID_1": 23027,
    "DT": "03",
    "CC": "03",
    "fr": "75",
    "SEC": "001",
    "SS": "17"
  },
  "addresses": [
    {
      "id": "pt.ine.add.PTCONT.461301",
      "street": "R SEBE",
      "house": "5",
      "postcode": "4700-857",
      "city": "SÃO PEDRO MERELIM",
      "lon": "-8.450064884936209",
      "lat": "41.58264658789188"
    },
    {
      "id": "pt.ine.add.PTCONT.539932",
      "street": "R SEBE",
      "house": "",
      "postcode": "4700-857",
      "city": "SÃO PEDRO MERELIM",
      "lon": "-8.450268567133644",
      "lat": "41.58261001140258"
    },
    {
      "id": "pt.ine.add.PTCONT.551619",
      "street": "R FELGUEIRAS",
      "house": "1",
      "postcode": "4700-852",
      "city": "SÃO PEDRO MERELIM",
      "lon": "-8.446432193613042",
      "lat": "41.577857567891364"
    },
    {
      "id": "pt.ine.add.PTCONT.597229",
      "street": "R SEBE",
      "house": "26",
      "postcode": "4700-857",
      "city": "SÃO PEDRO MERELIM",
      "lon": "-8.44986129050714",
      "lat": "41.582701171187935"
    },
    {
      "id": "pt.ine.add.PTCONT.653217",
      "street": "R TRAS AS BOUCAS",
      "house": "",
      "postcode": "4700-871",
      "city": "SÃO PEDRO MERELIM",
      "lon": "-8.452125795376402",
      "lat": "41.579867746446666"
    },
    {
      "id": "pt.ine.add.PTCONT.732221",
      "street": "R TRAS-AS-BOUCAS",
      "house": "",
      "postcode": "4700-871",
      "city": "SÃO PEDRO MERELIM",
      "lon": "-8.452375968878275",
      "lat": "41.57953391480787"
    },
    {
      "id": "pt.ine.add.PTCONT.755391",
      "street": "R TRAS-AS-BOUCAS",
      "house": "5",
      "postcode": "4700-871",
      "city": "SÃO PEDRO MERELIM",
      "lon": "-8.452280971089309",
      "lat": "41.57972325644917"
    },
    {
      "id": "pt.ine.add.PTCONT.836370",
      "street": "R SEBE",
      "house": "18",
      "postcode": "4700-857",
      "city": "SÃO PEDRO MERELIM",
      "lon": "-8.450746998281048",
      "lat": "41.582356586932164"
    }
  ]
}