{
  "data": {
    "distrito": "Leiria",
    "concelho": "Porto de Mós",
    "freguesia": "Mira de Aire",
    "OBJECTID": 2,
    "BGRI2021": "10160800405",
    "DT21": "10",
    "DTMN21": "1016",
    "DTMNFR21": "101608",
    "DTMNFRSEC21": "101608004",
    "SECNUM21": "004",
    "SSNUM21": "05",
    "SECSSNUM21": "00405",
    "OBJECTID_1": 98387,
    "DT": "10",
    "CC": "16",
    "fr": "08",
    "SEC": "004",
    "SS": "05"
  },
  "addresses": [
    {
      "id": "pt.ine.add.PTCONT.2029510",
      "street": "R MOITA DO JOANINHO",
      "house": "",
      "postcode": "2485-020",
      "city": "MIRA DE AIRE",
      "lon": "-8.71114611058083",
      "lat": "39.543724969295916"
    },
    {
      "id": "pt.ine.add.PTCONT.2029511",
      "street": "R MOITA DO JOANINHO",
      "house": "",
      "postcode": "2485-020",
      "city": "MIRA DE AIRE",
      "lon": "-8.71114611058083",
      "lat": "39.543724969295916"
    },
    {
      "id": "pt.ine.add.PTCONT.2029512",
      "street": "R MOITA DO JOANINHO",
      "house": "",
      "postcode": "2485-020",
      "city": "MIRA DE AIRE",
      "lon": "-8.71114611058083",
      "lat": "39.543724969295916"
    },
    {
      "id": "pt.ine.add.PTCONT.2035289",
      "street": "R LUIS DE CAMÕES",
      "house": "155",
      "postcode": "2485-139",
      "city": "MIRA DE AIRE",
      "lon": "-8.710923593677496",
      "lat": "39.54354593925819"
    },
    {
      "id": "pt.ine.add.PTCONT.2075475",
      "street": "R LUIS DE CAMÕES",
      "house": "109",
      "postcode": "2485-139",
      "city": "MIRA DE AIRE",
      "lon": "-8.711433042951986",
      "lat": "39.54325518726204"
    },
    {
      "id": "pt.ine.add.PTCONT.2075476",
      "street": "R LUIS DE CAMÕES",
      "house": "109",
      "postcode": "2485-139",
      "city": "MIRA DE AIRE",
      "lon": "-8.711433042951986",
      "lat": "39.54325518726204"
    },
    {
      "id": "pt.ine.add.PTCONT.2075477",
      "street": "R LUIS DE CAMÕES",
      "house": "109",
      "postcode": "2485-139",
      "city": "MIRA DE AIRE",
      "lon": "-8.711433042951986",
      "lat": "39.54325518726204"
    },
    {
      "id": "pt.ine.add.PTCONT.2075478",
      "street": "R LUIS DE CAMÕES",
      "house": "109",
      "postcode": "2485-139",
      "city": "MIRA DE AIRE",
      "lon": "-8.711433042951986",
      "lat": "39.54325518726204"
    },
    {
      "id": "pt.ine.add.PTCONT.2075479",
      "street": "R LUIS DE CAMÕES",
      "house": "109",
      "postcode": "2485-139",
      "city": "MIRA DE AIRE",
      "lon": "-8.711433042951986",
      "lat": "39.54325518726204"
    },
    {
      "id": "pt.ine.add.PTCONT.2075480",
      "street": "R LUIS DE CAMÕES",
      "house": "109",
      "postcode": "2485-139",
      "city": "MIRA DE AIRE",
      "lon": "-8.711433042951986",
      "lat": "39.54325518726204"
    },
    {
      "id": "pt.ine.add.PTCONT.2075481",
      "street": "R LUIS DE CAMÕES",
      "house": "109",
      "postcode": "2485-139",
      "city": "MIRA DE AIRE",
      "lon": "-8.711433042951986",
      "lat": "39.54325518726204"
    },
    {
      "id": "pt.ine.add.PTCONT.2075482",
      "street": "R LUIS DE CAMÕES",
      "house": "109",
      "postcode": "2485-139",
      "city": "MIRA DE AIRE",
      "lon": "-8.711433042951986",
      "lat": "39.54325518726204"
    },
    {
      "id": "pt.ine.add.PTCONT.2075487",
      "street": "R MOITA DO JOANINHO",
      "house": "23",
      "postcode": "2485-020",
      "city": "MIRA DE AIRE",
      "lon": "-8.711017477524647",
      "lat": "39.543644547541184"
    },
    {
      "id": "pt.ine.add.PTCONT.2075694",
      "street": "R MOITA JOANINHO",
      "house": "21",
      "postcode": "2485-020",
      "city": "MIRA DE AIRE",
      "lon": "-8.711017477524647",
      "lat": "39.543644547541184"
    },
    {
      "id": "pt.ine.add.PTCONT.2098935",
      "street": "R 1 DE MAIO",
      "house": "174",
      "postcode": "2485-172",
      "city": "MIRA DE AIRE",
      "lon": "-8.711205993313182",
      "lat": "39.54393182836311"
    },
    {
      "id": "pt.ine.add.PTCONT.2134822",
      "street": "R LUIS DE CAMOES",
      "house": "85",
      "postcode": "2485-139",
      "city": "MIRA DE AIRE",
      "lon": "-8.711641609155924",
      "lat": "39.54315507429275"
    },
    {
      "id": "pt.ine.add.PTCONT.2134823",
      "street": "R LUIS DE CAMOES",
      "house": "85",
      "postcode": "2485-139",
      "city": "MIRA DE AIRE",
      "lon": "-8.711641609155924",
      "lat": "39.54315507429275"
    },
    {
      "id": "pt.ine.add.PTCONT.2134880",
      "street": "R LUIS DE CAMOES",
      "house": "85",
      "postcode": "2485-139",
      "city": "MIRA DE AIRE",
      "lon": "-8.711641609155924",
      "lat": "39.54315507429275"
    },
    {
      "id": "pt.ine.add.PTCONT.2134881",
      "street": "R LUIS DE CAMOES",
      "house": "85",
      "postcode": "2485-139",
      "city": "MIRA DE AIRE",
      "lon": "-8.711641609155924",
      "lat": "39.54315507429275"
    },
    {
      "id": "pt.ine.add.PTCONT.2134882",
      "street": "R LUIS DE CAMOES",
      "house": "85",
      "postcode": "2485-139",
      "city": "MIRA DE AIRE",
      "lon": "-8.711641609155924",
      "lat": "39.54315507429275"
    },
    {
      "id": "pt.ine.add.PTCONT.2134883",
      "street": "R LUIS DE CAMOES",
      "house": "85",
      "postcode": "2485-139",
      "city": "MIRA DE AIRE",
      "lon": "-8.711641609155924",
      "lat": "39.54315507429275"
    },
    {
      "id": "pt.ine.add.PTCONT.2134884",
      "street": "R LUIS DE CAMOES",
      "house": "85",
      "postcode": "2485-139",
      "city": "MIRA DE AIRE",
      "lon": "-8.711641609155924",
      "lat": "39.54315507429275"
    },
    {
      "id": "pt.ine.add.PTCONT.2134885",
      "street": "R LUIS DE CAMOES",
      "house": "85",
      "postcode": "2485-139",
      "city": "MIRA DE AIRE",
      "lon": "-8.711641609155924",
      "lat": "39.54315507429275"
    },
    {
      "id": "pt.ine.add.PTCONT.2134886",
      "street": "R LUIS DE CAMOES",
      "house": "85",
      "postcode": "2485-139",
      "city": "MIRA DE AIRE",
      "lon": "-8.711641609155924",
      "lat": "39.54315507429275"
    },
    {
      "id": "pt.ine.add.PTCONT.2134887",
      "street": "R LUIS CAMOES",
      "house": "133",
      "postcode": "2485-139",
      "city": "MIRA DE AIRE",
      "lon": "-8.711641609155924",
      "lat": "39.54315507429275"
    },
    {
      "id": "pt.ine.add.PTCONT.2134888",
      "street": "R LUIS DE CAMOES",
      "house": "85",
      "postcode": "2485-139",
      "city": "MIRA DE AIRE",
      "lon": "-8.711641609155924",
      "lat": "39.54315507429275"
    },
    {
      "id": "pt.ine.add.PTCONT.2163255",
      "street": "R 1 DE MAIO",
      "house": "144",
      "postcode": "2485-172",
      "city": "MIRA DE AIRE",
      "lon": "-8.711332085758217",
      "lat": "39.54370603062455"
    },
    {
      "id": "pt.ine.add.PTCONT.2167787",
      "street": "R MOITA DO JOANINHO",
      "house": "45",
      "postcode": "2485-020",
      "city": "MIRA DE AIRE",
      "lon": "-8.711053571209566",
      "lat": "39.54378847721948"
    },
    {
      "id": "pt.ine.add.PTCONT.2187245",
      "street": "R 1 DE MAIO",
      "house": "152",
      "postcode": "2485-172",
      "city": "MIRA DE AIRE",
      "lon": "-8.711297785320259",
      "lat": "39.54377825582553"
    },
    {
      "id": "pt.ine.add.PTCONT.2242536",
      "street": "R LUIS DE CAMÕES",
      "house": "133",
      "postcode": "2485-139",
      "city": "MIRA DE AIRE",
      "lon": "-8.711224401415379",
      "lat": "39.54334629340948"
    },
    {
      "id": "pt.ine.add.PTCONT.2242537",
      "street": "R LUIS DE CAMÕES",
      "house": "133",
      "postcode": "2485-139",
      "city": "MIRA DE AIRE",
      "lon": "-8.711224401415379",
      "lat": "39.54334629340948"
    },
    {
      "id": "pt.ine.add.PTCONT.2242538",
      "street": "R LUIS DE CAMÕES",
      "house": "133",
      "postcode": "2485-139",
      "city": "MIRA DE AIRE",
      "lon": "-8.711224401415379",
      "lat": "39.54334629340948"
    },
    {
      "id": "pt.ine.add.PTCONT.2242539",
      "street": "R LUIS DE CAMÕES",
      "house": "133",
      "postcode": "2485-139",
      "city": "MIRA DE AIRE",
      "lon": "-8.711224401415379",
      "lat": "39.54334629340948"
    },
    {
      "id": "pt.ine.add.PTCONT.2242542",
      "street": "R LUIS DE CAMÕES",
      "house": "133",
      "postcode": "2485-139",
      "city": "MIRA DE AIRE",
      "lon": "-8.711224401415379",
      "lat": "39.54334629340948"
    },
    {
      "id": "pt.ine.add.PTCONT.2242543",
      "street": "R LUIS DE CAMÕES",
      "house": "133",
      "postcode": "2485-139",
      "city": "MIRA DE AIRE",
      "lon": "-8.711224401415379",
      "lat": "39.54334629340948"
    },
    {
      "id": "pt.ine.add.PTCONT.2242544",
      "street": "R LUIS DE CAMÕES",
      "house": "133",
      "postcode": "2485-139",
      "city": "MIRA DE AIRE",
      "lon": "-8.711224401415379",
      "lat": "39.54334629340948"
    },
    {
      "id": "pt.ine.add.PTCONT.2242545",
      "street": "R LUIS DE CAMÕES",
      "house": "133",
      "postcode": "2485-139",
      "city": "MIRA DE AIRE",
      "lon": "-8.711224401415379",
      "lat": "39.54334629340948"
    },
    {
      "id": "pt.ine.add.PTCONT.2242546",
      "street": "R LUIS DE CAMÕES",
      "house": "133",
      "postcode": "2485-139",
      "city": "MIRA DE AIRE",
      "lon": "-8.711224401415379",
      "lat": "39.54334629340948"
    },
    {
      "id": "pt.ine.add.PTCONT.2242547",
      "street": "R LUIS DE CAMÕES",
      "house": "133",
      "postcode": "2485-139",
      "city": "MIRA DE AIRE",
      "lon": "-8.711224401415379",
      "lat": "39.54334629340948"
    },
    {
      "id": "pt.ine.add.PTCONT.2242776",
      "street": "R LUIS DE CAMÕES",
      "house": "133",
      "postcode": "2485-139",
      "city": "MIRA DE AIRE",
      "lon": "-8.711224401415379",
      "lat": "39.54334629340948"
    },
    {
      "id": "pt.ine.add.PTCONT.2243571",
      "street": "R 1 DE MAIO",
      "house": "166",
      "postcode": "2485-172",
      "city": "MIRA DE AIRE",
      "lon": "-8.711252076205403",
      "lat": "39.54387755822699"
    },
    {
      "id": "pt.ine.add.PTCONT.2263267",
      "street": "R LUIS DE CAMOES",
      "house": "85",
      "postcode": "2485-139",
      "city": "MIRA DE AIRE",
      "lon": "-8.711641609155924",
      "lat": "39.54315507429275"
    }
  ]
}