{
  "data": {
    "distrito": "Viseu",
    "concelho": "Sernancelhe",
    "freguesia": "Carregal",
    "OBJECTID": 381,
    "BGRI2021": "18180200112",
    "DT21": "18",
    "DTMN21": "1818",
    "DTMNFR21": "181802",
    "DTMNFRSEC21": "181802001",
    "SECNUM21": "001",
    "SSNUM21": "12",
    "SECSSNUM21": "00112",
    "OBJECTID_1": 198088,
    "DT": "18",
    "CC": "18",
    "fr": "02",
    "SEC": "001",
    "SS": "12"
  },
  "addresses": [
    {
      "id": "pt.ine.add.PTCONT.5460794",
      "street": "R BARREIRINHA",
      "house": "",
      "postcode": "3640-030",
      "city": "CARREGAL",
      "lon": "-7.567609726067181",
      "lat": "40.90456823704979"
    },
    {
      "id": "pt.ine.add.PTCONT.5487453",
      "street": "",
      "house": "",
      "postcode": "3640-030",
      "city": "CARREGAL",
      "lon": "-7.575185458933761",
      "lat": "40.89989566370273"
    },
    {
      "id": "pt.ine.add.PTCONT.5491482",
      "street": "R BARREIRINHA",
      "house": "",
      "postcode": "3640-030",
      "city": "CARREGAL",
      "lon": "-7.568966353293617",
      "lat": "40.90553838653252"
    },
    {
      "id": "pt.ine.add.PTCONT.5520981",
      "street": "R BARREIRINHA",
      "house": "",
      "postcode": "3640-030",
      "city": "CARREGAL",
      "lon": "-7.567366561115",
      "lat": "40.9038556713534"
    },
    {
      "id": "pt.ine.add.PTCONT.5550820",
      "street": "ENCERTADA",
      "house": "",
      "postcode": "3640-030",
      "city": "CARREGAL",
      "lon": "-7.572825951723933",
      "lat": "40.89964109719334"
    },
    {
      "id": "pt.ine.add.PTCONT.5581005",
      "street": "R PORTELA",
      "house": "",
      "postcode": "3640-030",
      "city": "CARREGAL",
      "lon": "-7.577586014619764",
      "lat": "40.9051750174225"
    },
    {
      "id": "pt.ine.add.PTCONT.5599514",
      "street": "R CORTES",
      "house": "",
      "postcode": "3640-030",
      "city": "CARREGAL",
      "lon": "-7.569530748817286",
      "lat": "40.906162471762016"
    }
  ]
}