{
  "data": {
    "distrito": "Lisboa",
    "concelho": "Loures",
    "freguesia": "União das freguesias de Santa Iria de Azoia, São João da Talha e Bobadela",
    "OBJECTID": 1805,
    "BGRI2021": "11072802102",
    "DT21": "11",
    "DTMN21": "1107",
    "DTMNFR21": "110728",
    "DTMNFRSEC21": "110728021",
    "SECNUM21": "021",
    "SSNUM21": "02",
    "SECSSNUM21": "02102",
    "OBJECTID_1": 105470,
    "DT": "11",
    "CC": "07",
    "fr": "28",
    "SEC": "021",
    "SS": "02"
  },
  "addresses": [
    {
      "id": "pt.ine.add.PTCONT.3026242",
      "street": "R ALMEIDA GARRETT",
      "house": "50",
      "postcode": "2690-453",
      "city": "SANTA IRIA DE AZÓIA",
      "lon": "-9.079738809949923",
      "lat": "38.84814029592483"
    },
    {
      "id": "pt.ine.add.PTCONT.3026243",
      "street": "R ALMEIDA GARRETT",
      "house": "50",
      "postcode": "2690-453",
      "city": "SANTA IRIA DE AZÓIA",
      "lon": "-9.079738809949923",
      "lat": "38.84814029592483"
    },
    {
      "id": "pt.ine.add.PTCONT.3052224",
      "street": "R RUY LUIS GOMES",
      "house": "14",
      "postcode": "2690-531",
      "city": "SANTA IRIA DE AZÓIA",
      "lon": "-9.079625304325061",
      "lat": "38.848267323940064"
    },
    {
      "id": "pt.ine.add.PTCONT.3052225",
      "street": "R RUY LUIS GOMES",
      "house": "14",
      "postcode": "2690-531",
      "city": "SANTA IRIA DE AZÓIA",
      "lon": "-9.079625304325061",
      "lat": "38.848267323940064"
    },
    {
      "id": "pt.ine.add.PTCONT.3062008",
      "street": "R ANTÓNIO SILVA",
      "house": "57",
      "postcode": "2690-459",
      "city": "SANTA IRIA DE AZÓIA",
      "lon": "-9.080473312185104",
      "lat": "38.847936170647934"
    },
    {
      "id": "pt.ine.add.PTCONT.3127381",
      "street": "R ANTÓNIO SILVA",
      "house": "55",
      "postcode": "2690-459",
      "city": "SANTA IRIA DE AZÓIA",
      "lon": "-9.080188118297212",
      "lat": "38.84814566118056"
    },
    {
      "id": "pt.ine.add.PTCONT.3127382",
      "street": "R ANTÓNIO SILVA",
      "house": "55",
      "postcode": "2690-459",
      "city": "SANTA IRIA DE AZÓIA",
      "lon": "-9.080188118297212",
      "lat": "38.84814566118056"
    },
    {
      "id": "pt.ine.add.PTCONT.3173934",
      "street": "R RUY LUIS GOMES",
      "house": "12",
      "postcode": "2690-531",
      "city": "SANTA IRIA DE AZÓIA",
      "lon": "-9.079800099112173",
      "lat": "38.84841903856309"
    },
    {
      "id": "pt.ine.add.PTCONT.3247958",
      "street": "R ANTÓNIO SILVA",
      "house": "10",
      "postcode": "2690-459",
      "city": "SANTA IRIA DE AZÓIA",
      "lon": "-9.079948515928805",
      "lat": "38.848318750538795"
    },
    {
      "id": "pt.ine.add.PTCONT.3247959",
      "street": "R ANTÓNIO SILVA",
      "house": "10",
      "postcode": "2690-459",
      "city": "SANTA IRIA DE AZÓIA",
      "lon": "-9.079948515928805",
      "lat": "38.848318750538795"
    },
    {
      "id": "pt.ine.add.PTCONT.3311884",
      "street": "R RUY LUIS GOMES",
      "house": "7",
      "postcode": "2690-531",
      "city": "SANTA IRIA DE AZÓIA",
      "lon": "-9.079630476257032",
      "lat": "38.84825219499229"
    },
    {
      "id": "pt.ine.add.PTCONT.3311885",
      "street": "R RUY LUIS GOMES",
      "house": "7",
      "postcode": "2690-531",
      "city": "SANTA IRIA DE AZÓIA",
      "lon": "-9.079630476257032",
      "lat": "38.84825219499229"
    },
    {
      "id": "pt.ine.add.PTCONT.3311886",
      "street": "R RUY LUIS GOMES",
      "house": "7",
      "postcode": "2690-531",
      "city": "SANTA IRIA DE AZÓIA",
      "lon": "-9.079630476257032",
      "lat": "38.84825219499229"
    },
    {
      "id": "pt.ine.add.PTCONT.3454274",
      "street": "R ANTÓNIO SILVA",
      "house": "10",
      "postcode": "2695-011",
      "city": "BOBADELA LRS",
      "lon": "-9.079959794817858",
      "lat": "38.8483006436588"
    },
    {
      "id": "pt.ine.add.PTCONT.2311683",
      "street": "R ALMEIDA GARRETT",
      "house": "48",
      "postcode": "2690-453",
      "city": "SANTA IRIA DE AZÓIA",
      "lon": "-9.080024721610675",
      "lat": "38.84798484700154"
    },
    {
      "id": "pt.ine.add.PTCONT.2311684",
      "street": "R ALMEIDA GARRETT",
      "house": "48",
      "postcode": "2690-453",
      "city": "SANTA IRIA DE AZÓIA",
      "lon": "-9.080024721610675",
      "lat": "38.84798484700154"
    },
    {
      "id": "pt.ine.add.PTCONT.2557406",
      "street": "R ANTÓNIO SILVA",
      "house": "10",
      "postcode": "2695-011",
      "city": "BOBADELA LRS",
      "lon": "-9.079959794817858",
      "lat": "38.8483006436588"
    },
    {
      "id": "pt.ine.add.PTCONT.2735179",
      "street": "R ALMEIDA GARRETT",
      "house": "",
      "postcode": "2690-453",
      "city": "SANTA IRIA DE AZÓIA",
      "lon": "-9.080241526337153",
      "lat": "38.8478299578016"
    },
    {
      "id": "pt.ine.add.PTCONT.2735209",
      "street": "R ALMEIDA GARRETT",
      "house": "",
      "postcode": "2690-453",
      "city": "SANTA IRIA DE AZÓIA",
      "lon": "-9.080241526337153",
      "lat": "38.8478299578016"
    }
  ]
}