{
  "data": {
    "ilha": "Ilha de São Miguel (Açores)",
    "concelho": "Lagoa (Açores)",
    "freguesia": "Lagoa (Santa Cruz)",
    "OBJECTID": 122,
    "BGRI2021": "42010400113",
    "DT21": "42",
    "DTMN21": "4201",
    "DTMNFR21": "420104",
    "DTMNFRSEC21": "420104001",
    "SECNUM21": "001",
    "SSNUM21": "13",
    "SECSSNUM21": "00113",
    "OBJECTID_1": 205936,
    "DT": "42",
    "CC": "01",
    "fr": "04",
    "SEC": "001",
    "SS": "13",
    "BGRI2021_1": "42010400113"
  },
  "addresses": [
    {
      "id": "pt.ine.add.AC26.15028",
      "street": "AV DR GASPAR FRUCTUOSO",
      "house": "2",
      "postcode": "9560-021",
      "city": "LAGOA (SÃO MIGUEL)",
      "lon": "-25.5651006184493",
      "lat": "37.74362113043994"
    },
    {
      "id": "pt.ine.add.AC26.15029",
      "street": "AV DR GASPAR FRUCTUOSO",
      "house": "6",
      "postcode": "9560-021",
      "city": "LAGOA (SÃO MIGUEL)",
      "lon": "-25.564995190414486",
      "lat": "37.74379108568785"
    },
    {
      "id": "pt.ine.add.AC26.15030",
      "street": "R PRACA",
      "house": "",
      "postcode": "9560-065",
      "city": "LAGOA (SÃO MIGUEL)",
      "lon": "-25.564555619328818",
      "lat": "37.743632518446404"
    },
    {
      "id": "pt.ine.add.AC26.15031",
      "street": "TV PRACA",
      "house": "7",
      "postcode": "9560-123",
      "city": "LAGOA (SÃO MIGUEL)",
      "lon": "-25.564555619328818",
      "lat": "37.743632518446404"
    },
    {
      "id": "pt.ine.add.AC26.15032",
      "street": "TV PRAÇA",
      "house": "3B",
      "postcode": "9560-123",
      "city": "LAGOA (SÃO MIGUEL)",
      "lon": "-25.564625441133273",
      "lat": "37.74354324311803"
    },
    {
      "id": "pt.ine.add.AC26.15033",
      "street": "TV PRAÇA",
      "house": "12",
      "postcode": "9560-123",
      "city": "LAGOA (SÃO MIGUEL)",
      "lon": "-25.564705913512796",
      "lat": "37.74349014777496"
    },
    {
      "id": "pt.ine.add.AC26.58734",
      "street": "AV DR GASPAR FRUCTUOSO",
      "house": "4",
      "postcode": "9560-021",
      "city": "LAGOA (SÃO MIGUEL)",
      "lon": "-25.565065011854355",
      "lat": "37.7437018100936"
    },
    {
      "id": "pt.ine.add.AC26.105868",
      "street": "R PRAÇA",
      "house": "14",
      "postcode": "9560-065",
      "city": "LAGOA (SÃO MIGUEL)",
      "lon": "-25.56491210776675",
      "lat": "37.743979338103244"
    }
  ]
}