{
  "data": {
    "distrito": "Castelo Branco",
    "concelho": "Sertã",
    "freguesia": "Várzea dos Cavaleiros",
    "OBJECTID": 377,
    "BGRI2021": "05091400145",
    "DT21": "05",
    "DTMN21": "0509",
    "DTMNFR21": "050914",
    "DTMNFRSEC21": "050914001",
    "SECNUM21": "001",
    "SSNUM21": "45",
    "SECSSNUM21": "00145",
    "OBJECTID_1": 45840,
    "DT": "05",
    "CC": "09",
    "fr": "14",
    "SEC": "001",
    "SS": "45"
  },
  "addresses": [
    {
      "id": "pt.ine.add.PTCONT.957715",
      "street": "R S TIAGO",
      "house": "",
      "postcode": "6100-878",
      "city": "VÁRZEA DOS CAVALEIROS",
      "lon": "-8.026431702225986",
      "lat": "39.8230507157892"
    },
    {
      "id": "pt.ine.add.PTCONT.969209",
      "street": "R LADEIRA",
      "house": "",
      "postcode": "6100-878",
      "city": "VÁRZEA DOS CAVALEIROS",
      "lon": "-8.024337770584786",
      "lat": "39.82504820809223"
    },
    {
      "id": "pt.ine.add.PTCONT.996917",
      "street": "LG OUTEIRO",
      "house": "",
      "postcode": "6100-878",
      "city": "VÁRZEA DOS CAVALEIROS",
      "lon": "-8.025064271372047",
      "lat": "39.8235808323102"
    },
    {
      "id": "pt.ine.add.PTCONT.1014261",
      "street": "R LADEIRA",
      "house": "",
      "postcode": "6100-878",
      "city": "VÁRZEA DOS CAVALEIROS",
      "lon": "-8.025074456674066",
      "lat": "39.82453552763765"
    },
    {
      "id": "pt.ine.add.PTCONT.1031697",
      "street": "R S TIAGO",
      "house": "",
      "postcode": "6100-878",
      "city": "VÁRZEA DOS CAVALEIROS",
      "lon": "-8.026010804852",
      "lat": "39.82331151572513"
    },
    {
      "id": "pt.ine.add.PTCONT.1049787",
      "street": "ESTR PRINCIPAL",
      "house": "",
      "postcode": "6100-878",
      "city": "VÁRZEA DOS CAVALEIROS",
      "lon": "-8.025637804580603",
      "lat": "39.82281581488208"
    },
    {
      "id": "pt.ine.add.PTCONT.1057697",
      "street": "R LADEIRA",
      "house": "",
      "postcode": "6100-878",
      "city": "VÁRZEA DOS CAVALEIROS",
      "lon": "-8.02437321010398",
      "lat": "39.82479606018286"
    },
    {
      "id": "pt.ine.add.PTCONT.1073715",
      "street": "R PRINCIPAL",
      "house": "",
      "postcode": "6100-878",
      "city": "VÁRZEA DOS CAVALEIROS",
      "lon": "-8.025744020506892",
      "lat": "39.822113408342844"
    },
    {
      "id": "pt.ine.add.PTCONT.1073718",
      "street": "R S TIAGO",
      "house": "",
      "postcode": "6100-878",
      "city": "VÁRZEA DOS CAVALEIROS",
      "lon": "-8.026782362005585",
      "lat": "39.82288892116401"
    },
    {
      "id": "pt.ine.add.PTCONT.1078214",
      "street": "ESTR PRINCIPAL",
      "house": "",
      "postcode": "6100-878",
      "city": "VÁRZEA DOS CAVALEIROS",
      "lon": "-8.024854052087756",
      "lat": "39.823562623421516"
    },
    {
      "id": "pt.ine.add.PTCONT.1099606",
      "street": "R LADEIRA",
      "house": "",
      "postcode": "6100-878",
      "city": "VÁRZEA DOS CAVALEIROS",
      "lon": "-8.024992890227491",
      "lat": "39.824409361086964"
    }
  ]
}