{
  "data": {
    "distrito": "Faro",
    "concelho": "Faro",
    "freguesia": "União das freguesias de Conceição e Estoi",
    "OBJECTID": 131,
    "BGRI2021": "08050700403",
    "DT21": "08",
    "DTMN21": "0805",
    "DTMNFR21": "080507",
    "DTMNFRSEC21": "080507004",
    "SECNUM21": "004",
    "SSNUM21": "03",
    "SECSSNUM21": "00403",
    "OBJECTID_1": 66153,
    "DT": "08",
    "CC": "05",
    "fr": "07",
    "SEC": "004",
    "SS": "03"
  },
  "addresses": [
    {
      "id": "pt.ine.add.PTCONT.1586005",
      "street": "R FARO",
      "house": "",
      "postcode": "8005-463",
      "city": "FARO",
      "lon": "-7.901020607397471",
      "lat": "37.094271372491775"
    },
    {
      "id": "pt.ine.add.PTCONT.1585897",
      "street": "R FARO",
      "house": "",
      "postcode": "8005-463",
      "city": "FARO",
      "lon": "-7.901020607397471",
      "lat": "37.094271372491775"
    },
    {
      "id": "pt.ine.add.PTCONT.1585896",
      "street": "R FARO",
      "house": "",
      "postcode": "8005-463",
      "city": "FARO",
      "lon": "-7.901020607397471",
      "lat": "37.094271372491775"
    },
    {
      "id": "pt.ine.add.PTCONT.1585898",
      "street": "R FARO A",
      "house": "A",
      "postcode": "8005-463",
      "city": "FARO",
      "lon": "-7.901020607397471",
      "lat": "37.094271372491775"
    },
    {
      "id": "pt.ine.add.PTCONT.1585899",
      "street": "R FARO",
      "house": "",
      "postcode": "8005-463",
      "city": "FARO",
      "lon": "-7.901020607397471",
      "lat": "37.094271372491775"
    },
    {
      "id": "pt.ine.add.PTCONT.1586006",
      "street": "R FARO A",
      "house": "A",
      "postcode": "8005-463",
      "city": "FARO",
      "lon": "-7.901020607397471",
      "lat": "37.094271372491775"
    },
    {
      "id": "pt.ine.add.PTCONT.1586007",
      "street": "R FARO",
      "house": "",
      "postcode": "8005-463",
      "city": "FARO",
      "lon": "-7.901020607397471",
      "lat": "37.094271372491775"
    },
    {
      "id": "pt.ine.add.PTCONT.1586008",
      "street": "R FARO",
      "house": "",
      "postcode": "8005-463",
      "city": "FARO",
      "lon": "-7.901020607397471",
      "lat": "37.094271372491775"
    },
    {
      "id": "pt.ine.add.PTCONT.1594537",
      "street": "R FARO",
      "house": "",
      "postcode": "8005-463",
      "city": "FARO",
      "lon": "-7.901537973964461",
      "lat": "37.09429040521251"
    },
    {
      "id": "pt.ine.add.PTCONT.1594538",
      "street": "R FARO",
      "house": "",
      "postcode": "8005-463",
      "city": "FARO",
      "lon": "-7.901537973964461",
      "lat": "37.09429040521251"
    },
    {
      "id": "pt.ine.add.PTCONT.1594539",
      "street": "R FARO",
      "house": "",
      "postcode": "8005-463",
      "city": "FARO",
      "lon": "-7.901537973964461",
      "lat": "37.09429040521251"
    },
    {
      "id": "pt.ine.add.PTCONT.1594540",
      "street": "R FARO C",
      "house": "C",
      "postcode": "8005-463",
      "city": "FARO",
      "lon": "-7.901537973964461",
      "lat": "37.09429040521251"
    },
    {
      "id": "pt.ine.add.PTCONT.1594541",
      "street": "R FARO",
      "house": "",
      "postcode": "8005-463",
      "city": "FARO",
      "lon": "-7.901537973964461",
      "lat": "37.09429040521251"
    },
    {
      "id": "pt.ine.add.PTCONT.1594542",
      "street": "R FARO",
      "house": "",
      "postcode": "8005-463",
      "city": "FARO",
      "lon": "-7.901537973964461",
      "lat": "37.09429040521251"
    },
    {
      "id": "pt.ine.add.PTCONT.1594543",
      "street": "R FARO",
      "house": "",
      "postcode": "8005-463",
      "city": "FARO",
      "lon": "-7.901537973964461",
      "lat": "37.09429040521251"
    },
    {
      "id": "pt.ine.add.PTCONT.1640779",
      "street": "R FARO V MILREU",
      "house": "V MILREU",
      "postcode": "8005-463",
      "city": "FARO",
      "lon": "-7.901808097357923",
      "lat": "37.09423686841854"
    },
    {
      "id": "pt.ine.add.PTCONT.1658700",
      "street": "R LAGAR",
      "house": "",
      "postcode": "8005-466",
      "city": "FARO",
      "lon": "-7.901010980526264",
      "lat": "37.09373972467975"
    },
    {
      "id": "pt.ine.add.PTCONT.1658701",
      "street": "R LAGAR",
      "house": "",
      "postcode": "8005-466",
      "city": "FARO",
      "lon": "-7.901010980526264",
      "lat": "37.09373972467975"
    },
    {
      "id": "pt.ine.add.PTCONT.1735508",
      "street": "R LAGAR",
      "house": "",
      "postcode": "8005-466",
      "city": "FARO",
      "lon": "-7.900999430003649",
      "lat": "37.093838819342416"
    },
    {
      "id": "pt.ine.add.PTCONT.1738431",
      "street": "R FARO",
      "house": "",
      "postcode": "8005-463",
      "city": "FARO",
      "lon": "-7.901279290647111",
      "lat": "37.09428088913419"
    },
    {
      "id": "pt.ine.add.PTCONT.1738432",
      "street": "R FARO",
      "house": "",
      "postcode": "8005-463",
      "city": "FARO",
      "lon": "-7.901279290647111",
      "lat": "37.09428088913419"
    },
    {
      "id": "pt.ine.add.PTCONT.1738433",
      "street": "R FARO",
      "house": "",
      "postcode": "8005-463",
      "city": "FARO",
      "lon": "-7.901279290647111",
      "lat": "37.09428088913419"
    },
    {
      "id": "pt.ine.add.PTCONT.1738434",
      "street": "R FARO",
      "house": "",
      "postcode": "8005-463",
      "city": "FARO",
      "lon": "-7.901279290647111",
      "lat": "37.09428088913419"
    },
    {
      "id": "pt.ine.add.PTCONT.1738435",
      "street": "R FARO",
      "house": "",
      "postcode": "8005-463",
      "city": "FARO",
      "lon": "-7.901279290647111",
      "lat": "37.09428088913419"
    },
    {
      "id": "pt.ine.add.PTCONT.1738436",
      "street": "R FARO",
      "house": "",
      "postcode": "8005-463",
      "city": "FARO",
      "lon": "-7.901279290647111",
      "lat": "37.09428088913419"
    },
    {
      "id": "pt.ine.add.PTCONT.1738437",
      "street": "R FARO B",
      "house": "B",
      "postcode": "8005-463",
      "city": "FARO",
      "lon": "-7.901279290647111",
      "lat": "37.09428088913419"
    },
    {
      "id": "pt.ine.add.PTCONT.1738438",
      "street": "R FARO",
      "house": "",
      "postcode": "8005-463",
      "city": "FARO",
      "lon": "-7.901279290647111",
      "lat": "37.09428088913419"
    },
    {
      "id": "pt.ine.add.PTCONT.1763474",
      "street": "R FARO",
      "house": "",
      "postcode": "8005-463",
      "city": "FARO",
      "lon": "-7.901864749501884",
      "lat": "37.09410181899524"
    },
    {
      "id": "pt.ine.add.PTCONT.1840077",
      "street": "R FARO",
      "house": "",
      "postcode": "8005-463",
      "city": "FARO",
      "lon": "-7.901537973964461",
      "lat": "37.09429040521251"
    }
  ]
}