{
  "data": {
    "distrito": "Porto",
    "concelho": "Felgueiras",
    "freguesia": "Idães",
    "OBJECTID": 1014,
    "BGRI2021": "13030600230",
    "DT21": "13",
    "DTMN21": "1303",
    "DTMNFR21": "130306",
    "DTMNFRSEC21": "130306002",
    "SECNUM21": "002",
    "SSNUM21": "30",
    "SECSSNUM21": "00230",
    "OBJECTID_1": 127835,
    "DT": "13",
    "CC": "03",
    "fr": "06",
    "SEC": "002",
    "SS": "30"
  },
  "addresses": [
    {
      "id": "pt.ine.add.PTCONT.3604569",
      "street": "R SUB CARREIRA",
      "house": "608",
      "postcode": "4650-183",
      "city": "IDÃES",
      "lon": "-8.243747777267055",
      "lat": "41.33768264717402"
    },
    {
      "id": "pt.ine.add.PTCONT.3617379",
      "street": "R SUB CARREIRA",
      "house": "352",
      "postcode": "4650-183",
      "city": "IDÃES",
      "lon": "-8.241606835809817",
      "lat": "41.336199007922154"
    },
    {
      "id": "pt.ine.add.PTCONT.3630308",
      "street": "R STA MARIA",
      "house": "",
      "postcode": "4650-139",
      "city": "IDÃES",
      "lon": "-8.242091225612954",
      "lat": "41.340115335233705"
    },
    {
      "id": "pt.ine.add.PTCONT.3635292",
      "street": "R SUB CARREIRA IDAES",
      "house": "IDAES",
      "postcode": "4650-183",
      "city": "IDÃES",
      "lon": "-8.244034759994163",
      "lat": "41.337835440713675"
    },
    {
      "id": "pt.ine.add.PTCONT.3714496",
      "street": "R VALVERDE",
      "house": "",
      "postcode": "4650-187",
      "city": "IDÃES",
      "lon": "-8.244097046816558",
      "lat": "41.339339065796935"
    },
    {
      "id": "pt.ine.add.PTCONT.3721023",
      "street": "R CORREDOURA",
      "house": "2",
      "postcode": "4650-164",
      "city": "IDÃES",
      "lon": "-8.24155265892316",
      "lat": "41.33954858559134"
    },
    {
      "id": "pt.ine.add.PTCONT.3721024",
      "street": "R CORREDOURA",
      "house": "2",
      "postcode": "4650-164",
      "city": "IDÃES",
      "lon": "-8.24155265892316",
      "lat": "41.33954858559134"
    },
    {
      "id": "pt.ine.add.PTCONT.3793280",
      "street": "R SUB CARREIRA",
      "house": "",
      "postcode": "4650-183",
      "city": "IDÃES",
      "lon": "-8.242257569909537",
      "lat": "41.339565927462324"
    },
    {
      "id": "pt.ine.add.PTCONT.3824280",
      "street": "R PATELAS",
      "house": "39",
      "postcode": "4650-171",
      "city": "IDÃES",
      "lon": "-8.238204363458143",
      "lat": "41.33762481367887"
    },
    {
      "id": "pt.ine.add.PTCONT.3998046",
      "street": "R STA MARIA",
      "house": "",
      "postcode": "4650-139",
      "city": "IDÃES",
      "lon": "-8.245364629360077",
      "lat": "41.34003115223158"
    },
    {
      "id": "pt.ine.add.PTCONT.4048944",
      "street": "R S MARIA",
      "house": "2660",
      "postcode": "4650-139",
      "city": "IDÃES",
      "lon": "-8.243513311815931",
      "lat": "41.3403300782907"
    },
    {
      "id": "pt.ine.add.PTCONT.4122502",
      "street": "R STA MARIA",
      "house": "",
      "postcode": "4650-139",
      "city": "IDÃES",
      "lon": "-8.240766120139813",
      "lat": "41.34074686932071"
    },
    {
      "id": "pt.ine.add.PTCONT.4155475",
      "street": "R SUB-CARREIRA",
      "house": "",
      "postcode": "4650-183",
      "city": "IDÃES",
      "lon": "-8.243592834147684",
      "lat": "41.337898894504484"
    },
    {
      "id": "pt.ine.add.PTCONT.4155500",
      "street": "R STA MARIA",
      "house": "",
      "postcode": "4650-139",
      "city": "IDÃES",
      "lon": "-8.241685946717975",
      "lat": "41.34067397246408"
    },
    {
      "id": "pt.ine.add.PTCONT.4174990",
      "street": "R PATELAS",
      "house": "5",
      "postcode": "4650-171",
      "city": "IDÃES",
      "lon": "-8.237905390765142",
      "lat": "41.33743600009126"
    },
    {
      "id": "pt.ine.add.PTCONT.4240480",
      "street": "R VALVERDE",
      "house": "",
      "postcode": "4650-187",
      "city": "IDÃES",
      "lon": "-8.243296636955343",
      "lat": "41.33936684716412"
    },
    {
      "id": "pt.ine.add.PTCONT.4253516",
      "street": "R STA MARIA",
      "house": "",
      "postcode": "4650-139",
      "city": "IDÃES",
      "lon": "-8.242940069450041",
      "lat": "41.34046568824031"
    },
    {
      "id": "pt.ine.add.PTCONT.4253517",
      "street": "R S MARIA",
      "house": "2702",
      "postcode": "4650-139",
      "city": "IDÃES",
      "lon": "-8.242940069450041",
      "lat": "41.34046568824031"
    },
    {
      "id": "pt.ine.add.PTCONT.4266542",
      "street": "R SUB CARREIRA",
      "house": "272",
      "postcode": "4650-183",
      "city": "IDÃES",
      "lon": "-8.241283922171041",
      "lat": "41.335983213310044"
    }
  ]
}