{
  "data": {
    "distrito": "Santarém",
    "concelho": "Tomar",
    "freguesia": "União das freguesias de Além da Ribeira e Pedreira",
    "OBJECTID": 928,
    "BGRI2021": "14181700135",
    "DT21": "14",
    "DTMN21": "1418",
    "DTMNFR21": "141817",
    "DTMNFRSEC21": "141817001",
    "SECNUM21": "001",
    "SSNUM21": "35",
    "SECSSNUM21": "00135",
    "OBJECTID_1": 156869,
    "DT": "14",
    "CC": "18",
    "fr": "17",
    "SEC": "001",
    "SS": "35"
  },
  "addresses": [
    {
      "id": "pt.ine.add.PTCONT.4418881",
      "street": "R POÇO",
      "house": "53",
      "postcode": "2305-023",
      "city": "ALÉM DA RIBEIRA",
      "lon": "-8.415874394757774",
      "lat": "39.69097124497035"
    },
    {
      "id": "pt.ine.add.PTCONT.4420920",
      "street": "R CASAS VELHAS",
      "house": "10",
      "postcode": "2305-014",
      "city": "ALÉM DA RIBEIRA",
      "lon": "-8.410536688449653",
      "lat": "39.69138941956456"
    },
    {
      "id": "pt.ine.add.PTCONT.4447705",
      "street": "R CASAS VELHAS",
      "house": "11",
      "postcode": "2305-014",
      "city": "ALÉM DA RIBEIRA",
      "lon": "-8.413640156904732",
      "lat": "39.69198540979384"
    },
    {
      "id": "pt.ine.add.PTCONT.4447706",
      "street": "R CASAS VELHAS",
      "house": "12",
      "postcode": "2305-014",
      "city": "ALÉM DA RIBEIRA",
      "lon": "-8.413640156904732",
      "lat": "39.69198540979384"
    },
    {
      "id": "pt.ine.add.PTCONT.4451862",
      "street": "R CASAS VELHAS",
      "house": "5A",
      "postcode": "2305-014",
      "city": "ALÉM DA RIBEIRA",
      "lon": "-8.411459442365627",
      "lat": "39.691828537672585"
    },
    {
      "id": "pt.ine.add.PTCONT.4455120",
      "street": "R POÇO",
      "house": "",
      "postcode": "2305-023",
      "city": "ALÉM DA RIBEIRA",
      "lon": "-8.414416021566257",
      "lat": "39.69069558055167"
    },
    {
      "id": "pt.ine.add.PTCONT.4501944",
      "street": "R CASAS VELHAS",
      "house": "3E",
      "postcode": "2305-014",
      "city": "ALÉM DA RIBEIRA",
      "lon": "-8.41109753651925",
      "lat": "39.69170331138164"
    },
    {
      "id": "pt.ine.add.PTCONT.4512735",
      "street": "R CASAS VELHAS",
      "house": "3A",
      "postcode": "2305-014",
      "city": "ALÉM DA RIBEIRA",
      "lon": "-8.410395675496979",
      "lat": "39.691110549906284"
    },
    {
      "id": "pt.ine.add.PTCONT.4528572",
      "street": "R PRINCIPAL",
      "house": "",
      "postcode": "2305-014",
      "city": "ALÉM DA RIBEIRA",
      "lon": "-8.412591328088585",
      "lat": "39.69208701208511"
    },
    {
      "id": "pt.ine.add.PTCONT.4530204",
      "street": "R POÇO",
      "house": "15",
      "postcode": "2305-023",
      "city": "ALÉM DA RIBEIRA",
      "lon": "-8.41469581053851",
      "lat": "39.69069490243061"
    },
    {
      "id": "pt.ine.add.PTCONT.4567902",
      "street": "R ENCOSTA",
      "house": "2B",
      "postcode": "2305-014",
      "city": "ALÉM DA RIBEIRA",
      "lon": "-8.410614580130233",
      "lat": "39.69046154740409"
    }
  ]
}