{
  "data": {
    "distrito": "Vila Real",
    "concelho": "Vila Real",
    "freguesia": "Lordelo",
    "OBJECTID": 741,
    "BGRI2021": "17141400204",
    "DT21": "17",
    "DTMN21": "1714",
    "DTMNFR21": "171414",
    "DTMNFRSEC21": "171414002",
    "SECNUM21": "002",
    "SSNUM21": "04",
    "SECSSNUM21": "00204",
    "OBJECTID_1": 187708,
    "DT": "17",
    "CC": "14",
    "fr": "14",
    "SEC": "002",
    "SS": "04"
  },
  "addresses": [
    {
      "id": "pt.ine.add.PTCONT.5287280",
      "street": "R CIDADE DE VILA REAL",
      "house": "",
      "postcode": "5000-174",
      "city": "VILA REAL",
      "lon": "-7.755707298601535",
      "lat": "41.304819343506054"
    },
    {
      "id": "pt.ine.add.PTCONT.5290296",
      "street": "PTE PETISQUEIRA",
      "house": "",
      "postcode": "5000-174",
      "city": "VILA REAL",
      "lon": "-7.755468227760177",
      "lat": "41.30486358011161"
    },
    {
      "id": "pt.ine.add.PTCONT.5291472",
      "street": "URB S LOURENÇO",
      "house": "",
      "postcode": "5000-179",
      "city": "VILA REAL",
      "lon": "-7.756556192476256",
      "lat": "41.306703986872336"
    },
    {
      "id": "pt.ine.add.PTCONT.5291473",
      "street": "PTE PETISQUEIRA",
      "house": "",
      "postcode": "5000-174",
      "city": "VILA REAL",
      "lon": "-7.755336154034286",
      "lat": "41.30498920459854"
    },
    {
      "id": "pt.ine.add.PTCONT.5294447",
      "street": "URB S LOURENÇO",
      "house": "",
      "postcode": "5000-179",
      "city": "VILA REAL",
      "lon": "-7.756450745222614",
      "lat": "41.30635248082757"
    },
    {
      "id": "pt.ine.add.PTCONT.5294448",
      "street": "URB S LOURENÇO",
      "house": "",
      "postcode": "5000-179",
      "city": "VILA REAL",
      "lon": "-7.756450745222614",
      "lat": "41.30635248082757"
    },
    {
      "id": "pt.ine.add.PTCONT.5312310",
      "street": "R CIDADE DE VILA REAL",
      "house": "8",
      "postcode": "5000-174",
      "city": "VILA REAL",
      "lon": "-7.756054767668671",
      "lat": "41.30461338713224"
    },
    {
      "id": "pt.ine.add.PTCONT.5313280",
      "street": "R CIDADE",
      "house": "9",
      "postcode": "5000-174",
      "city": "VILA REAL",
      "lon": "-7.756138247583914",
      "lat": "41.30463166880844"
    },
    {
      "id": "pt.ine.add.PTCONT.5318274",
      "street": "URB S LOURENCO LUA",
      "house": "LUA",
      "postcode": "5000-179",
      "city": "VILA REAL",
      "lon": "-7.756004619367599",
      "lat": "41.30502741294303"
    },
    {
      "id": "pt.ine.add.PTCONT.5318275",
      "street": "URB S LOURENCO",
      "house": "2 LUA",
      "postcode": "5000-179",
      "city": "VILA REAL",
      "lon": "-7.756004619367599",
      "lat": "41.30502741294303"
    },
    {
      "id": "pt.ine.add.PTCONT.5318276",
      "street": "URB S LOURENCO",
      "house": "",
      "postcode": "5000-179",
      "city": "VILA REAL",
      "lon": "-7.756004619367599",
      "lat": "41.30502741294303"
    },
    {
      "id": "pt.ine.add.PTCONT.5318277",
      "street": "URB S LOURENCO LUA",
      "house": "LUA 21",
      "postcode": "5000-179",
      "city": "VILA REAL",
      "lon": "-7.756004619367599",
      "lat": "41.30502741294303"
    },
    {
      "id": "pt.ine.add.PTCONT.5318278",
      "street": "URB S LOURENÇO LUA",
      "house": "",
      "postcode": "5000-179",
      "city": "VILA REAL",
      "lon": "-7.756004619367599",
      "lat": "41.30502741294303"
    },
    {
      "id": "pt.ine.add.PTCONT.5318279",
      "street": "R ALENTEJO",
      "house": "32",
      "postcode": "5000-547",
      "city": "VILA REAL",
      "lon": "-7.756004619367599",
      "lat": "41.30502741294303"
    },
    {
      "id": "pt.ine.add.PTCONT.5318462",
      "street": "URB S LOURENCO",
      "house": "",
      "postcode": "5000-179",
      "city": "VILA REAL",
      "lon": "-7.756004619367599",
      "lat": "41.30502741294303"
    },
    {
      "id": "pt.ine.add.PTCONT.5318795",
      "street": "URB S LOURENCO PLUTAO",
      "house": "PLUTAO",
      "postcode": "5000-179",
      "city": "VILA REAL",
      "lon": "-7.755706104536425",
      "lat": "41.3050264346287"
    },
    {
      "id": "pt.ine.add.PTCONT.5318796",
      "street": "URB S LOURENCO PLUTAO",
      "house": "PLUTAO",
      "postcode": "5000-179",
      "city": "VILA REAL",
      "lon": "-7.755706104536425",
      "lat": "41.3050264346287"
    },
    {
      "id": "pt.ine.add.PTCONT.5318797",
      "street": "URB S LOURENCO PLUTAO",
      "house": "PLUTAO 12",
      "postcode": "5000-179",
      "city": "VILA REAL",
      "lon": "-7.755706104536425",
      "lat": "41.3050264346287"
    },
    {
      "id": "pt.ine.add.PTCONT.5318798",
      "street": "URB S LOURENCO PLUTAO",
      "house": "PLUTAO",
      "postcode": "5000-179",
      "city": "VILA REAL",
      "lon": "-7.755706104536425",
      "lat": "41.3050264346287"
    },
    {
      "id": "pt.ine.add.PTCONT.5318799",
      "street": "URB S LOURENCO",
      "house": "",
      "postcode": "5000-179",
      "city": "VILA REAL",
      "lon": "-7.755706104536425",
      "lat": "41.3050264346287"
    },
    {
      "id": "pt.ine.add.PTCONT.5318800",
      "street": "URB S LOURENCO PLUTAO",
      "house": "PLUTAO 32",
      "postcode": "5000-179",
      "city": "VILA REAL",
      "lon": "-7.755706104536425",
      "lat": "41.3050264346287"
    },
    {
      "id": "pt.ine.add.PTCONT.5319451",
      "street": "URB S LOURENCO PLUTAO",
      "house": "PLUTAO",
      "postcode": "5000-179",
      "city": "VILA REAL",
      "lon": "-7.755706104536425",
      "lat": "41.3050264346287"
    },
    {
      "id": "pt.ine.add.PTCONT.5319626",
      "street": "URB S LOURENÇO",
      "house": "",
      "postcode": "5000-179",
      "city": "VILA REAL",
      "lon": "-7.7562748467692035",
      "lat": "41.30579364905125"
    },
    {
      "id": "pt.ine.add.PTCONT.5326212",
      "street": "R PONTE DA PETISQUEIRA",
      "house": "",
      "postcode": "5000-174",
      "city": "VILA REAL",
      "lon": "-7.755382461476692",
      "lat": "41.3052414722483"
    },
    {
      "id": "pt.ine.add.PTCONT.5346957",
      "street": "URB S LOURENÇO",
      "house": "",
      "postcode": "5000-179",
      "city": "VILA REAL",
      "lon": "-7.7563922848208575",
      "lat": "41.30613619040116"
    },
    {
      "id": "pt.ine.add.PTCONT.5348479",
      "street": "VL REAL",
      "house": "4",
      "postcode": "5000-174",
      "city": "VILA REAL",
      "lon": "-7.755959139763575",
      "lat": "41.30463108212523"
    },
    {
      "id": "pt.ine.add.PTCONT.5365697",
      "street": "R PONTE DA PETISQUEIRA",
      "house": "",
      "postcode": "5000-174",
      "city": "VILA REAL",
      "lon": "-7.755359307711762",
      "lat": "41.30511533842693"
    },
    {
      "id": "pt.ine.add.PTCONT.5385576",
      "street": "R CIDADE DE VILA REAL",
      "house": "11",
      "postcode": "5000-174",
      "city": "VILA REAL",
      "lon": "-7.756341184625289",
      "lat": "41.30464133734217"
    },
    {
      "id": "pt.ine.add.PTCONT.5388775",
      "street": "URB S LOURENCO SOL",
      "house": "SOL 1",
      "postcode": "5000-179",
      "city": "VILA REAL",
      "lon": "-7.756291297290658",
      "lat": "41.30501034347187"
    },
    {
      "id": "pt.ine.add.PTCONT.5388776",
      "street": "URB S LOURENCO SOL",
      "house": "SOL",
      "postcode": "5000-179",
      "city": "VILA REAL",
      "lon": "-7.756291297290658",
      "lat": "41.30501034347187"
    },
    {
      "id": "pt.ine.add.PTCONT.5388777",
      "street": "URB S LOURENCO",
      "house": "",
      "postcode": "5000-179",
      "city": "VILA REAL",
      "lon": "-7.756291297290658",
      "lat": "41.30501034347187"
    },
    {
      "id": "pt.ine.add.PTCONT.5388778",
      "street": "URB S LOURENCO SOL",
      "house": "SOL 12",
      "postcode": "5000-179",
      "city": "VILA REAL",
      "lon": "-7.756291297290658",
      "lat": "41.30501034347187"
    },
    {
      "id": "pt.ine.add.PTCONT.5388779",
      "street": "URB S LOURENCO",
      "house": "",
      "postcode": "5000-179",
      "city": "VILA REAL",
      "lon": "-7.756291297290658",
      "lat": "41.30501034347187"
    },
    {
      "id": "pt.ine.add.PTCONT.5388780",
      "street": "URB S LOURENCO SOL",
      "house": "SOL",
      "postcode": "5000-179",
      "city": "VILA REAL",
      "lon": "-7.756291297290658",
      "lat": "41.30501034347187"
    },
    {
      "id": "pt.ine.add.PTCONT.5388781",
      "street": "URB S LOURENCO SOL",
      "house": "SOL",
      "postcode": "5000-179",
      "city": "VILA REAL",
      "lon": "-7.756291297290658",
      "lat": "41.30501034347187"
    },
    {
      "id": "pt.ine.add.PTCONT.5388799",
      "street": "URB S LOURENCO SOL",
      "house": "SOL",
      "postcode": "5000-179",
      "city": "VILA REAL",
      "lon": "-7.756291297290658",
      "lat": "41.30501034347187"
    },
    {
      "id": "pt.ine.add.PTCONT.5393146",
      "street": "R CIDADE DE VILA REAL",
      "house": "10",
      "postcode": "5000-174",
      "city": "VILA REAL",
      "lon": "-7.756257704639956",
      "lat": "41.304623055812876"
    },
    {
      "id": "pt.ine.add.PTCONT.5398401",
      "street": "URB S LOURENÇO",
      "house": "",
      "postcode": "5000-179",
      "city": "VILA REAL",
      "lon": "-7.756333410148211",
      "lat": "41.30599193162561"
    },
    {
      "id": "pt.ine.add.PTCONT.5398402",
      "street": "URB S LOURENÇO",
      "house": "",
      "postcode": "5000-179",
      "city": "VILA REAL",
      "lon": "-7.756333410148211",
      "lat": "41.30599193162561"
    },
    {
      "id": "pt.ine.add.PTCONT.5400598",
      "street": "VL REAL",
      "house": "1",
      "postcode": "5000-174",
      "city": "VILA REAL",
      "lon": "-7.755409719945653",
      "lat": "41.30465629311166"
    },
    {
      "id": "pt.ine.add.PTCONT.5401976",
      "street": "URB S LOURENÇO",
      "house": "14",
      "postcode": "5000-179",
      "city": "VILA REAL",
      "lon": "-7.75649742056047",
      "lat": "41.30654172027092"
    },
    {
      "id": "pt.ine.add.PTCONT.5409071",
      "street": "R CIDADE DE VILA REAL",
      "house": "12",
      "postcode": "5000-174",
      "city": "VILA REAL",
      "lon": "-7.756460589862214",
      "lat": "41.30464172809906"
    },
    {
      "id": "pt.ine.add.PTCONT.5425997",
      "street": "URB S LOURENCO PLUTAO",
      "house": "PLUTAO 21",
      "postcode": "5000-179",
      "city": "VILA REAL",
      "lon": "-7.755706104536425",
      "lat": "41.3050264346287"
    },
    {
      "id": "pt.ine.add.PTCONT.5426927",
      "street": "URB S LOURENCO LUA",
      "house": "LUA 22",
      "postcode": "5000-179",
      "city": "VILA REAL",
      "lon": "-7.756004619367599",
      "lat": "41.30502741294303"
    }
  ]
}