{
  "data": {
    "distrito": "Faro",
    "concelho": "Faro",
    "freguesia": "União das freguesias de Faro (Sé e São Pedro)",
    "OBJECTID": 109,
    "BGRI2021": "08050800503",
    "DT21": "08",
    "DTMN21": "0805",
    "DTMNFR21": "080508",
    "DTMNFRSEC21": "080508005",
    "SECNUM21": "005",
    "SSNUM21": "03",
    "SECSSNUM21": "00503",
    "OBJECTID_1": 66309,
    "DT": "08",
    "CC": "05",
    "fr": "08",
    "SEC": "005",
    "SS": "03"
  },
  "addresses": [
    {
      "id": "pt.ine.add.PTCONT.1487295",
      "street": "R D DIOGO MENDONCA CORTE REAL",
      "house": "22",
      "postcode": "8000-305",
      "city": "FARO",
      "lon": "-7.935468940717078",
      "lat": "37.022662519425026"
    },
    {
      "id": "pt.ine.add.PTCONT.1487297",
      "street": "R FREDERICO LECOR",
      "house": "31",
      "postcode": "8000-346",
      "city": "FARO",
      "lon": "-7.935424316564068",
      "lat": "37.02253629425266"
    },
    {
      "id": "pt.ine.add.PTCONT.1489072",
      "street": "R FREDERICO LECOR",
      "house": "35",
      "postcode": "8000-346",
      "city": "FARO",
      "lon": "-7.935468940717078",
      "lat": "37.022662519425026"
    },
    {
      "id": "pt.ine.add.PTCONT.1540271",
      "street": "R D DIOGO DE MENDONÇA CORTE-REAL",
      "house": "22",
      "postcode": "8000-305",
      "city": "FARO",
      "lon": "-7.9356489079697425",
      "lat": "37.02259974358718"
    },
    {
      "id": "pt.ine.add.PTCONT.1618867",
      "street": "R S GONÇALO DE LAGOS",
      "house": "1",
      "postcode": "8000-429",
      "city": "FARO",
      "lon": "-7.935525946173802",
      "lat": "37.02234723722918"
    },
    {
      "id": "pt.ine.add.PTCONT.1641853",
      "street": "R D DIOGO DE MENDONÇA CORTE-REAL",
      "house": "16",
      "postcode": "8000-305",
      "city": "FARO",
      "lon": "-7.9358626114194",
      "lat": "37.02252801277831"
    },
    {
      "id": "pt.ine.add.PTCONT.1641854",
      "street": "R D DIOGO DE MENDONÇA CORTE-REAL",
      "house": "16",
      "postcode": "8000-305",
      "city": "FARO",
      "lon": "-7.9358626114194",
      "lat": "37.02252801277831"
    },
    {
      "id": "pt.ine.add.PTCONT.1641855",
      "street": "R D DIOGO DE MENDONÇA CORTE-REAL",
      "house": "16",
      "postcode": "8000-305",
      "city": "FARO",
      "lon": "-7.9358626114194",
      "lat": "37.02252801277831"
    },
    {
      "id": "pt.ine.add.PTCONT.1687155",
      "street": "R CERCADO",
      "house": "14",
      "postcode": "8000-298",
      "city": "FARO",
      "lon": "-7.935941648101367",
      "lat": "37.02238397171903"
    },
    {
      "id": "pt.ine.add.PTCONT.1687156",
      "street": "R CERCADO",
      "house": "16",
      "postcode": "8000-298",
      "city": "FARO",
      "lon": "-7.935941648101367",
      "lat": "37.02238397171903"
    },
    {
      "id": "pt.ine.add.PTCONT.1727222",
      "street": "R FREDERICO LECOR",
      "house": "27",
      "postcode": "8000-346",
      "city": "FARO",
      "lon": "-7.9353795057454075",
      "lat": "37.02248215494947"
    },
    {
      "id": "pt.ine.add.PTCONT.1731939",
      "street": "R S GONCALO LAGOS",
      "house": "1",
      "postcode": "8000-429",
      "city": "FARO",
      "lon": "-7.935390953621518",
      "lat": "37.022401077048585"
    },
    {
      "id": "pt.ine.add.PTCONT.1735601",
      "street": "R FREDERICO LECOR",
      "house": "33",
      "postcode": "8000-346",
      "city": "FARO",
      "lon": "-7.935435390880796",
      "lat": "37.022599388123005"
    },
    {
      "id": "pt.ine.add.PTCONT.1735604",
      "street": "R FREDERICO LECOR",
      "house": "33",
      "postcode": "8000-346",
      "city": "FARO",
      "lon": "-7.935435390880796",
      "lat": "37.022599388123005"
    },
    {
      "id": "pt.ine.add.PTCONT.1757076",
      "street": "R CERCADO",
      "house": "12",
      "postcode": "8000-298",
      "city": "FARO",
      "lon": "-7.935896813713319",
      "lat": "37.02233884334546"
    },
    {
      "id": "pt.ine.add.PTCONT.1757077",
      "street": "R CERCADO",
      "house": "10",
      "postcode": "8000-298",
      "city": "FARO",
      "lon": "-7.935896813713319",
      "lat": "37.02233884334546"
    },
    {
      "id": "pt.ine.add.PTCONT.1763911",
      "street": "R D DIOGO DE MENDONCA CORTE-REAL",
      "house": "18",
      "postcode": "8000-305",
      "city": "FARO",
      "lon": "-7.935783900693482",
      "lat": "37.02254590347662"
    },
    {
      "id": "pt.ine.add.PTCONT.1765418",
      "street": "R D DIOGO MENDONCA CORTE REAL",
      "house": "18 A",
      "postcode": "8000-305",
      "city": "FARO",
      "lon": "-7.935783900693482",
      "lat": "37.02254590347662"
    },
    {
      "id": "pt.ine.add.PTCONT.1813379",
      "street": "R D DIOGO DE MENDONÇA CORTE-REAL",
      "house": "12",
      "postcode": "8000-305",
      "city": "FARO",
      "lon": "-7.935975174982068",
      "lat": "37.02245611361751"
    },
    {
      "id": "pt.ine.add.PTCONT.1813380",
      "street": "R D DIOGO DE MENDONÇA CORTE-REAL",
      "house": "12",
      "postcode": "8000-305",
      "city": "FARO",
      "lon": "-7.935975174982068",
      "lat": "37.02245611361751"
    },
    {
      "id": "pt.ine.add.PTCONT.1813381",
      "street": "R D DIOGO DE MENDONÇA CORTE-REAL",
      "house": "12",
      "postcode": "8000-305",
      "city": "FARO",
      "lon": "-7.935975174982068",
      "lat": "37.02245611361751"
    },
    {
      "id": "pt.ine.add.PTCONT.1827873",
      "street": "R CERCADO",
      "house": "8",
      "postcode": "8000-298",
      "city": "FARO",
      "lon": "-7.935818406085776",
      "lat": "37.02223959449322"
    },
    {
      "id": "pt.ine.add.PTCONT.1827874",
      "street": "R CERCADO",
      "house": "8",
      "postcode": "8000-298",
      "city": "FARO",
      "lon": "-7.935818406085776",
      "lat": "37.02223959449322"
    },
    {
      "id": "pt.ine.add.PTCONT.1827875",
      "street": "R CERCADO",
      "house": "8",
      "postcode": "8000-298",
      "city": "FARO",
      "lon": "-7.935818406085776",
      "lat": "37.02223959449322"
    },
    {
      "id": "pt.ine.add.PTCONT.1827876",
      "street": "R CERCADO",
      "house": "8",
      "postcode": "8000-298",
      "city": "FARO",
      "lon": "-7.935818406085776",
      "lat": "37.02223959449322"
    },
    {
      "id": "pt.ine.add.PTCONT.1827877",
      "street": "R CERCADO",
      "house": "8",
      "postcode": "8000-298",
      "city": "FARO",
      "lon": "-7.935818406085776",
      "lat": "37.02223959449322"
    },
    {
      "id": "pt.ine.add.PTCONT.1827878",
      "street": "R CERCADO",
      "house": "8",
      "postcode": "8000-298",
      "city": "FARO",
      "lon": "-7.935818406085776",
      "lat": "37.02223959449322"
    }
  ]
}