{
  "data": {
    "distrito": "Beja",
    "concelho": "Castro Verde",
    "freguesia": "União das freguesias de Castro Verde e Casével",
    "OBJECTID": 170,
    "BGRI2021": "02060600318",
    "DT21": "02",
    "DTMN21": "0206",
    "DTMNFR21": "020606",
    "DTMNFRSEC21": "020606003",
    "SECNUM21": "003",
    "SSNUM21": "18",
    "SECSSNUM21": "00318",
    "OBJECTID_1": 14391,
    "DT": "02",
    "CC": "06",
    "fr": "06",
    "SEC": "003",
    "SS": "18"
  },
  "addresses": [
    {
      "id": "pt.ine.add.PTCONT.456171",
      "street": "HORTA DE CIMA",
      "house": "",
      "postcode": "7780-094",
      "city": "CASTRO VERDE",
      "lon": "-8.149903845189064",
      "lat": "37.70906576514753"
    },
    {
      "id": "pt.ine.add.PTCONT.357154",
      "street": "MTE COSTA",
      "house": "",
      "postcode": "7780-254",
      "city": "CASTRO VERDE",
      "lon": "-8.127947800444916",
      "lat": "37.71677017218205"
    },
    {
      "id": "pt.ine.add.PTCONT.370329",
      "street": "GARROCHAL",
      "house": "",
      "postcode": "7780-094",
      "city": "CASTRO VERDE",
      "lon": "-8.139696367892467",
      "lat": "37.699047936499475"
    },
    {
      "id": "pt.ine.add.PTCONT.382696",
      "street": "GARROCHAL",
      "house": "",
      "postcode": "7780-094",
      "city": "CASTRO VERDE",
      "lon": "-8.139730378069713",
      "lat": "37.698966846784344"
    },
    {
      "id": "pt.ine.add.PTCONT.392246",
      "street": "GARROCHAL",
      "house": "",
      "postcode": "7780-094",
      "city": "CASTRO VERDE",
      "lon": "-8.139673695988924",
      "lat": "37.69912001581642"
    },
    {
      "id": "pt.ine.add.PTCONT.396369",
      "street": "GREGORIOS",
      "house": "",
      "postcode": "7780-254",
      "city": "CASTRO VERDE",
      "lon": "-8.122549420345964",
      "lat": "37.714436291914744"
    },
    {
      "id": "pt.ine.add.PTCONT.422407",
      "street": "MTE NOVO DA AZINHEIRA",
      "house": "",
      "postcode": "7780-094",
      "city": "CASTRO VERDE",
      "lon": "-8.149609413660263",
      "lat": "37.71098488128022"
    },
    {
      "id": "pt.ine.add.PTCONT.436846",
      "street": "GARROCHAL",
      "house": "",
      "postcode": "7780-094",
      "city": "CASTRO VERDE",
      "lon": "-8.139775729698846",
      "lat": "37.69891278568812"
    },
    {
      "id": "pt.ine.add.PTCONT.441713",
      "street": "GREGORIOS",
      "house": "",
      "postcode": "7780-254",
      "city": "CASTRO VERDE",
      "lon": "-8.122560740108167",
      "lat": "37.714589458387245"
    },
    {
      "id": "pt.ine.add.PTCONT.447363",
      "street": "BICADAS",
      "house": "",
      "postcode": "7780-254",
      "city": "CASTRO VERDE",
      "lon": "-8.132983564690276",
      "lat": "37.72184276056412"
    },
    {
      "id": "pt.ine.add.PTCONT.453024",
      "street": "GREGORIOS",
      "house": "",
      "postcode": "7780-254",
      "city": "CASTRO VERDE",
      "lon": "-8.12256072095006",
      "lat": "37.71472460437571"
    }
  ]
}