{
  "data": {
    "distrito": "Castelo Branco",
    "concelho": "Fundão",
    "freguesia": "União das freguesias de Fundão, Valverde, Donas, Aldeia de Joanes e Aldeia Nova do Cabo",
    "OBJECTID": 399,
    "BGRI2021": "05043401216",
    "DT21": "05",
    "DTMN21": "0504",
    "DTMNFR21": "050434",
    "DTMNFRSEC21": "050434012",
    "SECNUM21": "012",
    "SSNUM21": "16",
    "SECSSNUM21": "01216",
    "OBJECTID_1": 43221,
    "DT": "05",
    "CC": "04",
    "fr": "34",
    "SEC": "012",
    "SS": "16"
  },
  "addresses": [
    {
      "id": "pt.ine.add.PTCONT.971767",
      "street": "QTA PISSARRAS",
      "house": "",
      "postcode": "6230-804",
      "city": "VALVERDE FND",
      "lon": "-7.473391141481918",
      "lat": "40.15551304528181"
    },
    {
      "id": "pt.ine.add.PTCONT.975021",
      "street": "R S SEBASTIÃO",
      "house": "",
      "postcode": "6230-804",
      "city": "VALVERDE FND",
      "lon": "-7.474882436613275",
      "lat": "40.15665627010803"
    },
    {
      "id": "pt.ine.add.PTCONT.980093",
      "street": "EN 343",
      "house": "39",
      "postcode": "6230-804",
      "city": "VALVERDE FND",
      "lon": "-7.473340448785523",
      "lat": "40.15226164200441"
    },
    {
      "id": "pt.ine.add.PTCONT.987855",
      "street": "QTA PICARRAS",
      "house": "",
      "postcode": "6230-804",
      "city": "VALVERDE FND",
      "lon": "-7.474212075664681",
      "lat": "40.155580760704986"
    },
    {
      "id": "pt.ine.add.PTCONT.995874",
      "street": "R S DOMINGOS",
      "house": "7",
      "postcode": "6230-804",
      "city": "VALVERDE FND",
      "lon": "-7.473553123358229",
      "lat": "40.15454133568311"
    },
    {
      "id": "pt.ine.add.PTCONT.996546",
      "street": "R S SEBASTIÃO",
      "house": "5",
      "postcode": "6230-804",
      "city": "VALVERDE FND",
      "lon": "-7.473360870368515",
      "lat": "40.152576963443636"
    },
    {
      "id": "pt.ine.add.PTCONT.1009021",
      "street": "R S SEBASTIAO",
      "house": "26",
      "postcode": "6230-804",
      "city": "VALVERDE FND",
      "lon": "-7.473837249955381",
      "lat": "40.15307499900166"
    },
    {
      "id": "pt.ine.add.PTCONT.1012324",
      "street": "R FONTE DA CALE",
      "house": "2",
      "postcode": "6230-804",
      "city": "VALVERDE FND",
      "lon": "-7.473609500507976",
      "lat": "40.152353233324725"
    },
    {
      "id": "pt.ine.add.PTCONT.1029434",
      "street": "R S SEBASTIÃO",
      "house": "3",
      "postcode": "6230-804",
      "city": "VALVERDE FND",
      "lon": "-7.473326795794126",
      "lat": "40.152459693119354"
    },
    {
      "id": "pt.ine.add.PTCONT.1029435",
      "street": "R S SEBASTIÃO",
      "house": "3",
      "postcode": "6230-804",
      "city": "VALVERDE FND",
      "lon": "-7.473326795794126",
      "lat": "40.152459693119354"
    },
    {
      "id": "pt.ine.add.PTCONT.1043696",
      "street": "SIT LEIXADO",
      "house": "",
      "postcode": "6230-804",
      "city": "VALVERDE FND",
      "lon": "-7.481700407883483",
      "lat": "40.153110496277804"
    },
    {
      "id": "pt.ine.add.PTCONT.1044887",
      "street": "R S SEBASTIÃO",
      "house": "7",
      "postcode": "6230-804",
      "city": "VALVERDE FND",
      "lon": "-7.473465621536428",
      "lat": "40.15266761883456"
    },
    {
      "id": "pt.ine.add.PTCONT.1053259",
      "street": "R S SEBASTIAO",
      "house": "11",
      "postcode": "6230-804",
      "city": "VALVERDE FND",
      "lon": "-7.473555500885943",
      "lat": "40.15308240033409"
    },
    {
      "id": "pt.ine.add.PTCONT.1057774",
      "street": "CAM S DOMINGOS",
      "house": "9",
      "postcode": "6230-804",
      "city": "VALVERDE FND",
      "lon": "-7.473504523225513",
      "lat": "40.154712170104325"
    },
    {
      "id": "pt.ine.add.PTCONT.1062520",
      "street": "R CHAFARIZ VELHO",
      "house": "",
      "postcode": "6230-804",
      "city": "VALVERDE FND",
      "lon": "-7.473322844842487",
      "lat": "40.154080725067956"
    },
    {
      "id": "pt.ine.add.PTCONT.1085116",
      "street": "R FONTE DA CALE",
      "house": "4",
      "postcode": "6230-804",
      "city": "VALVERDE FND",
      "lon": "-7.473679131351602",
      "lat": "40.152434682629575"
    },
    {
      "id": "pt.ine.add.PTCONT.1098602",
      "street": "R S SEBASTIÃO",
      "house": "1",
      "postcode": "6230-804",
      "city": "VALVERDE FND",
      "lon": "-7.4733513131303235",
      "lat": "40.1523517625042"
    }
  ]
}