{
  "data": {
    "distrito": "Faro",
    "concelho": "Loulé",
    "freguesia": "Almancil",
    "OBJECTID": 537,
    "BGRI2021": "08080101211",
    "DT21": "08",
    "DTMN21": "0808",
    "DTMNFR21": "080801",
    "DTMNFRSEC21": "080801012",
    "SECNUM21": "012",
    "SSNUM21": "11",
    "SECSSNUM21": "01211",
    "OBJECTID_1": 69698,
    "DT": "08",
    "CC": "08",
    "fr": "01",
    "SEC": "012",
    "SS": "11"
  },
  "addresses": [
    {
      "id": "pt.ine.add.PTCONT.1516448",
      "street": "SIT S JOAO VENDA",
      "house": "",
      "postcode": "8135-026",
      "city": "ALMANCIL",
      "lon": "-7.981569897079262",
      "lat": "37.07745256055724"
    },
    {
      "id": "pt.ine.add.PTCONT.1516449",
      "street": "SIT S JOAO VENDA",
      "house": "",
      "postcode": "8135-026",
      "city": "ALMANCIL",
      "lon": "-7.981569897079262",
      "lat": "37.07745256055724"
    },
    {
      "id": "pt.ine.add.PTCONT.1561651",
      "street": "R JOÃO PIRES PINTO",
      "house": "",
      "postcode": "8135-026",
      "city": "ALMANCIL",
      "lon": "-7.9812680915952985",
      "lat": "37.07653308337406"
    },
    {
      "id": "pt.ine.add.PTCONT.1577789",
      "street": "ESTEVAL",
      "house": "CP 426-E",
      "postcode": "8135-017",
      "city": "ALMANCIL",
      "lon": "-7.982165677566254",
      "lat": "37.077579470014115"
    },
    {
      "id": "pt.ine.add.PTCONT.1577790",
      "street": "ESTEVAL",
      "house": "CP 426-E",
      "postcode": "8135-017",
      "city": "ALMANCIL",
      "lon": "-7.982165677566254",
      "lat": "37.077579470014115"
    },
    {
      "id": "pt.ine.add.PTCONT.1577791",
      "street": "ESTEVAL",
      "house": "CP 426-E",
      "postcode": "8135-017",
      "city": "ALMANCIL",
      "lon": "-7.982165677566254",
      "lat": "37.077579470014115"
    },
    {
      "id": "pt.ine.add.PTCONT.1579566",
      "street": "",
      "house": "",
      "postcode": "8135-026",
      "city": "ALMANCIL",
      "lon": "-7.982165677566254",
      "lat": "37.077579470014115"
    },
    {
      "id": "pt.ine.add.PTCONT.1818819",
      "street": "R JOÃO DO ALTO",
      "house": "",
      "postcode": "8135-133",
      "city": "ALMANCIL",
      "lon": "-7.981279804432876",
      "lat": "37.07629882019552"
    },
    {
      "id": "pt.ine.add.PTCONT.1833878",
      "street": "",
      "house": "",
      "postcode": "8135-026",
      "city": "ALMANCIL",
      "lon": "-7.981638393905277",
      "lat": "37.07693903827731"
    },
    {
      "id": "pt.ine.add.PTCONT.1836703",
      "street": "",
      "house": "",
      "postcode": "8135-026",
      "city": "ALMANCIL",
      "lon": "-7.979297778643415",
      "lat": "37.077674903279984"
    }
  ]
}