{
  "data": {
    "distrito": "Braga",
    "concelho": "Braga",
    "freguesia": "Gualtar",
    "OBJECTID": 1182,
    "BGRI2021": "03031900205",
    "DT21": "03",
    "DTMN21": "0303",
    "DTMNFR21": "030319",
    "DTMNFRSEC21": "030319002",
    "SECNUM21": "002",
    "SSNUM21": "05",
    "SECSSNUM21": "00205",
    "OBJECTID_1": 22709,
    "DT": "03",
    "CC": "03",
    "fr": "19",
    "SEC": "002",
    "SS": "05"
  },
  "addresses": [
    {
      "id": "pt.ine.add.PTCONT.495081",
      "street": "R JOSE FERREIRA ALVES",
      "house": "8",
      "postcode": "4710-915",
      "city": "BRAGA",
      "lon": "-8.397436332490004",
      "lat": "41.56588863963795"
    },
    {
      "id": "pt.ine.add.PTCONT.518687",
      "street": "R CAROLINA ROSA ALVES",
      "house": "",
      "postcode": "4710-915",
      "city": "BRAGA",
      "lon": "-8.39632076870909",
      "lat": "41.56573813516694"
    },
    {
      "id": "pt.ine.add.PTCONT.524721",
      "street": "R CAROLINA ROSA ALVES",
      "house": "",
      "postcode": "4710-915",
      "city": "BRAGA",
      "lon": "-8.39657220017045",
      "lat": "41.565656525712605"
    },
    {
      "id": "pt.ine.add.PTCONT.551220",
      "street": "R CRESPA",
      "house": "",
      "postcode": "4710-068",
      "city": "BRAGA",
      "lon": "-8.394656598289941",
      "lat": "41.56927139623138"
    },
    {
      "id": "pt.ine.add.PTCONT.567581",
      "street": "R CRESPA",
      "house": "",
      "postcode": "4710-068",
      "city": "BRAGA",
      "lon": "-8.393115583518242",
      "lat": "41.567681230542796"
    },
    {
      "id": "pt.ine.add.PTCONT.567582",
      "street": "R BOUCA",
      "house": "1",
      "postcode": "4710-053",
      "city": "BRAGA",
      "lon": "-8.394061733464028",
      "lat": "41.5674359863657"
    },
    {
      "id": "pt.ine.add.PTCONT.591302",
      "street": "LOTEAM CAIXAS AGUA",
      "house": "",
      "postcode": "4715-642",
      "city": "BRAGA",
      "lon": "-8.397231059088309",
      "lat": "41.565528961880474"
    },
    {
      "id": "pt.ine.add.PTCONT.650478",
      "street": "R JOSE FERREIRA ALVES",
      "house": "10",
      "postcode": "4710-915",
      "city": "BRAGA",
      "lon": "-8.397389038388678",
      "lat": "41.56605081559586"
    },
    {
      "id": "pt.ine.add.PTCONT.718902",
      "street": "R CAROLINA ROSA ALVES",
      "house": "",
      "postcode": "4710-915",
      "city": "BRAGA",
      "lon": "-8.397171519523594",
      "lat": "41.565628139731054"
    }
  ]
}