{
  "data": {
    "distrito": "Castelo Branco",
    "concelho": "Fundão",
    "freguesia": "União das freguesias de Fundão, Valverde, Donas, Aldeia de Joanes e Aldeia Nova do Cabo",
    "OBJECTID": 1054,
    "BGRI2021": "05043401105",
    "DT21": "05",
    "DTMN21": "0504",
    "DTMNFR21": "050434",
    "DTMNFRSEC21": "050434011",
    "SECNUM21": "011",
    "SSNUM21": "05",
    "SECSSNUM21": "01105",
    "OBJECTID_1": 43468,
    "DT": "05",
    "CC": "04",
    "fr": "34",
    "SEC": "011",
    "SS": "05"
  },
  "addresses": [
    {
      "id": "pt.ine.add.PTCONT.961121",
      "street": "TV OLIVEIRAS",
      "house": "9",
      "postcode": "6230-439",
      "city": "FUNDÃO",
      "lon": "-7.498378557279698",
      "lat": "40.139189978090485"
    },
    {
      "id": "pt.ine.add.PTCONT.961122",
      "street": "TV OLIVEIRAS",
      "house": "9",
      "postcode": "6230-439",
      "city": "FUNDÃO",
      "lon": "-7.498378557279698",
      "lat": "40.139189978090485"
    },
    {
      "id": "pt.ine.add.PTCONT.961123",
      "street": "TV OLIVEIRAS",
      "house": "9",
      "postcode": "6230-439",
      "city": "FUNDÃO",
      "lon": "-7.498378557279698",
      "lat": "40.139189978090485"
    },
    {
      "id": "pt.ine.add.PTCONT.961124",
      "street": "TV OLIVEIRAS",
      "house": "9",
      "postcode": "6230-439",
      "city": "FUNDÃO",
      "lon": "-7.498378557279698",
      "lat": "40.139189978090485"
    },
    {
      "id": "pt.ine.add.PTCONT.961125",
      "street": "TV OLIVEIRAS",
      "house": "9",
      "postcode": "6230-439",
      "city": "FUNDÃO",
      "lon": "-7.498378557279698",
      "lat": "40.139189978090485"
    },
    {
      "id": "pt.ine.add.PTCONT.968846",
      "street": "R NOVA",
      "house": "20",
      "postcode": "6230-371",
      "city": "FUNDÃO",
      "lon": "-7.498650858802881",
      "lat": "40.13893029958007"
    },
    {
      "id": "pt.ine.add.PTCONT.968847",
      "street": "R NOVA",
      "house": "20",
      "postcode": "6230-371",
      "city": "FUNDÃO",
      "lon": "-7.498650858802881",
      "lat": "40.13893029958007"
    },
    {
      "id": "pt.ine.add.PTCONT.975083",
      "street": "R NOVA",
      "house": "6",
      "postcode": "6230-371",
      "city": "FUNDÃO",
      "lon": "-7.498314022240431",
      "lat": "40.138559212188596"
    },
    {
      "id": "pt.ine.add.PTCONT.981172",
      "street": "R JOSE GERMANO DA CUNHA CASA QUINHENTISTA",
      "house": "7",
      "postcode": "6230-366",
      "city": "FUNDÃO",
      "lon": "-7.498161990031117",
      "lat": "40.13850434335047"
    },
    {
      "id": "pt.ine.add.PTCONT.986474",
      "street": "R JOSE GERMANO DA CUNHA",
      "house": "31",
      "postcode": "6230-366",
      "city": "FUNDÃO",
      "lon": "-7.497996631522259",
      "lat": "40.13862051310285"
    },
    {
      "id": "pt.ine.add.PTCONT.986475",
      "street": "R JOSE GERMANO DA CUNHA",
      "house": "31",
      "postcode": "6230-366",
      "city": "FUNDÃO",
      "lon": "-7.497996631522259",
      "lat": "40.13862051310285"
    },
    {
      "id": "pt.ine.add.PTCONT.986476",
      "street": "R JOSE GERMANO DA CUNHA",
      "house": "31",
      "postcode": "6230-366",
      "city": "FUNDÃO",
      "lon": "-7.497996631522259",
      "lat": "40.13862051310285"
    },
    {
      "id": "pt.ine.add.PTCONT.988006",
      "street": "R JOSE GERMANO DA CUNHA",
      "house": "15",
      "postcode": "6230-366",
      "city": "FUNDÃO",
      "lon": "-7.498114301690689",
      "lat": "40.13858513485572"
    },
    {
      "id": "pt.ine.add.PTCONT.988007",
      "street": "R JOSE GERMANO DA CUNHA",
      "house": "15",
      "postcode": "6230-366",
      "city": "FUNDÃO",
      "lon": "-7.498114301690689",
      "lat": "40.13858513485572"
    },
    {
      "id": "pt.ine.add.PTCONT.990276",
      "street": "R JOSE GERMANO DA CUNHA",
      "house": "23",
      "postcode": "6230-366",
      "city": "FUNDÃO",
      "lon": "-7.498043900822483",
      "lat": "40.138584748790265"
    },
    {
      "id": "pt.ine.add.PTCONT.993056",
      "street": "R JOSE GERMANO DA CUNHA",
      "house": "1",
      "postcode": "6230-366",
      "city": "FUNDÃO",
      "lon": "-7.498256444435325",
      "lat": "40.13844181999539"
    },
    {
      "id": "pt.ine.add.PTCONT.993057",
      "street": "R JOSE GERMANO DA CUNHA",
      "house": "1",
      "postcode": "6230-366",
      "city": "FUNDÃO",
      "lon": "-7.498256444435325",
      "lat": "40.13844181999539"
    },
    {
      "id": "pt.ine.add.PTCONT.993058",
      "street": "R VASCO DA GAMA",
      "house": "",
      "postcode": "6230-375",
      "city": "FUNDÃO",
      "lon": "-7.498531847863348",
      "lat": "40.13910976522537"
    },
    {
      "id": "pt.ine.add.PTCONT.993059",
      "street": "R VASCO DA GAMA",
      "house": "",
      "postcode": "6230-375",
      "city": "FUNDÃO",
      "lon": "-7.498531847863348",
      "lat": "40.13910976522537"
    },
    {
      "id": "pt.ine.add.PTCONT.993060",
      "street": "R VASCO DA GAMA",
      "house": "",
      "postcode": "6230-375",
      "city": "FUNDÃO",
      "lon": "-7.498531847863348",
      "lat": "40.13910976522537"
    },
    {
      "id": "pt.ine.add.PTCONT.996545",
      "street": "R NOVA",
      "house": "12",
      "postcode": "6230-371",
      "city": "FUNDÃO",
      "lon": "-7.498372270623845",
      "lat": "40.13860456092089"
    },
    {
      "id": "pt.ine.add.PTCONT.1019672",
      "street": "R JOSE GERMANO CUNHA",
      "house": "33",
      "postcode": "6230-366",
      "city": "FUNDÃO",
      "lon": "-7.497854571725079",
      "lat": "40.1387548222049"
    },
    {
      "id": "pt.ine.add.PTCONT.1020133",
      "street": "R JOSE GERMANO CUNHA",
      "house": "39",
      "postcode": "6230-366",
      "city": "FUNDÃO",
      "lon": "-7.497854571725079",
      "lat": "40.1387548222049"
    },
    {
      "id": "pt.ine.add.PTCONT.1056082",
      "street": "TV OLIVEIRAS",
      "house": "FRAC B",
      "postcode": "6230-439",
      "city": "FUNDÃO",
      "lon": "-7.498253175720777",
      "lat": "40.138793031717164"
    },
    {
      "id": "pt.ine.add.PTCONT.1056083",
      "street": "TV OLIVEIRAS",
      "house": "",
      "postcode": "6230-439",
      "city": "FUNDÃO",
      "lon": "-7.498253175720777",
      "lat": "40.138793031717164"
    },
    {
      "id": "pt.ine.add.PTCONT.1056084",
      "street": "TV OLIVEIRAS",
      "house": "",
      "postcode": "6230-439",
      "city": "FUNDÃO",
      "lon": "-7.498253175720777",
      "lat": "40.138793031717164"
    },
    {
      "id": "pt.ine.add.PTCONT.1056085",
      "street": "TV OLIVEIRAS",
      "house": "",
      "postcode": "6230-439",
      "city": "FUNDÃO",
      "lon": "-7.498253175720777",
      "lat": "40.138793031717164"
    },
    {
      "id": "pt.ine.add.PTCONT.1056086",
      "street": "TV OLIVEIRAS",
      "house": "",
      "postcode": "6230-439",
      "city": "FUNDÃO",
      "lon": "-7.498253175720777",
      "lat": "40.138793031717164"
    },
    {
      "id": "pt.ine.add.PTCONT.1056087",
      "street": "TV OLIVEIRAS",
      "house": "",
      "postcode": "6230-439",
      "city": "FUNDÃO",
      "lon": "-7.498253175720777",
      "lat": "40.138793031717164"
    },
    {
      "id": "pt.ine.add.PTCONT.1056088",
      "street": "TV OLIVEIRAS",
      "house": "",
      "postcode": "6230-439",
      "city": "FUNDÃO",
      "lon": "-7.498253175720777",
      "lat": "40.138793031717164"
    },
    {
      "id": "pt.ine.add.PTCONT.1056089",
      "street": "TV OLIVEIRAS",
      "house": "",
      "postcode": "6230-439",
      "city": "FUNDÃO",
      "lon": "-7.498253175720777",
      "lat": "40.138793031717164"
    },
    {
      "id": "pt.ine.add.PTCONT.1056090",
      "street": "TV OLIVEIRAS",
      "house": "",
      "postcode": "6230-439",
      "city": "FUNDÃO",
      "lon": "-7.498253175720777",
      "lat": "40.138793031717164"
    },
    {
      "id": "pt.ine.add.PTCONT.1056091",
      "street": "TV OLIVEIRAS",
      "house": "",
      "postcode": "6230-439",
      "city": "FUNDÃO",
      "lon": "-7.498253175720777",
      "lat": "40.138793031717164"
    },
    {
      "id": "pt.ine.add.PTCONT.1056589",
      "street": "TV OLIVEIRAS",
      "house": "",
      "postcode": "6230-439",
      "city": "FUNDÃO",
      "lon": "-7.498253175720777",
      "lat": "40.138793031717164"
    },
    {
      "id": "pt.ine.add.PTCONT.1062586",
      "street": "R DR JOAO PINTO",
      "house": "25",
      "postcode": "6230-354",
      "city": "FUNDÃO",
      "lon": "-7.498291141949411",
      "lat": "40.138496045542645"
    },
    {
      "id": "pt.ine.add.PTCONT.1081252",
      "street": "TV OLIVEIRAS",
      "house": "5",
      "postcode": "6230-439",
      "city": "FUNDÃO",
      "lon": "-7.498227026528205",
      "lat": "40.13908107676406"
    },
    {
      "id": "pt.ine.add.PTCONT.1081253",
      "street": "TV OLIVEIRAS",
      "house": "5",
      "postcode": "6230-439",
      "city": "FUNDÃO",
      "lon": "-7.498227026528205",
      "lat": "40.13908107676406"
    },
    {
      "id": "pt.ine.add.PTCONT.1081254",
      "street": "TV OLIVEIRAS",
      "house": "5",
      "postcode": "6230-439",
      "city": "FUNDÃO",
      "lon": "-7.498227026528205",
      "lat": "40.13908107676406"
    },
    {
      "id": "pt.ine.add.PTCONT.1081255",
      "street": "TV OLIVEIRAS",
      "house": "5",
      "postcode": "6230-439",
      "city": "FUNDÃO",
      "lon": "-7.498227026528205",
      "lat": "40.13908107676406"
    },
    {
      "id": "pt.ine.add.PTCONT.1081256",
      "street": "TV OLIVEIRAS",
      "house": "5",
      "postcode": "6230-439",
      "city": "FUNDÃO",
      "lon": "-7.498227026528205",
      "lat": "40.13908107676406"
    },
    {
      "id": "pt.ine.add.PTCONT.1081257",
      "street": "TV OLIVEIRAS",
      "house": "5",
      "postcode": "6230-439",
      "city": "FUNDÃO",
      "lon": "-7.498227026528205",
      "lat": "40.13908107676406"
    },
    {
      "id": "pt.ine.add.PTCONT.1081258",
      "street": "TV OLIVEIRAS",
      "house": "5",
      "postcode": "6230-439",
      "city": "FUNDÃO",
      "lon": "-7.498227026528205",
      "lat": "40.13908107676406"
    },
    {
      "id": "pt.ine.add.PTCONT.1081259",
      "street": "TV OLIVEIRAS",
      "house": "5",
      "postcode": "6230-439",
      "city": "FUNDÃO",
      "lon": "-7.498227026528205",
      "lat": "40.13908107676406"
    },
    {
      "id": "pt.ine.add.PTCONT.1095891",
      "street": "TV OLIVEIRAS",
      "house": "9",
      "postcode": "6230-439",
      "city": "FUNDÃO",
      "lon": "-7.498378557279698",
      "lat": "40.139189978090485"
    },
    {
      "id": "pt.ine.add.PTCONT.1099261",
      "street": "R JOSE GERMANO DA CUNHA CASA QUINHENTISTA",
      "house": "7",
      "postcode": "6230-366",
      "city": "FUNDÃO",
      "lon": "-7.498161990031117",
      "lat": "40.13850434335047"
    },
    {
      "id": "pt.ine.add.PTCONT.1099760",
      "street": "R VASCO DA GAMA",
      "house": "",
      "postcode": "6230-375",
      "city": "FUNDÃO",
      "lon": "-7.498531847863348",
      "lat": "40.13910976522537"
    }
  ]
}