{
  "data": {
    "distrito": "Setúbal",
    "concelho": "Seixal",
    "freguesia": "Corroios",
    "OBJECTID": 1292,
    "BGRI2021": "15100503704",
    "DT21": "15",
    "DTMN21": "1510",
    "DTMNFR21": "151005",
    "DTMNFRSEC21": "151005037",
    "SECNUM21": "037",
    "SSNUM21": "04",
    "SECSSNUM21": "03704",
    "OBJECTID_1": 168573,
    "DT": "15",
    "CC": "10",
    "fr": "05",
    "SEC": "037",
    "SS": "04"
  },
  "addresses": [
    {
      "id": "pt.ine.add.PTCONT.4680245",
      "street": "R U",
      "house": "",
      "postcode": "2855-321",
      "city": "CORROIOS",
      "lon": "-9.16103187935587",
      "lat": "38.621383232126945"
    },
    {
      "id": "pt.ine.add.PTCONT.4680247",
      "street": "R U",
      "house": "",
      "postcode": "2855-321",
      "city": "CORROIOS",
      "lon": "-9.16103187935587",
      "lat": "38.621383232126945"
    },
    {
      "id": "pt.ine.add.PTCONT.4813517",
      "street": "R U",
      "house": "",
      "postcode": "2855-321",
      "city": "CORROIOS",
      "lon": "-9.161604804009379",
      "lat": "38.62049541166311"
    },
    {
      "id": "pt.ine.add.PTCONT.4865107",
      "street": "R U (2 FASE)",
      "house": "",
      "postcode": "2855-321",
      "city": "CORROIOS",
      "lon": "-9.161415159791368",
      "lat": "38.62088442326239"
    },
    {
      "id": "pt.ine.add.PTCONT.4896461",
      "street": "R FÁBRICA DA PÓLVORA",
      "house": "",
      "postcode": "2855-382",
      "city": "CORROIOS",
      "lon": "-9.162434216212464",
      "lat": "38.622289720341485"
    },
    {
      "id": "pt.ine.add.PTCONT.4946142",
      "street": "R U",
      "house": "",
      "postcode": "2855-321",
      "city": "CORROIOS",
      "lon": "-9.161504563281401",
      "lat": "38.62071248516972"
    },
    {
      "id": "pt.ine.add.PTCONT.4946143",
      "street": "R U",
      "house": "",
      "postcode": "2855-321",
      "city": "CORROIOS",
      "lon": "-9.161504563281401",
      "lat": "38.62071248516972"
    },
    {
      "id": "pt.ine.add.PTCONT.4957606",
      "street": "AV FÁBRICA DA PÓLVORA",
      "house": "",
      "postcode": "2855-382",
      "city": "CORROIOS",
      "lon": "-9.163126979606947",
      "lat": "38.620950437554704"
    },
    {
      "id": "pt.ine.add.PTCONT.4993591",
      "street": "AV FÁBRICA DA PÓLVORA",
      "house": "",
      "postcode": "2855-382",
      "city": "CORROIOS",
      "lon": "-9.162906763893307",
      "lat": "38.62160996104004"
    },
    {
      "id": "pt.ine.add.PTCONT.5043803",
      "street": "QTA ANIZA",
      "house": "",
      "postcode": "2855-382",
      "city": "CORROIOS",
      "lon": "-9.162064759476841",
      "lat": "38.622148841993855"
    },
    {
      "id": "pt.ine.add.PTCONT.5067015",
      "street": "AV FÁBRICA DA PÓLVORA",
      "house": "",
      "postcode": "2855-382",
      "city": "CORROIOS",
      "lon": "-9.162678044263735",
      "lat": "38.621675030068516"
    },
    {
      "id": "pt.ine.add.PTCONT.5128886",
      "street": "AV FÁBRICA DA PÓLVORA",
      "house": "",
      "postcode": "2855-382",
      "city": "CORROIOS",
      "lon": "-9.162678044263735",
      "lat": "38.621675030068516"
    }
  ]
}