{
  "data": {
    "distrito": "Faro",
    "concelho": "Portimão",
    "freguesia": "Mexilhoeira Grande",
    "OBJECTID": 213,
    "BGRI2021": "08110200104",
    "DT21": "08",
    "DTMN21": "0811",
    "DTMNFR21": "081102",
    "DTMNFRSEC21": "081102001",
    "SECNUM21": "001",
    "SSNUM21": "04",
    "SECSSNUM21": "00104",
    "OBJECTID_1": 71525,
    "DT": "08",
    "CC": "11",
    "fr": "02",
    "SEC": "001",
    "SS": "04"
  },
  "addresses": [
    {
      "id": "pt.ine.add.PTCONT.1527581",
      "street": "SIT SITIO DA BILHETEIRA MARIA ROSA GINGEIRA",
      "house": "",
      "postcode": "8500-132",
      "city": "MEXILHOEIRA GRANDE",
      "lon": "-8.61631222752779",
      "lat": "37.15228083961469"
    },
    {
      "id": "pt.ine.add.PTCONT.1534844",
      "street": "HORTA DAS ROMANEIRAS CASA JOANINHA",
      "house": "",
      "postcode": "8500-132",
      "city": "MEXILHOEIRA GRANDE",
      "lon": "-8.62016756569366",
      "lat": "37.1513820293253"
    },
    {
      "id": "pt.ine.add.PTCONT.1546201",
      "street": "SIT SITIO DO VAU VENTURA BATISTA",
      "house": "",
      "postcode": "8500-132",
      "city": "MEXILHOEIRA GRANDE",
      "lon": "-8.620540394819345",
      "lat": "37.149839700155745"
    },
    {
      "id": "pt.ine.add.PTCONT.1556845",
      "street": "SIT SITIO DO AREAL QTA DAS LARANSEIRAS",
      "house": "",
      "postcode": "8500-132",
      "city": "MEXILHOEIRA GRANDE",
      "lon": "-8.61481881885123",
      "lat": "37.152872601630705"
    },
    {
      "id": "pt.ine.add.PTCONT.1556846",
      "street": "SIT SITIO DA BILHETEIRA MÁRIO RODRIGUES ROSA",
      "house": "",
      "postcode": "8500-132",
      "city": "MEXILHOEIRA GRANDE",
      "lon": "-8.616452082345146",
      "lat": "37.15126208225059"
    },
    {
      "id": "pt.ine.add.PTCONT.1567096",
      "street": "QTA LAZER",
      "house": "",
      "postcode": "8500-132",
      "city": "MEXILHOEIRA GRANDE",
      "lon": "-8.617275751015379",
      "lat": "37.14979901824652"
    },
    {
      "id": "pt.ine.add.PTCONT.1571538",
      "street": "SIT SITIO DO VAU QTA DO PARAISO",
      "house": "",
      "postcode": "8500-132",
      "city": "MEXILHOEIRA GRANDE",
      "lon": "-8.620347825445343",
      "lat": "37.14965127131088"
    },
    {
      "id": "pt.ine.add.PTCONT.1576899",
      "street": "SIT SITIO DO AREAL QTA DAS LARANEEIRAS ALFAMA",
      "house": "",
      "postcode": "8500-132",
      "city": "MEXILHOEIRA GRANDE",
      "lon": "-8.614986868242847",
      "lat": "37.152745771429174"
    },
    {
      "id": "pt.ine.add.PTCONT.1584358",
      "street": "SIT SITIO DA BILHETEIRA NICOLAI ILIESI",
      "house": "",
      "postcode": "8500-132",
      "city": "MEXILHOEIRA GRANDE",
      "lon": "-8.616340034185386",
      "lat": "37.15134363369954"
    },
    {
      "id": "pt.ine.add.PTCONT.1592968",
      "street": "SIT SITIO DA BILHETEIRA ANA CRISTINA PACHECO NUNES",
      "house": "",
      "postcode": "8500-132",
      "city": "MEXILHOEIRA GRANDE",
      "lon": "-8.616138564676861",
      "lat": "37.15152466507651"
    },
    {
      "id": "pt.ine.add.PTCONT.1598838",
      "street": "SIT BILHETEIRA PORTIMAO",
      "house": "PORTIMAO",
      "postcode": "8500-132",
      "city": "MEXILHOEIRA GRANDE",
      "lon": "-8.617137115749724",
      "lat": "37.15100699244278"
    },
    {
      "id": "pt.ine.add.PTCONT.1603963",
      "street": "SIT SITIO DO VAU FLAVIO NASCIMENTO",
      "house": "",
      "postcode": "8500-132",
      "city": "MEXILHOEIRA GRANDE",
      "lon": "-8.620495023065361",
      "lat": "37.14978582370146"
    },
    {
      "id": "pt.ine.add.PTCONT.1614458",
      "street": "SIT SITIO DO AREAL",
      "house": "",
      "postcode": "8500-132",
      "city": "MEXILHOEIRA GRANDE",
      "lon": "-8.615551131350676",
      "lat": "37.15296873848448"
    },
    {
      "id": "pt.ine.add.PTCONT.1621921",
      "street": "SIT SITIO DA BILHETEIRA",
      "house": "",
      "postcode": "8500-132",
      "city": "MEXILHOEIRA GRANDE",
      "lon": "-8.616471138619275",
      "lat": "37.15248743322724"
    },
    {
      "id": "pt.ine.add.PTCONT.1637720",
      "street": "SIT SITIO DA ESPREGUEIRA MANUEL DOMINGOS MARTINS",
      "house": "",
      "postcode": "8500-128",
      "city": "MEXILHOEIRA GRANDE",
      "lon": "-8.617953463085442",
      "lat": "37.1483996189778"
    },
    {
      "id": "pt.ine.add.PTCONT.1648013",
      "street": "HORTA DAS ROMANEIRAS",
      "house": "",
      "postcode": "8500-132",
      "city": "MEXILHOEIRA GRANDE",
      "lon": "-8.620283077986121",
      "lat": "37.15184109028121"
    },
    {
      "id": "pt.ine.add.PTCONT.1654782",
      "street": "SIT SITIO DA BILHETEIRA SOSE ANTÓNIO GORGULHO",
      "house": "",
      "postcode": "8500-132",
      "city": "MEXILHOEIRA GRANDE",
      "lon": "-8.616873110631714",
      "lat": "37.15020613521061"
    },
    {
      "id": "pt.ine.add.PTCONT.1661430",
      "street": "HORTA DAS ROMANEIRAS JOSE ANTÓNIO RAMOS",
      "house": "",
      "postcode": "8500-132",
      "city": "MEXILHOEIRA GRANDE",
      "lon": "-8.618834696337155",
      "lat": "37.150666658806955"
    },
    {
      "id": "pt.ine.add.PTCONT.1664162",
      "street": "SIT SITIO DA BILHETEIRA NELSON NUNES",
      "house": "",
      "postcode": "8500-132",
      "city": "MEXILHOEIRA GRANDE",
      "lon": "-8.616216958627449",
      "lat": "37.15146127201545"
    },
    {
      "id": "pt.ine.add.PTCONT.1684120",
      "street": "SIT SITIO DO VAU JOSE LUIS ROSA",
      "house": "",
      "postcode": "8500-132",
      "city": "MEXILHOEIRA GRANDE",
      "lon": "-8.622415135473618",
      "lat": "37.1507960993772"
    },
    {
      "id": "pt.ine.add.PTCONT.1686234",
      "street": "SIT SITIO DO AREAL",
      "house": "",
      "postcode": "8500-132",
      "city": "MEXILHOEIRA GRANDE",
      "lon": "-8.615786261453328",
      "lat": "37.15276955004548"
    },
    {
      "id": "pt.ine.add.PTCONT.1705070",
      "street": "SIT SITIO DA BILHETEIRA",
      "house": "",
      "postcode": "8500-132",
      "city": "MEXILHOEIRA GRANDE",
      "lon": "-8.616396086966505",
      "lat": "37.1513073631243"
    },
    {
      "id": "pt.ine.add.PTCONT.1714635",
      "street": "SIT SITIO DA BILHETEIRA MARIA TERESA DUARTE",
      "house": "",
      "postcode": "8500-132",
      "city": "MEXILHOEIRA GRANDE",
      "lon": "-8.61678345387554",
      "lat": "37.152035633865964"
    },
    {
      "id": "pt.ine.add.PTCONT.1729322",
      "street": "SIT FONTAÍNHAS",
      "house": "CCI 595",
      "postcode": "8500-132",
      "city": "MEXILHOEIRA GRANDE",
      "lon": "-8.62193146086821",
      "lat": "37.15085215823724"
    },
    {
      "id": "pt.ine.add.PTCONT.1732401",
      "street": "SIT SITIO DO AREAL",
      "house": "",
      "postcode": "8500-132",
      "city": "MEXILHOEIRA GRANDE",
      "lon": "-8.615921169293786",
      "lat": "37.15274196903388"
    },
    {
      "id": "pt.ine.add.PTCONT.1732402",
      "street": "SIT SITIO DO AREAL",
      "house": "",
      "postcode": "8500-132",
      "city": "MEXILHOEIRA GRANDE",
      "lon": "-8.615921169293786",
      "lat": "37.15274196903388"
    },
    {
      "id": "pt.ine.add.PTCONT.1736552",
      "street": "SIT SITIO DA BILHETEIRA FRANCISCO NUNES",
      "house": "",
      "postcode": "8500-132",
      "city": "MEXILHOEIRA GRANDE",
      "lon": "-8.616272896898447",
      "lat": "37.15140698095383"
    },
    {
      "id": "pt.ine.add.PTCONT.1754384",
      "street": "",
      "house": "",
      "postcode": "8500-132",
      "city": "MEXILHOEIRA GRANDE",
      "lon": "-8.616671519696258",
      "lat": "37.15213520616423"
    },
    {
      "id": "pt.ine.add.PTCONT.1758068",
      "street": "HORTA DAS ROMANEIRAS JOSE ANTÓNIO RAMOS II",
      "house": "",
      "postcode": "8500-132",
      "city": "MEXILHOEIRA GRANDE",
      "lon": "-8.618474493903522",
      "lat": "37.15066813444785"
    },
    {
      "id": "pt.ine.add.PTCONT.1758070",
      "street": "SIT SITIO DO VAU QTA DO PARAISO II",
      "house": "",
      "postcode": "8500-132",
      "city": "MEXILHOEIRA GRANDE",
      "lon": "-8.621258880354526",
      "lat": "37.14953939643081"
    },
    {
      "id": "pt.ine.add.PTCONT.1770517",
      "street": "SIT SITIO DA BILHETEIRA JOSE ALBERTO SAMUEL BAPTISTA",
      "house": "",
      "postcode": "8500-132",
      "city": "MEXILHOEIRA GRANDE",
      "lon": "-8.615970577199176",
      "lat": "37.15166050717641"
    },
    {
      "id": "pt.ine.add.PTCONT.1828852",
      "street": "QTA LAZER",
      "house": "",
      "postcode": "8500-132",
      "city": "MEXILHOEIRA GRANDE",
      "lon": "-8.617971736990384",
      "lat": "37.14949882631809"
    },
    {
      "id": "pt.ine.add.PTCONT.1847789",
      "street": "SIT SITIO DA BILHETEIRA",
      "house": "",
      "postcode": "8500-132",
      "city": "MEXILHOEIRA GRANDE",
      "lon": "-8.616311883522238",
      "lat": "37.152226777989746"
    }
  ]
}