{
  "data": {
    "distrito": "Faro",
    "concelho": "Portimão",
    "freguesia": "Mexilhoeira Grande",
    "OBJECTID": 154,
    "BGRI2021": "08110200107",
    "DT21": "08",
    "DTMN21": "0811",
    "DTMNFR21": "081102",
    "DTMNFRSEC21": "081102001",
    "SECNUM21": "001",
    "SSNUM21": "07",
    "SECSSNUM21": "00107",
    "OBJECTID_1": 71179,
    "DT": "08",
    "CC": "11",
    "fr": "02",
    "SEC": "001",
    "SS": "07"
  },
  "addresses": [
    {
      "id": "pt.ine.add.PTCONT.1483833",
      "street": "SIT FONTAÍNHAS WILLI STOTZ",
      "house": "",
      "postcode": "8500-132",
      "city": "MEXILHOEIRA GRANDE",
      "lon": "-8.618384041009417",
      "lat": "37.15412853821775"
    },
    {
      "id": "pt.ine.add.PTCONT.1489531",
      "street": "SIT FONTAÍNHAS",
      "house": "",
      "postcode": "8500-132",
      "city": "MEXILHOEIRA GRANDE",
      "lon": "-8.616259861072159",
      "lat": "37.15643489425078"
    },
    {
      "id": "pt.ine.add.PTCONT.1501278",
      "street": "SIT FONTAÍNHAS ANTÓNIO BICO",
      "house": "",
      "postcode": "8500-132",
      "city": "MEXILHOEIRA GRANDE",
      "lon": "-8.617733789600099",
      "lat": "37.15454568196456"
    },
    {
      "id": "pt.ine.add.PTCONT.1538787",
      "street": "",
      "house": "",
      "postcode": "8500-132",
      "city": "MEXILHOEIRA GRANDE",
      "lon": "-8.618331989244023",
      "lat": "37.15302947011111"
    },
    {
      "id": "pt.ine.add.PTCONT.1538788",
      "street": "",
      "house": "",
      "postcode": "8500-132",
      "city": "MEXILHOEIRA GRANDE",
      "lon": "-8.618331989244023",
      "lat": "37.15302947011111"
    },
    {
      "id": "pt.ine.add.PTCONT.1541793",
      "street": "",
      "house": "",
      "postcode": "8500-132",
      "city": "MEXILHOEIRA GRANDE",
      "lon": "-8.616981130438488",
      "lat": "37.15302598242049"
    },
    {
      "id": "pt.ine.add.PTCONT.1568468",
      "street": "SIT FONTAÍNHAS IDALINA MARTINS VARELA",
      "house": "",
      "postcode": "8500-132",
      "city": "MEXILHOEIRA GRANDE",
      "lon": "-8.617506419265977",
      "lat": "37.15596125992008"
    },
    {
      "id": "pt.ine.add.PTCONT.1591155",
      "street": "",
      "house": "",
      "postcode": "8500-132",
      "city": "MEXILHOEIRA GRANDE",
      "lon": "-8.619548518259469",
      "lat": "37.153150630341734"
    },
    {
      "id": "pt.ine.add.PTCONT.1591164",
      "street": "",
      "house": "",
      "postcode": "8500-132",
      "city": "MEXILHOEIRA GRANDE",
      "lon": "-8.619548518259469",
      "lat": "37.153150630341734"
    },
    {
      "id": "pt.ine.add.PTCONT.1637367",
      "street": "R FRANCISCO BIVAR",
      "house": "3",
      "postcode": "8500-132",
      "city": "MEXILHOEIRA GRANDE",
      "lon": "-8.614378597210777",
      "lat": "37.156235307227256"
    },
    {
      "id": "pt.ine.add.PTCONT.1658088",
      "street": "",
      "house": "",
      "postcode": "8500-132",
      "city": "MEXILHOEIRA GRANDE",
      "lon": "-8.616812452444622",
      "lat": "37.15305370246698"
    },
    {
      "id": "pt.ine.add.PTCONT.1668097",
      "street": "R FRANCISCO BIVAR",
      "house": "1",
      "postcode": "8500-132",
      "city": "MEXILHOEIRA GRANDE",
      "lon": "-8.614355683121378",
      "lat": "37.15617232678034"
    },
    {
      "id": "pt.ine.add.PTCONT.1696407",
      "street": "SIT AREAL FRANCISCO ALEXANDRE",
      "house": "",
      "postcode": "8500-132",
      "city": "MEXILHOEIRA GRANDE",
      "lon": "-8.61578141939058",
      "lat": "37.153778746126"
    },
    {
      "id": "pt.ine.add.PTCONT.1708053",
      "street": "R FRANCISCO BIVAR",
      "house": "1 A",
      "postcode": "8500-155",
      "city": "MEXILHOEIRA GRANDE",
      "lon": "-8.614445283348024",
      "lat": "37.15609987891697"
    },
    {
      "id": "pt.ine.add.PTCONT.1717958",
      "street": "SIT FONTAÍNHAS SOLAR DAS VINHAS VELHAS",
      "house": "",
      "postcode": "8500-132",
      "city": "MEXILHOEIRA GRANDE",
      "lon": "-8.615700781661683",
      "lat": "37.157031865011675"
    },
    {
      "id": "pt.ine.add.PTCONT.1746669",
      "street": "R FRANCISCO BIVAR",
      "house": "",
      "postcode": "8500-132",
      "city": "MEXILHOEIRA GRANDE",
      "lon": "-8.614185066820207",
      "lat": "37.15411862524884"
    },
    {
      "id": "pt.ine.add.PTCONT.1762271",
      "street": "",
      "house": "",
      "postcode": "8500-132",
      "city": "MEXILHOEIRA GRANDE",
      "lon": "-8.61766715531406",
      "lat": "37.15292406408749"
    },
    {
      "id": "pt.ine.add.PTCONT.1795109",
      "street": "",
      "house": "",
      "postcode": "8500-132",
      "city": "MEXILHOEIRA GRANDE",
      "lon": "-8.618039430722416",
      "lat": "37.153048688510744"
    }
  ]
}