{
  "data": {
    "distrito": "Faro",
    "concelho": "Portimão",
    "freguesia": "Mexilhoeira Grande",
    "OBJECTID": 110,
    "BGRI2021": "08110200117",
    "DT21": "08",
    "DTMN21": "0811",
    "DTMNFR21": "081102",
    "DTMNFRSEC21": "081102001",
    "SECNUM21": "001",
    "SSNUM21": "17",
    "SECSSNUM21": "00117",
    "OBJECTID_1": 71283,
    "DT": "08",
    "CC": "11",
    "fr": "02",
    "SEC": "001",
    "SS": "17"
  },
  "addresses": [
    {
      "id": "pt.ine.add.PTCONT.1502647",
      "street": "SIT VISEU CASA VISEU",
      "house": "",
      "postcode": "8500-132",
      "city": "MEXILHOEIRA GRANDE",
      "lon": "-8.611892753193077",
      "lat": "37.156560743263306"
    },
    {
      "id": "pt.ine.add.PTCONT.1536522",
      "street": "SIT VISEU",
      "house": "",
      "postcode": "8500-132",
      "city": "MEXILHOEIRA GRANDE",
      "lon": "-8.611011884004435",
      "lat": "37.15790686293404"
    },
    {
      "id": "pt.ine.add.PTCONT.1543587",
      "street": "SIT VISEU",
      "house": "",
      "postcode": "8500-132",
      "city": "MEXILHOEIRA GRANDE",
      "lon": "-8.610979501271004",
      "lat": "37.156339166664786"
    },
    {
      "id": "pt.ine.add.PTCONT.1578214",
      "street": "SIT VISEU",
      "house": "",
      "postcode": "8500-132",
      "city": "MEXILHOEIRA GRANDE",
      "lon": "-8.609991755616814",
      "lat": "37.15680268081342"
    },
    {
      "id": "pt.ine.add.PTCONT.1578215",
      "street": "SIT VISEU",
      "house": "",
      "postcode": "8500-132",
      "city": "MEXILHOEIRA GRANDE",
      "lon": "-8.609991755616814",
      "lat": "37.15680268081342"
    },
    {
      "id": "pt.ine.add.PTCONT.1599719",
      "street": "R ESTAÇÃO",
      "house": "2A",
      "postcode": "8500-132",
      "city": "MEXILHOEIRA GRANDE",
      "lon": "-8.612985670656926",
      "lat": "37.15670950145916"
    },
    {
      "id": "pt.ine.add.PTCONT.1618516",
      "street": "QTA VISEU",
      "house": "",
      "postcode": "8500-132",
      "city": "MEXILHOEIRA GRANDE",
      "lon": "-8.611520284396425",
      "lat": "37.158193147642564"
    },
    {
      "id": "pt.ine.add.PTCONT.1619741",
      "street": "QTA VISEU",
      "house": "",
      "postcode": "8500-132",
      "city": "MEXILHOEIRA GRANDE",
      "lon": "-8.611520284396425",
      "lat": "37.158193147642564"
    },
    {
      "id": "pt.ine.add.PTCONT.1774322",
      "street": "R CAP JOSE DOS REIS LAZARO",
      "house": "18",
      "postcode": "8500-132",
      "city": "MEXILHOEIRA GRANDE",
      "lon": "-8.612784178991433",
      "lat": "37.1568905271278"
    },
    {
      "id": "pt.ine.add.PTCONT.1789204",
      "street": "R ESTAÇÃO",
      "house": "2",
      "postcode": "8500-132",
      "city": "MEXILHOEIRA GRANDE",
      "lon": "-8.613097901194957",
      "lat": "37.15665498397878"
    }
  ]
}