{
  "data": {
    "distrito": "Faro",
    "concelho": "Lagos",
    "freguesia": "União das freguesias de Bensafrim e Barão de São João",
    "OBJECTID": 583,
    "BGRI2021": "08070700322",
    "DT21": "08",
    "DTMN21": "0807",
    "DTMNFR21": "080707",
    "DTMNFRSEC21": "080707003",
    "SECNUM21": "003",
    "SSNUM21": "22",
    "SECSSNUM21": "00322",
    "OBJECTID_1": 67574,
    "DT": "08",
    "CC": "07",
    "fr": "07",
    "SEC": "003",
    "SS": "22"
  },
  "addresses": [
    {
      "id": "pt.ine.add.PTCONT.1557365",
      "street": "QTA EIRA",
      "house": "",
      "postcode": "8600-012",
      "city": "BARÃO DE SÃO JOÃO",
      "lon": "-8.768233434536949",
      "lat": "37.14544599201993"
    },
    {
      "id": "pt.ine.add.PTCONT.1602011",
      "street": "SIT CASA VELHA",
      "house": "",
      "postcode": "8600-013",
      "city": "BARÃO DE SÃO JOÃO",
      "lon": "-8.765612682310783",
      "lat": "37.14701881455691"
    },
    {
      "id": "pt.ine.add.PTCONT.1602012",
      "street": "SIT CASA VELHA",
      "house": "",
      "postcode": "8600-013",
      "city": "BARÃO DE SÃO JOÃO",
      "lon": "-8.765612682310783",
      "lat": "37.14701881455691"
    },
    {
      "id": "pt.ine.add.PTCONT.1632501",
      "street": "SIT CASA VELHA",
      "house": "",
      "postcode": "8600-013",
      "city": "BARÃO DE SÃO JOÃO",
      "lon": "-8.765972407921788",
      "lat": "37.14696283162563"
    },
    {
      "id": "pt.ine.add.PTCONT.1643197",
      "street": "SIT AZÓIA",
      "house": "",
      "postcode": "8600-012",
      "city": "BARÃO DE SÃO JOÃO",
      "lon": "-8.757048784972422",
      "lat": "37.148623014970006"
    },
    {
      "id": "pt.ine.add.PTCONT.1652148",
      "street": "SIT AZÓIA",
      "house": "",
      "postcode": "8600-012",
      "city": "BARÃO DE SÃO JOÃO",
      "lon": "-8.763356755583594",
      "lat": "37.147805730645096"
    },
    {
      "id": "pt.ine.add.PTCONT.1658151",
      "street": "SIT AZÓIA",
      "house": "",
      "postcode": "8600-012",
      "city": "BARÃO DE SÃO JOÃO",
      "lon": "-8.76143748537407",
      "lat": "37.149834261523104"
    },
    {
      "id": "pt.ine.add.PTCONT.1660892",
      "street": "SIT AZÓIA CASA VELHA",
      "house": "CP 1496 X",
      "postcode": "8600-012",
      "city": "BARÃO DE SÃO JOÃO",
      "lon": "-8.766190758583205",
      "lat": "37.146150724989845"
    },
    {
      "id": "pt.ine.add.PTCONT.1689943",
      "street": "MTE GALEGAS",
      "house": "",
      "postcode": "8600-019",
      "city": "BARÃO DE SÃO JOÃO",
      "lon": "-8.76586549224956",
      "lat": "37.15034232024231"
    },
    {
      "id": "pt.ine.add.PTCONT.1693021",
      "street": "SIT MACHADA",
      "house": "",
      "postcode": "8600-013",
      "city": "BARÃO DE SÃO JOÃO",
      "lon": "-8.76488672126148",
      "lat": "37.15311374777437"
    },
    {
      "id": "pt.ine.add.PTCONT.1712109",
      "street": "SIT AZÓIA",
      "house": "",
      "postcode": "8600-012",
      "city": "BARÃO DE SÃO JOÃO",
      "lon": "-8.757580769068912",
      "lat": "37.14898063126956"
    },
    {
      "id": "pt.ine.add.PTCONT.1713100",
      "street": "MTE SOBREIRO",
      "house": "",
      "postcode": "8600-013",
      "city": "BARÃO DE SÃO JOÃO",
      "lon": "-8.767443534292692",
      "lat": "37.1452069399209"
    },
    {
      "id": "pt.ine.add.PTCONT.1716101",
      "street": "QTA COELHO",
      "house": "",
      "postcode": "8600-012",
      "city": "BARÃO DE SÃO JOÃO",
      "lon": "-8.768387564149267",
      "lat": "37.14772480968783"
    },
    {
      "id": "pt.ine.add.PTCONT.1718749",
      "street": "SIT MACHADA",
      "house": "",
      "postcode": "8600-013",
      "city": "BARÃO DE SÃO JOÃO",
      "lon": "-8.760045821529802",
      "lat": "37.15578852415541"
    },
    {
      "id": "pt.ine.add.PTCONT.1735735",
      "street": "SIT MONTE DAS GALEGAS",
      "house": "",
      "postcode": "8600-013",
      "city": "BARÃO DE SÃO JOÃO",
      "lon": "-8.764386912156525",
      "lat": "37.149863640832706"
    },
    {
      "id": "pt.ine.add.PTCONT.1778518",
      "street": "SIT AZOIA CPI",
      "house": "CPI 1332",
      "postcode": "8600-012",
      "city": "BARÃO DE SÃO JOÃO",
      "lon": "-8.758300250834246",
      "lat": "37.148868712831835"
    },
    {
      "id": "pt.ine.add.PTCONT.1781646",
      "street": "MTE GALEGAS",
      "house": "",
      "postcode": "8600-019",
      "city": "BARÃO DE SÃO JOÃO",
      "lon": "-8.766547206014135",
      "lat": "37.1484014328315"
    },
    {
      "id": "pt.ine.add.PTCONT.1800809",
      "street": "SIT CASA VELHA",
      "house": "",
      "postcode": "8600-013",
      "city": "BARÃO DE SÃO JOÃO",
      "lon": "-8.76437470440574",
      "lat": "37.14839500292704"
    },
    {
      "id": "pt.ine.add.PTCONT.1802153",
      "street": "SIT MONTE DAS GALEGAS",
      "house": "",
      "postcode": "8600-013",
      "city": "BARÃO DE SÃO JOÃO",
      "lon": "-8.7655768886597",
      "lat": "37.14947885791416"
    }
  ]
}