{
  "data": {
    "distrito": "Faro",
    "concelho": "Portimão",
    "freguesia": "Portimão",
    "OBJECTID": 559,
    "BGRI2021": "08110300306",
    "DT21": "08",
    "DTMN21": "0811",
    "DTMNFR21": "081103",
    "DTMNFRSEC21": "081103003",
    "SECNUM21": "003",
    "SSNUM21": "06",
    "SECSSNUM21": "00306",
    "OBJECTID_1": 71360,
    "DT": "08",
    "CC": "11",
    "fr": "03",
    "SEC": "003",
    "SS": "06"
  },
  "addresses": [
    {
      "id": "pt.ine.add.PTCONT.1499850",
      "street": "R MOUZINHO DE ALBUQUERQUE",
      "house": "66",
      "postcode": "8500-710",
      "city": "PORTIMÃO",
      "lon": "-8.539411418090179",
      "lat": "37.14081066217711"
    },
    {
      "id": "pt.ine.add.PTCONT.1499851",
      "street": "R MOUZINHO DE ALBUQUERQUE",
      "house": "66",
      "postcode": "8500-710",
      "city": "PORTIMÃO",
      "lon": "-8.539411418090179",
      "lat": "37.14081066217711"
    },
    {
      "id": "pt.ine.add.PTCONT.1499852",
      "street": "R MOUZINHO DE ALBUQUERQUE",
      "house": "66",
      "postcode": "8500-710",
      "city": "PORTIMÃO",
      "lon": "-8.539411418090179",
      "lat": "37.14081066217711"
    },
    {
      "id": "pt.ine.add.PTCONT.1499853",
      "street": "R MOUZINHO DE ALBUQUERQUE",
      "house": "66",
      "postcode": "8500-710",
      "city": "PORTIMÃO",
      "lon": "-8.539411418090179",
      "lat": "37.14081066217711"
    },
    {
      "id": "pt.ine.add.PTCONT.1499854",
      "street": "R MOUZINHO DE ALBUQUERQUE",
      "house": "66",
      "postcode": "8500-710",
      "city": "PORTIMÃO",
      "lon": "-8.539411418090179",
      "lat": "37.14081066217711"
    },
    {
      "id": "pt.ine.add.PTCONT.1499855",
      "street": "R MOUZINHO DE ALBUQUERQUE",
      "house": "66",
      "postcode": "8500-710",
      "city": "PORTIMÃO",
      "lon": "-8.539411418090179",
      "lat": "37.14081066217711"
    },
    {
      "id": "pt.ine.add.PTCONT.1499856",
      "street": "R MOUZINHO DE ALBUQUERQUE",
      "house": "66",
      "postcode": "8500-710",
      "city": "PORTIMÃO",
      "lon": "-8.539411418090179",
      "lat": "37.14081066217711"
    },
    {
      "id": "pt.ine.add.PTCONT.1499857",
      "street": "R MOUZINHO DE ALBUQUERQUE",
      "house": "66",
      "postcode": "8500-710",
      "city": "PORTIMÃO",
      "lon": "-8.539411418090179",
      "lat": "37.14081066217711"
    },
    {
      "id": "pt.ine.add.PTCONT.1499858",
      "street": "R MOUZINHO DE ALBUQUERQUE",
      "house": "66",
      "postcode": "8500-710",
      "city": "PORTIMÃO",
      "lon": "-8.539411418090179",
      "lat": "37.14081066217711"
    },
    {
      "id": "pt.ine.add.PTCONT.1499859",
      "street": "R MOUZINHO DE ALBUQUERQUE",
      "house": "66",
      "postcode": "8500-710",
      "city": "PORTIMÃO",
      "lon": "-8.539411418090179",
      "lat": "37.14081066217711"
    },
    {
      "id": "pt.ine.add.PTCONT.1499860",
      "street": "R MOUZINHO DE ALBUQUERQUE",
      "house": "66",
      "postcode": "8500-710",
      "city": "PORTIMÃO",
      "lon": "-8.539411418090179",
      "lat": "37.14081066217711"
    },
    {
      "id": "pt.ine.add.PTCONT.1593139",
      "street": "R OLIVENCA",
      "house": "27",
      "postcode": "8500-611",
      "city": "PORTIMÃO",
      "lon": "-8.539277129029719",
      "lat": "37.14095529117013"
    },
    {
      "id": "pt.ine.add.PTCONT.1593140",
      "street": "R OLIVENCA",
      "house": "27",
      "postcode": "8500-611",
      "city": "PORTIMÃO",
      "lon": "-8.539277129029719",
      "lat": "37.14095529117013"
    },
    {
      "id": "pt.ine.add.PTCONT.1593141",
      "street": "R OLIVENCA",
      "house": "27",
      "postcode": "8500-611",
      "city": "PORTIMÃO",
      "lon": "-8.539277129029719",
      "lat": "37.14095529117013"
    },
    {
      "id": "pt.ine.add.PTCONT.1593142",
      "street": "R OLIVENCA",
      "house": "27",
      "postcode": "8500-611",
      "city": "PORTIMÃO",
      "lon": "-8.539277129029719",
      "lat": "37.14095529117013"
    },
    {
      "id": "pt.ine.add.PTCONT.1593143",
      "street": "R OLIVENCA",
      "house": "27",
      "postcode": "8500-611",
      "city": "PORTIMÃO",
      "lon": "-8.539277129029719",
      "lat": "37.14095529117013"
    },
    {
      "id": "pt.ine.add.PTCONT.1625362",
      "street": "R OLIVENCA",
      "house": "23",
      "postcode": "8500-611",
      "city": "PORTIMÃO",
      "lon": "-8.538815866139721",
      "lat": "37.14099291303515"
    },
    {
      "id": "pt.ine.add.PTCONT.1625363",
      "street": "R OLIVENCA",
      "house": "23",
      "postcode": "8500-611",
      "city": "PORTIMÃO",
      "lon": "-8.538815866139721",
      "lat": "37.14099291303515"
    },
    {
      "id": "pt.ine.add.PTCONT.1625364",
      "street": "R OLIVENCA",
      "house": "23",
      "postcode": "8500-611",
      "city": "PORTIMÃO",
      "lon": "-8.538815866139721",
      "lat": "37.14099291303515"
    },
    {
      "id": "pt.ine.add.PTCONT.1625365",
      "street": "R OLIVENCA",
      "house": "23",
      "postcode": "8500-611",
      "city": "PORTIMÃO",
      "lon": "-8.538815866139721",
      "lat": "37.14099291303515"
    },
    {
      "id": "pt.ine.add.PTCONT.1625366",
      "street": "R OLIVENCA",
      "house": "23",
      "postcode": "8500-611",
      "city": "PORTIMÃO",
      "lon": "-8.538815866139721",
      "lat": "37.14099291303515"
    },
    {
      "id": "pt.ine.add.PTCONT.1633440",
      "street": "R VICENTE VAZ DAS VACAS",
      "house": "34",
      "postcode": "8500-746",
      "city": "PORTIMÃO",
      "lon": "-8.539140335245778",
      "lat": "37.140631380114876"
    },
    {
      "id": "pt.ine.add.PTCONT.1749837",
      "street": "R VICENTE VAZ DAS VACAS",
      "house": "40",
      "postcode": "8500-746",
      "city": "PORTIMÃO",
      "lon": "-8.539387799816689",
      "lat": "37.14060350053424"
    },
    {
      "id": "pt.ine.add.PTCONT.1749838",
      "street": "R VICENTE VAZ DAS VACAS",
      "house": "40",
      "postcode": "8500-746",
      "city": "PORTIMÃO",
      "lon": "-8.539387799816689",
      "lat": "37.14060350053424"
    },
    {
      "id": "pt.ine.add.PTCONT.1749839",
      "street": "R VICENTE VAZ DAS VACAS",
      "house": "40",
      "postcode": "8500-746",
      "city": "PORTIMÃO",
      "lon": "-8.539387799816689",
      "lat": "37.14060350053424"
    },
    {
      "id": "pt.ine.add.PTCONT.1749840",
      "street": "R VICENTE VAZ VACAS QUARENTA",
      "house": "QUARENTA",
      "postcode": "8500-746",
      "city": "PORTIMÃO",
      "lon": "-8.539387799816689",
      "lat": "37.14060350053424"
    },
    {
      "id": "pt.ine.add.PTCONT.1749841",
      "street": "R VICENTE VAZ DAS VACAS",
      "house": "40",
      "postcode": "8500-746",
      "city": "PORTIMÃO",
      "lon": "-8.539387799816689",
      "lat": "37.14060350053424"
    },
    {
      "id": "pt.ine.add.PTCONT.1749842",
      "street": "R VICENTE VAZ DAS VACAS",
      "house": "40",
      "postcode": "8500-746",
      "city": "PORTIMÃO",
      "lon": "-8.539387799816689",
      "lat": "37.14060350053424"
    },
    {
      "id": "pt.ine.add.PTCONT.1749843",
      "street": "R VICENTE VAZ DAS VACAS",
      "house": "40",
      "postcode": "8500-746",
      "city": "PORTIMÃO",
      "lon": "-8.539387799816689",
      "lat": "37.14060350053424"
    },
    {
      "id": "pt.ine.add.PTCONT.1749844",
      "street": "R VICENTE VAZ DAS VACAS",
      "house": "40",
      "postcode": "8500-746",
      "city": "PORTIMÃO",
      "lon": "-8.539387799816689",
      "lat": "37.14060350053424"
    },
    {
      "id": "pt.ine.add.PTCONT.1749845",
      "street": "R VICENTE VAZ DAS VACAS",
      "house": "40",
      "postcode": "8500-746",
      "city": "PORTIMÃO",
      "lon": "-8.539387799816689",
      "lat": "37.14060350053424"
    },
    {
      "id": "pt.ine.add.PTCONT.1755337",
      "street": "R OLIVENCA",
      "house": "25",
      "postcode": "8500-611",
      "city": "PORTIMÃO",
      "lon": "-8.538995801950444",
      "lat": "37.14096526538466"
    },
    {
      "id": "pt.ine.add.PTCONT.1755338",
      "street": "R OLIVENCA",
      "house": "25",
      "postcode": "8500-611",
      "city": "PORTIMÃO",
      "lon": "-8.538995801950444",
      "lat": "37.14096526538466"
    },
    {
      "id": "pt.ine.add.PTCONT.1755339",
      "street": "R OLIVENCA",
      "house": "25",
      "postcode": "8500-611",
      "city": "PORTIMÃO",
      "lon": "-8.538995801950444",
      "lat": "37.14096526538466"
    },
    {
      "id": "pt.ine.add.PTCONT.1755982",
      "street": "R OLIVENCA",
      "house": "25",
      "postcode": "8500-611",
      "city": "PORTIMÃO",
      "lon": "-8.538995801950444",
      "lat": "37.14096526538466"
    },
    {
      "id": "pt.ine.add.PTCONT.1756006",
      "street": "R OLIVENCA",
      "house": "25",
      "postcode": "8500-611",
      "city": "PORTIMÃO",
      "lon": "-8.538995801950444",
      "lat": "37.14096526538466"
    }
  ]
}