{
  "data": {
    "distrito": "Lisboa",
    "concelho": "Sintra",
    "freguesia": "Colares",
    "OBJECTID": 1350,
    "BGRI2021": "11110500122",
    "DT21": "11",
    "DTMN21": "1111",
    "DTMNFR21": "111105",
    "DTMNFRSEC21": "111105001",
    "SECNUM21": "001",
    "SSNUM21": "22",
    "SECSSNUM21": "00122",
    "OBJECTID_1": 114602,
    "DT": "11",
    "CC": "11",
    "fr": "05",
    "SEC": "001",
    "SS": "22"
  },
  "addresses": [
    {
      "id": "pt.ine.add.PTCONT.2465768",
      "street": "AV LUIS AUGUSTO COLARES",
      "house": "117",
      "postcode": "2705-109",
      "city": "COLARES",
      "lon": "-9.461128761705565",
      "lat": "38.83845440002308"
    },
    {
      "id": "pt.ine.add.PTCONT.2501934",
      "street": "R S LOURENÇO",
      "house": "4",
      "postcode": "2705-111",
      "city": "COLARES",
      "lon": "-9.46116430988798",
      "lat": "38.83850804070015"
    },
    {
      "id": "pt.ine.add.PTCONT.2643363",
      "street": "AV LUIS AUGUSTO COLARES",
      "house": "115",
      "postcode": "2705-109",
      "city": "COLARES",
      "lon": "-9.461278618643544",
      "lat": "38.83846170346009"
    },
    {
      "id": "pt.ine.add.PTCONT.2912236",
      "street": "AV LUIS AUGUSTO COLARES",
      "house": "119",
      "postcode": "2705-109",
      "city": "COLARES",
      "lon": "-9.461070017041433",
      "lat": "38.8383920155997"
    },
    {
      "id": "pt.ine.add.PTCONT.3031389",
      "street": "CC LUISINHO",
      "house": "21",
      "postcode": "2705-111",
      "city": "COLARES",
      "lon": "-9.460507309000405",
      "lat": "38.83847947955497"
    },
    {
      "id": "pt.ine.add.PTCONT.3031390",
      "street": "CC LUISINHO",
      "house": "02 B",
      "postcode": "2705-111",
      "city": "COLARES",
      "lon": "-9.460507309000405",
      "lat": "38.83847947955497"
    },
    {
      "id": "pt.ine.add.PTCONT.3034010",
      "street": "CC LUISINHO",
      "house": "2",
      "postcode": "2705-111",
      "city": "COLARES",
      "lon": "-9.460507309000405",
      "lat": "38.83847947955497"
    },
    {
      "id": "pt.ine.add.PTCONT.3070445",
      "street": "AV LUIS AUGUSTO COLARES",
      "house": "123",
      "postcode": "2705-109",
      "city": "COLARES",
      "lon": "-9.460897298500257",
      "lat": "38.8383939792791"
    },
    {
      "id": "pt.ine.add.PTCONT.3162082",
      "street": "AV LUIS AUGUSTO COLARES",
      "house": "125",
      "postcode": "2705-109",
      "city": "COLARES",
      "lon": "-9.460769634080874",
      "lat": "38.838341385677246"
    },
    {
      "id": "pt.ine.add.PTCONT.3390636",
      "street": "R S LOURENÇO",
      "house": "12",
      "postcode": "2705-111",
      "city": "COLARES",
      "lon": "-9.460853081271198",
      "lat": "38.83849356424299"
    },
    {
      "id": "pt.ine.add.PTCONT.3419566",
      "street": "AV LUIS AUGUSTO COLARES",
      "house": "121",
      "postcode": "2705-109",
      "city": "COLARES",
      "lon": "-9.461011439868358",
      "lat": "38.83833863672198"
    },
    {
      "id": "pt.ine.add.PTCONT.3451665",
      "street": "R S LOURENCO",
      "house": "21",
      "postcode": "2705-111",
      "city": "COLARES",
      "lon": "-9.460507309000405",
      "lat": "38.83847947955497"
    }
  ]
}