{
  "data": {
    "distrito": "Portalegre",
    "concelho": "Nisa",
    "freguesia": "Montalvão",
    "OBJECTID": 224,
    "BGRI2021": "12120500210",
    "DT21": "12",
    "DTMN21": "1212",
    "DTMNFR21": "121205",
    "DTMNFRSEC21": "121205002",
    "SECNUM21": "002",
    "SSNUM21": "10",
    "SECSSNUM21": "00210",
    "OBJECTID_1": 123496,
    "DT": "12",
    "CC": "12",
    "fr": "05",
    "SEC": "002",
    "SS": "10"
  },
  "addresses": [
    {
      "id": "pt.ine.add.PTCONT.3461533",
      "street": "R BERNARDINO",
      "house": "7",
      "postcode": "6050-431",
      "city": "MONTALVÃO",
      "lon": "-7.525819370640617",
      "lat": "39.59100550090188"
    },
    {
      "id": "pt.ine.add.PTCONT.3476290",
      "street": "TV POSTO",
      "house": "1",
      "postcode": "6050-431",
      "city": "MONTALVÃO",
      "lon": "-7.526047702827363",
      "lat": "39.59152007818102"
    },
    {
      "id": "pt.ine.add.PTCONT.3480798",
      "street": "R MONTE DO CARREIRO",
      "house": "9",
      "postcode": "6050-432",
      "city": "MONTALVÃO",
      "lon": "-7.525882688428973",
      "lat": "39.59175339115138"
    },
    {
      "id": "pt.ine.add.PTCONT.3488570",
      "street": "R POSTO",
      "house": "16",
      "postcode": "6050-431",
      "city": "MONTALVÃO",
      "lon": "-7.525714259446763",
      "lat": "39.59178437216918"
    },
    {
      "id": "pt.ine.add.PTCONT.3488571",
      "street": "R POSTO",
      "house": "24",
      "postcode": "6050-431",
      "city": "MONTALVÃO",
      "lon": "-7.525641536180641",
      "lat": "39.591373847633285"
    },
    {
      "id": "pt.ine.add.PTCONT.3501015",
      "street": "TV BERNARDINO",
      "house": "5",
      "postcode": "6050-431",
      "city": "MONTALVÃO",
      "lon": "-7.52640014541557",
      "lat": "39.59115264267164"
    },
    {
      "id": "pt.ine.add.PTCONT.3510588",
      "street": "TV BERNARDINO",
      "house": "3",
      "postcode": "6050-431",
      "city": "MONTALVÃO",
      "lon": "-7.526215899226843",
      "lat": "39.5913655680354"
    },
    {
      "id": "pt.ine.add.PTCONT.3518127",
      "street": "SIT MONTALVAO",
      "house": "5",
      "postcode": "6050-431",
      "city": "MONTALVÃO",
      "lon": "-7.526482886810487",
      "lat": "39.591008966837315"
    },
    {
      "id": "pt.ine.add.PTCONT.3519994",
      "street": "TV BERNARDINO",
      "house": "1",
      "postcode": "6050-431",
      "city": "MONTALVÃO",
      "lon": "-7.526166302517018",
      "lat": "39.591437790711886"
    },
    {
      "id": "pt.ine.add.PTCONT.3522439",
      "street": "R MONTE DO CARREIRO",
      "house": "5",
      "postcode": "6050-432",
      "city": "MONTALVÃO",
      "lon": "-7.525856497534645",
      "lat": "39.59208650359003"
    },
    {
      "id": "pt.ine.add.PTCONT.3526792",
      "street": "R POSTO",
      "house": "28",
      "postcode": "6050-431",
      "city": "MONTALVÃO",
      "lon": "-7.525445814264621",
      "lat": "39.59103942807791"
    },
    {
      "id": "pt.ine.add.PTCONT.3532526",
      "street": "R POSTO",
      "house": "8",
      "postcode": "6050-431",
      "city": "MONTALVÃO",
      "lon": "-7.525769308862617",
      "lat": "39.591955945564656"
    }
  ]
}