{
  "data": {
    "distrito": "Viseu",
    "concelho": "Viseu",
    "freguesia": "Coutos de Viseu",
    "OBJECTID": 322,
    "BGRI2021": "18233700203",
    "DT21": "18",
    "DTMN21": "1823",
    "DTMNFR21": "182337",
    "DTMNFRSEC21": "182337002",
    "SECNUM21": "002",
    "SSNUM21": "03",
    "SECSSNUM21": "00203",
    "OBJECTID_1": 201699,
    "DT": "18",
    "CC": "23",
    "fr": "37",
    "SEC": "002",
    "SS": "03"
  },
  "addresses": [
    {
      "id": "pt.ine.add.PTCONT.5458679",
      "street": "R SOITELO",
      "house": "8",
      "postcode": "3510-607",
      "city": "COUTO DE CIMA",
      "lon": "-8.00462917019845",
      "lat": "40.67833683666735"
    },
    {
      "id": "pt.ine.add.PTCONT.5469522",
      "street": "R CAPELA",
      "house": "",
      "postcode": "3510-607",
      "city": "COUTO DE CIMA",
      "lon": "-8.004506111037202",
      "lat": "40.68082211670321"
    },
    {
      "id": "pt.ine.add.PTCONT.5474946",
      "street": "R SOITELO",
      "house": "2",
      "postcode": "3510-607",
      "city": "COUTO DE CIMA",
      "lon": "-8.00441710955575",
      "lat": "40.677895348813365"
    },
    {
      "id": "pt.ine.add.PTCONT.5490528",
      "street": "R LAMEIRA",
      "house": "",
      "postcode": "3510-607",
      "city": "COUTO DE CIMA",
      "lon": "-8.004340543525018",
      "lat": "40.6808039219047"
    },
    {
      "id": "pt.ine.add.PTCONT.5505218",
      "street": "R SOITELO",
      "house": "4",
      "postcode": "3510-607",
      "city": "COUTO DE CIMA",
      "lon": "-8.004665311832294",
      "lat": "40.67799468169502"
    },
    {
      "id": "pt.ine.add.PTCONT.5512712",
      "street": "R CAPELA",
      "house": "14",
      "postcode": "3510-607",
      "city": "COUTO DE CIMA",
      "lon": "-8.004837557047091",
      "lat": "40.68069641355138"
    },
    {
      "id": "pt.ine.add.PTCONT.5518900",
      "street": "R LAMEIRA",
      "house": "6",
      "postcode": "3510-607",
      "city": "COUTO DE CIMA",
      "lon": "-8.004269692554033",
      "lat": "40.68074080693871"
    },
    {
      "id": "pt.ine.add.PTCONT.5518930",
      "street": "AV NSA SRA DE LURDES",
      "house": "72",
      "postcode": "3510-602",
      "city": "COUTO DE CIMA",
      "lon": "-8.002064621375304",
      "lat": "40.671174866890965"
    },
    {
      "id": "pt.ine.add.PTCONT.5521288",
      "street": "R CAPELA",
      "house": "",
      "postcode": "3510-607",
      "city": "COUTO DE CIMA",
      "lon": "-8.005311014794065",
      "lat": "40.68053484618911"
    },
    {
      "id": "pt.ine.add.PTCONT.5527618",
      "street": "R SOITELO",
      "house": "22",
      "postcode": "3510-607",
      "city": "COUTO DE CIMA",
      "lon": "-8.005254090915708",
      "lat": "40.679373120927956"
    },
    {
      "id": "pt.ine.add.PTCONT.5537413",
      "street": "R CHOIRAS",
      "house": "3",
      "postcode": "3510-607",
      "city": "COUTO DE CIMA",
      "lon": "-8.00481405502281",
      "lat": "40.68061534124633"
    },
    {
      "id": "pt.ine.add.PTCONT.5562920",
      "street": "EM 317",
      "house": "",
      "postcode": "3510-607",
      "city": "COUTO DE CIMA",
      "lon": "-8.003884927095802",
      "lat": "40.677849728736746"
    },
    {
      "id": "pt.ine.add.PTCONT.5569690",
      "street": "AV NSA SRA DE LURDES",
      "house": "88",
      "postcode": "3510-602",
      "city": "COUTO DE CIMA",
      "lon": "-8.002949126446406",
      "lat": "40.67247260840925"
    },
    {
      "id": "pt.ine.add.PTCONT.5578901",
      "street": "R CAPELA",
      "house": "26",
      "postcode": "3510-607",
      "city": "COUTO DE CIMA",
      "lon": "-8.004434965517914",
      "lat": "40.68091208875845"
    },
    {
      "id": "pt.ine.add.PTCONT.5581979",
      "street": "AV FIEIS DEUS",
      "house": "11",
      "postcode": "3510-602",
      "city": "COUTO DE CIMA",
      "lon": "-8.001623395437184",
      "lat": "40.67302042016436"
    },
    {
      "id": "pt.ine.add.PTCONT.5584423",
      "street": "R SOITO",
      "house": "1",
      "postcode": "3510-607",
      "city": "COUTO DE CIMA",
      "lon": "-8.004851387882628",
      "lat": "40.679651833455836"
    },
    {
      "id": "pt.ine.add.PTCONT.5596459",
      "street": "R ESMOITADA",
      "house": "4",
      "postcode": "3510-602",
      "city": "COUTO DE CIMA",
      "lon": "-8.00235732418849",
      "lat": "40.67269706839472"
    },
    {
      "id": "pt.ine.add.PTCONT.5602280",
      "street": "R CAPELA",
      "house": "3",
      "postcode": "3510-607",
      "city": "COUTO DE CIMA",
      "lon": "-8.00496813838877",
      "lat": "40.68045341996722"
    },
    {
      "id": "pt.ine.add.PTCONT.5602862",
      "street": "R SOITELO",
      "house": "28",
      "postcode": "3510-607",
      "city": "COUTO DE CIMA",
      "lon": "-8.00539489828216",
      "lat": "40.67996761561552"
    },
    {
      "id": "pt.ine.add.PTCONT.5638058",
      "street": "R SOITELO",
      "house": "18",
      "postcode": "3510-607",
      "city": "COUTO DE CIMA",
      "lon": "-8.005183722594127",
      "lat": "40.679057863266245"
    },
    {
      "id": "pt.ine.add.PTCONT.5645454",
      "street": "CAM CAMINHO",
      "house": "",
      "postcode": "3510-587",
      "city": "COUTO DE BAIXO",
      "lon": "-8.002201667359898",
      "lat": "40.67366944758328"
    },
    {
      "id": "pt.ine.add.PTCONT.5649059",
      "street": "AV NSA SRA DE LURDES",
      "house": "",
      "postcode": "3510-602",
      "city": "COUTO DE CIMA",
      "lon": "-8.003220192104976",
      "lat": "40.6729681966229"
    },
    {
      "id": "pt.ine.add.PTCONT.5654310",
      "street": "R CAPELA",
      "house": "",
      "postcode": "3510-607",
      "city": "COUTO DE CIMA",
      "lon": "-8.005133498544739",
      "lat": "40.68057967522969"
    },
    {
      "id": "pt.ine.add.PTCONT.5655466",
      "street": "AV NSA SRA LURDES",
      "house": "2",
      "postcode": "3510-602",
      "city": "COUTO DE CIMA",
      "lon": "-8.00163568266762",
      "lat": "40.67278630039956"
    }
  ]
}