{
  "data": {
    "distrito": "Viseu",
    "concelho": "Viseu",
    "freguesia": "Coutos de Viseu",
    "OBJECTID": 1420,
    "BGRI2021": "18233700225",
    "DT21": "18",
    "DTMN21": "1823",
    "DTMNFR21": "182337",
    "DTMNFRSEC21": "182337002",
    "SECNUM21": "002",
    "SSNUM21": "25",
    "SECSSNUM21": "00225",
    "OBJECTID_1": 202240,
    "DT": "18",
    "CC": "23",
    "fr": "37",
    "SEC": "002",
    "SS": "25"
  },
  "addresses": [
    {
      "id": "pt.ine.add.PTCONT.5443260",
      "street": "R DA EIRA",
      "house": "",
      "postcode": "3510-607",
      "city": "COUTO DE CIMA",
      "lon": "-8.00291308944208",
      "lat": "40.68491766502257"
    },
    {
      "id": "pt.ine.add.PTCONT.5485023",
      "street": "BR EIRA",
      "house": "",
      "postcode": "3510-607",
      "city": "COUTO DE CIMA",
      "lon": "-8.002048040234929",
      "lat": "40.68568212193595"
    },
    {
      "id": "pt.ine.add.PTCONT.5505984",
      "street": "R LAMEIRO VELHO",
      "house": "",
      "postcode": "3510-604",
      "city": "COUTO DE CIMA",
      "lon": "-7.985908372973148",
      "lat": "40.69828784226012"
    },
    {
      "id": "pt.ine.add.PTCONT.5509727",
      "street": "AV PRINCIPAL 1318",
      "house": "",
      "postcode": "3510-604",
      "city": "COUTO DE CIMA",
      "lon": "-7.985316464267163",
      "lat": "40.69843116770056"
    },
    {
      "id": "pt.ine.add.PTCONT.5514262",
      "street": "R EIRA",
      "house": "",
      "postcode": "3510-607",
      "city": "COUTO DE CIMA",
      "lon": "-8.002110573417601",
      "lat": "40.683953208737385"
    },
    {
      "id": "pt.ine.add.PTCONT.5515119",
      "street": "AV PRINCIPAL 1318",
      "house": "1",
      "postcode": "3510-604",
      "city": "COUTO DE CIMA",
      "lon": "-7.985651766395204",
      "lat": "40.69661256523488"
    },
    {
      "id": "pt.ine.add.PTCONT.5546509",
      "street": "R BARQUINHO",
      "house": "",
      "postcode": "3510-607",
      "city": "COUTO DE CIMA",
      "lon": "-8.00481946121897",
      "lat": "40.683965255601095"
    },
    {
      "id": "pt.ine.add.PTCONT.5566213",
      "street": "R EIRA",
      "house": "",
      "postcode": "3510-607",
      "city": "COUTO DE CIMA",
      "lon": "-8.002888589258173",
      "lat": "40.68534988341206"
    },
    {
      "id": "pt.ine.add.PTCONT.5580877",
      "street": "R EIRA",
      "house": "23",
      "postcode": "3510-607",
      "city": "COUTO DE CIMA",
      "lon": "-8.002664425202596",
      "lat": "40.68504345610538"
    },
    {
      "id": "pt.ine.add.PTCONT.5586451",
      "street": "R EIRA",
      "house": "27",
      "postcode": "3510-607",
      "city": "COUTO DE CIMA",
      "lon": "-8.003291195025149",
      "lat": "40.685143218917496"
    },
    {
      "id": "pt.ine.add.PTCONT.5588397",
      "street": "R EIRAS",
      "house": "9",
      "postcode": "3510-604",
      "city": "COUTO DE CIMA",
      "lon": "-7.985384829473149",
      "lat": "40.69961992875171"
    },
    {
      "id": "pt.ine.add.PTCONT.5606506",
      "street": "AV PRINCIPAL 1318",
      "house": "5",
      "postcode": "3510-604",
      "city": "COUTO DE CIMA",
      "lon": "-7.985256289730969",
      "lat": "40.69889035091708"
    },
    {
      "id": "pt.ine.add.PTCONT.5608950",
      "street": "R MALHADOURA",
      "house": "",
      "postcode": "3510-607",
      "city": "COUTO DE CIMA",
      "lon": "-8.00253159445378",
      "lat": "40.68643009512079"
    },
    {
      "id": "pt.ine.add.PTCONT.5627366",
      "street": "R EIRA",
      "house": "26",
      "postcode": "3510-607",
      "city": "COUTO DE CIMA",
      "lon": "-8.002403543507416",
      "lat": "40.685367345573006"
    },
    {
      "id": "pt.ine.add.PTCONT.5627370",
      "street": "R LAMEIRO PEQUENO",
      "house": "",
      "postcode": "3510-604",
      "city": "COUTO DE CIMA",
      "lon": "-7.986334021531666",
      "lat": "40.69842346074703"
    },
    {
      "id": "pt.ine.add.PTCONT.5640462",
      "street": "R EIRA",
      "house": "",
      "postcode": "3510-607",
      "city": "COUTO DE CIMA",
      "lon": "-8.00329376341678",
      "lat": "40.68381946821603"
    },
    {
      "id": "pt.ine.add.PTCONT.5644432",
      "street": "AV PRINCIPAL 1318",
      "house": "",
      "postcode": "3510-604",
      "city": "COUTO DE CIMA",
      "lon": "-7.985327738904528",
      "lat": "40.69868332502864"
    },
    {
      "id": "pt.ine.add.PTCONT.5651876",
      "street": "AV PRINCIPAL 1318",
      "house": "17",
      "postcode": "3510-604",
      "city": "COUTO DE CIMA",
      "lon": "-7.984152572147642",
      "lat": "40.70039278410242"
    },
    {
      "id": "pt.ine.add.PTCONT.5654215",
      "street": "AV PRINCIPAL 1318",
      "house": "",
      "postcode": "3510-604",
      "city": "COUTO DE CIMA",
      "lon": "-7.985209659137988",
      "lat": "40.69857511257937"
    }
  ]
}