{
  "data": {
    "distrito": "Beja",
    "concelho": "Cuba",
    "freguesia": "Cuba",
    "OBJECTID": 238,
    "BGRI2021": "02070100218",
    "DT21": "02",
    "DTMN21": "0207",
    "DTMNFR21": "020701",
    "DTMNFRSEC21": "020701002",
    "SECNUM21": "002",
    "SSNUM21": "18",
    "SECSSNUM21": "00218",
    "OBJECTID_1": 14789,
    "DT": "02",
    "CC": "07",
    "fr": "01",
    "SEC": "002",
    "SS": "18"
  },
  "addresses": [
    {
      "id": "pt.ine.add.PTCONT.381421",
      "street": "R SOCIEDADE FILARMÓNICA CUBENSE 1 DE DEZEMBRO",
      "house": "21",
      "postcode": "7940-140",
      "city": "CUBA",
      "lon": "-7.893395522714323",
      "lat": "38.166111953611235"
    },
    {
      "id": "pt.ine.add.PTCONT.387320",
      "street": "R SOCIEDADE FILARMONICA CUBENSE 1 DE DEZEMBRO",
      "house": "25",
      "postcode": "7940-140",
      "city": "CUBA",
      "lon": "-7.89346682348854",
      "lat": "38.16612839554162"
    },
    {
      "id": "pt.ine.add.PTCONT.399101",
      "street": "R SOCORRO",
      "house": "2",
      "postcode": "7940-185",
      "city": "CUBA",
      "lon": "-7.893468080474878",
      "lat": "38.165908605021414"
    },
    {
      "id": "pt.ine.add.PTCONT.409151",
      "street": "R SOCIEDADE FILARMONICA CUBENSE 1 DE DEZEMBRO",
      "house": "27",
      "postcode": "7940-140",
      "city": "CUBA",
      "lon": "-7.893540606818478",
      "lat": "38.1661648731497"
    },
    {
      "id": "pt.ine.add.PTCONT.455378",
      "street": "R ESPERANÇA",
      "house": "12",
      "postcode": "7940-135",
      "city": "CUBA",
      "lon": "-7.893327292794061",
      "lat": "38.16603974215815"
    }
  ]
}