{
  "data": {
    "distrito": "Beja",
    "concelho": "Cuba",
    "freguesia": "Cuba",
    "OBJECTID": 186,
    "BGRI2021": "02070100258",
    "DT21": "02",
    "DTMN21": "0207",
    "DTMNFR21": "020701",
    "DTMNFRSEC21": "020701002",
    "SECNUM21": "002",
    "SSNUM21": "58",
    "SECSSNUM21": "00258",
    "OBJECTID_1": 14751,
    "DT": "02",
    "CC": "07",
    "fr": "01",
    "SEC": "002",
    "SS": "58"
  },
  "addresses": [
    {
      "id": "pt.ine.add.PTCONT.353326",
      "street": "R AMÁLIA RODRIGUES",
      "house": "6",
      "postcode": "7940-148",
      "city": "CUBA",
      "lon": "-7.894869174521676",
      "lat": "38.16920210965423"
    },
    {
      "id": "pt.ine.add.PTCONT.354936",
      "street": "R ANTÓNIO MARIA FIALHO ILDEFONSO",
      "house": "7",
      "postcode": "7940-148",
      "city": "CUBA",
      "lon": "-7.895120525503344",
      "lat": "38.168984861445395"
    },
    {
      "id": "pt.ine.add.PTCONT.363073",
      "street": "R AMALIA RODRIGUES",
      "house": "33",
      "postcode": "7940-148",
      "city": "CUBA",
      "lon": "-7.894973958979369",
      "lat": "38.169254338435245"
    },
    {
      "id": "pt.ine.add.PTCONT.370501",
      "street": "R ANTÓNIO LUIS FIALHO",
      "house": "1",
      "postcode": "7940-148",
      "city": "CUBA",
      "lon": "-7.894824349549851",
      "lat": "38.16886711662921"
    },
    {
      "id": "pt.ine.add.PTCONT.371868",
      "street": "R ANTÓNIO LUIS FIALHO",
      "house": "5",
      "postcode": "7940-148",
      "city": "CUBA",
      "lon": "-7.895017136686233",
      "lat": "38.16895867528456"
    },
    {
      "id": "pt.ine.add.PTCONT.403473",
      "street": "R ANTÓNIO LUIS FIALHO",
      "house": "3",
      "postcode": "7940-148",
      "city": "CUBA",
      "lon": "-7.8949234921169",
      "lat": "38.16890727724282"
    },
    {
      "id": "pt.ine.add.PTCONT.430048",
      "street": "R AMÁLIA RODRIGUES",
      "house": "4",
      "postcode": "7940-148",
      "city": "CUBA",
      "lon": "-7.8947665298486305",
      "lat": "38.169183883348104"
    },
    {
      "id": "pt.ine.add.PTCONT.439284",
      "street": "R AMÁLIA RODRIGUES",
      "house": "2",
      "postcode": "7940-148",
      "city": "CUBA",
      "lon": "-7.894648376364195",
      "lat": "38.16913395516629"
    }
  ]
}