{
  "data": {
    "distrito": "Beja",
    "concelho": "Castro Verde",
    "freguesia": "União das freguesias de Castro Verde e Casével",
    "OBJECTID": 43,
    "BGRI2021": "02060600432",
    "DT21": "02",
    "DTMN21": "0206",
    "DTMNFR21": "020606",
    "DTMNFRSEC21": "020606004",
    "SECNUM21": "004",
    "SSNUM21": "32",
    "SECSSNUM21": "00432",
    "OBJECTID_1": 14297,
    "DT": "02",
    "CC": "06",
    "fr": "06",
    "SEC": "004",
    "SS": "32"
  },
  "addresses": [
    {
      "id": "pt.ine.add.PTCONT.362224",
      "street": "MTE IRIA NOVA",
      "house": "",
      "postcode": "7780-182",
      "city": "CASTRO VERDE",
      "lon": "-8.030978062019857",
      "lat": "37.69812994654113"
    },
    {
      "id": "pt.ine.add.PTCONT.376242",
      "street": "MTE RONQUENHO",
      "house": "",
      "postcode": "7780-182",
      "city": "CASTRO VERDE",
      "lon": "-8.037484723501226",
      "lat": "37.69962201180928"
    },
    {
      "id": "pt.ine.add.PTCONT.383652",
      "street": "MTE RONQUENHO",
      "house": "",
      "postcode": "7780-182",
      "city": "CASTRO VERDE",
      "lon": "-8.03721239697087",
      "lat": "37.699765946695166"
    },
    {
      "id": "pt.ine.add.PTCONT.394750",
      "street": "MTE IRIA NOVA",
      "house": "",
      "postcode": "7780-182",
      "city": "CASTRO VERDE",
      "lon": "-8.030909966347801",
      "lat": "37.6981749363155"
    },
    {
      "id": "pt.ine.add.PTCONT.397792",
      "street": "MTE IRIA NOVA",
      "house": "",
      "postcode": "7780-182",
      "city": "CASTRO VERDE",
      "lon": "-8.030819143106434",
      "lat": "37.698255945354184"
    },
    {
      "id": "pt.ine.add.PTCONT.398584",
      "street": "MTE IRIA VELHA",
      "house": "",
      "postcode": "7780-182",
      "city": "CASTRO VERDE",
      "lon": "-8.033918481011463",
      "lat": "37.695411510063245"
    },
    {
      "id": "pt.ine.add.PTCONT.415698",
      "street": "MTE DA AMENDOEIRA",
      "house": "",
      "postcode": "7780-182",
      "city": "CASTRO VERDE",
      "lon": "-8.032524659977458",
      "lat": "37.70319475575633"
    },
    {
      "id": "pt.ine.add.PTCONT.430813",
      "street": "MTE RONQUENHO",
      "house": "",
      "postcode": "7780-182",
      "city": "CASTRO VERDE",
      "lon": "-8.037348583546132",
      "lat": "37.699675959845365"
    },
    {
      "id": "pt.ine.add.PTCONT.446623",
      "street": "MTE NEVES",
      "house": "",
      "postcode": "7780-182",
      "city": "CASTRO VERDE",
      "lon": "-8.041008285499924",
      "lat": "37.71115728879134"
    },
    {
      "id": "pt.ine.add.PTCONT.449325",
      "street": "MTE IRIA VELHA",
      "house": "",
      "postcode": "7780-182",
      "city": "CASTRO VERDE",
      "lon": "-8.033850401613154",
      "lat": "37.6954474918139"
    },
    {
      "id": "pt.ine.add.PTCONT.455489",
      "street": "MTE IRIA VELHA",
      "house": "",
      "postcode": "7780-182",
      "city": "CASTRO VERDE",
      "lon": "-8.03375966905247",
      "lat": "37.69546543492478"
    }
  ]
}