{
  "data": {
    "distrito": "Setúbal",
    "concelho": "Grândola",
    "freguesia": "União das freguesias de Grândola e Santa Margarida da Serra",
    "OBJECTID": 515,
    "BGRI2021": "15050601025",
    "DT21": "15",
    "DTMN21": "1505",
    "DTMNFR21": "150506",
    "DTMNFRSEC21": "150506010",
    "SECNUM21": "010",
    "SSNUM21": "25",
    "SECSSNUM21": "01025",
    "OBJECTID_1": 163412,
    "DT": "15",
    "CC": "05",
    "fr": "06",
    "SEC": "010",
    "SS": "25"
  },
  "addresses": [
    {
      "id": "pt.ine.add.PTCONT.4675261",
      "street": "HRD PINHAS",
      "house": "",
      "postcode": "7570-224",
      "city": "GRÂNDOLA",
      "lon": "-8.507139136527632",
      "lat": "38.2194349929706"
    },
    {
      "id": "pt.ine.add.PTCONT.4737424",
      "street": "",
      "house": "",
      "postcode": "7570-192",
      "city": "GRÂNDOLA",
      "lon": "-8.501863152986243",
      "lat": "38.228293187362794"
    },
    {
      "id": "pt.ine.add.PTCONT.4787464",
      "street": "",
      "house": "",
      "postcode": "7570-192",
      "city": "GRÂNDOLA",
      "lon": "-8.513679180628966",
      "lat": "38.237215313956476"
    },
    {
      "id": "pt.ine.add.PTCONT.4812665",
      "street": "",
      "house": "",
      "postcode": "7570-192",
      "city": "GRÂNDOLA",
      "lon": "-8.519969246497153",
      "lat": "38.23962671968987"
    },
    {
      "id": "pt.ine.add.PTCONT.4829699",
      "street": "",
      "house": "",
      "postcode": "7570-192",
      "city": "GRÂNDOLA",
      "lon": "-8.521738529371557",
      "lat": "38.23803874698248"
    },
    {
      "id": "pt.ine.add.PTCONT.4829700",
      "street": "HRD PINHAS",
      "house": "",
      "postcode": "7570-192",
      "city": "GRÂNDOLA",
      "lon": "-8.507141805650265",
      "lat": "38.21988676247323"
    },
    {
      "id": "pt.ine.add.PTCONT.4829701",
      "street": "HRD PINHAS",
      "house": "",
      "postcode": "7570-192",
      "city": "GRÂNDOLA",
      "lon": "-8.507141805650265",
      "lat": "38.21988676247323"
    },
    {
      "id": "pt.ine.add.PTCONT.4932908",
      "street": "COURELA DO PINHEIRO",
      "house": "",
      "postcode": "7570-192",
      "city": "GRÂNDOLA",
      "lon": "-8.519364517109482",
      "lat": "38.23450966820057"
    },
    {
      "id": "pt.ine.add.PTCONT.4943940",
      "street": "COURELA DA LAGOINHA",
      "house": "",
      "postcode": "7570-192",
      "city": "GRÂNDOLA",
      "lon": "-8.516671076359316",
      "lat": "38.2388068700073"
    },
    {
      "id": "pt.ine.add.PTCONT.5058238",
      "street": "COURELA DA FONTE",
      "house": "",
      "postcode": "7570-192",
      "city": "GRÂNDOLA",
      "lon": "-8.516325548143678",
      "lat": "38.24148027067889"
    }
  ]
}