{
  "data": {
    "distrito": "Braga",
    "concelho": "Guimarães",
    "freguesia": "União das freguesias de Tabuadelo e São Faustino",
    "OBJECTID": 1713,
    "BGRI2021": "03089100106",
    "DT21": "03",
    "DTMN21": "0308",
    "DTMNFR21": "030891",
    "DTMNFRSEC21": "030891001",
    "SECNUM21": "001",
    "SSNUM21": "06",
    "SECSSNUM21": "00106",
    "OBJECTID_1": 27449,
    "DT": "03",
    "CC": "08",
    "fr": "91",
    "SEC": "001",
    "SS": "06"
  },
  "addresses": [
    {
      "id": "pt.ine.add.PTCONT.481355",
      "street": "R 5 DE OUTUBRO",
      "house": "15",
      "postcode": "4835-445",
      "city": "TABUADELO",
      "lon": "-8.290579822058701",
      "lat": "41.402349220296095"
    },
    {
      "id": "pt.ine.add.PTCONT.501988",
      "street": "R 5 DE OUTUBRO",
      "house": "21",
      "postcode": "4835-445",
      "city": "TABUADELO",
      "lon": "-8.290639941257151",
      "lat": "41.40248419800756"
    },
    {
      "id": "pt.ine.add.PTCONT.525443",
      "street": "R 5 DE OUTUBRO",
      "house": "83",
      "postcode": "4835-445",
      "city": "TABUADELO",
      "lon": "-8.291417754804264",
      "lat": "41.40269022249336"
    },
    {
      "id": "pt.ine.add.PTCONT.552705",
      "street": "R NOSSA SENHORA DE FÁTIMA",
      "house": "155",
      "postcode": "4835-456",
      "city": "TABUADELO",
      "lon": "-8.291164899219156",
      "lat": "41.40197925407766"
    },
    {
      "id": "pt.ine.add.PTCONT.595814",
      "street": "R 5 DE OUTUBRO",
      "house": "117",
      "postcode": "4835-445",
      "city": "TABUADELO",
      "lon": "-8.291992077879788",
      "lat": "41.4028154868817"
    },
    {
      "id": "pt.ine.add.PTCONT.708355",
      "street": "R 5 DE OUTUBRO",
      "house": "51",
      "postcode": "4835-445",
      "city": "TABUADELO",
      "lon": "-8.291178275981233",
      "lat": "41.40256449572916"
    },
    {
      "id": "pt.ine.add.PTCONT.718793",
      "street": "R 5 DE OUTUBRO",
      "house": "7",
      "postcode": "4835-445",
      "city": "TABUADELO",
      "lon": "-8.290352673666483",
      "lat": "41.402376542936636"
    },
    {
      "id": "pt.ine.add.PTCONT.718794",
      "street": "R 5 OUTUBRO",
      "house": "5",
      "postcode": "4835-445",
      "city": "TABUADELO",
      "lon": "-8.290352673666483",
      "lat": "41.402376542936636"
    },
    {
      "id": "pt.ine.add.PTCONT.729331",
      "street": "TV NSA SRA DE FÁTIMA",
      "house": "3",
      "postcode": "4835-456",
      "city": "TABUADELO",
      "lon": "-8.291105281001299",
      "lat": "41.402051367962265"
    },
    {
      "id": "pt.ine.add.PTCONT.777291",
      "street": "R NSA SRA DE FÁTIMA",
      "house": "127",
      "postcode": "4835-455",
      "city": "TABUADELO",
      "lon": "-8.291320709618946",
      "lat": "41.40212310395808"
    },
    {
      "id": "pt.ine.add.PTCONT.786255",
      "street": "TV NSA SRA DE FÁTIMA",
      "house": "18",
      "postcode": "4835-456",
      "city": "TABUADELO",
      "lon": "-8.290758874724771",
      "lat": "41.40221391510804"
    },
    {
      "id": "pt.ine.add.PTCONT.786256",
      "street": "TV NSA SRA DE FÁTIMA",
      "house": "18",
      "postcode": "4835-456",
      "city": "TABUADELO",
      "lon": "-8.290758874724771",
      "lat": "41.40221391510804"
    },
    {
      "id": "pt.ine.add.PTCONT.847373",
      "street": "R 5 DE OUTUBRO",
      "house": "41",
      "postcode": "4835-445",
      "city": "TABUADELO",
      "lon": "-8.29086722055896",
      "lat": "41.402510898621514"
    }
  ]
}