{
  "data": {
    "distrito": "Santarém",
    "concelho": "Ourém",
    "freguesia": "Urqueira",
    "OBJECTID": 1508,
    "BGRI2021": "14211400220",
    "DT21": "14",
    "DTMN21": "1421",
    "DTMNFR21": "142114",
    "DTMNFRSEC21": "142114002",
    "SECNUM21": "002",
    "SSNUM21": "20",
    "SECSSNUM21": "00220",
    "OBJECTID_1": 159708,
    "DT": "14",
    "CC": "21",
    "fr": "14",
    "SEC": "002",
    "SS": "20"
  },
  "addresses": [
    {
      "id": "pt.ine.add.PTCONT.4391973",
      "street": "R PRINCIPAL",
      "house": "9",
      "postcode": "2435-683",
      "city": "URQUEIRA",
      "lon": "-8.569194050736106",
      "lat": "39.736223180153495"
    },
    {
      "id": "pt.ine.add.PTCONT.4428857",
      "street": "R OUTEIRAO",
      "house": "",
      "postcode": "2435-689",
      "city": "URQUEIRA",
      "lon": "-8.570047364442436",
      "lat": "39.742038207308134"
    },
    {
      "id": "pt.ine.add.PTCONT.4452488",
      "street": "R OUTEIRAO",
      "house": "155",
      "postcode": "2435-689",
      "city": "URQUEIRA",
      "lon": "-8.570002519166136",
      "lat": "39.7423265857662"
    },
    {
      "id": "pt.ine.add.PTCONT.4502608",
      "street": "R OUTEIRAO",
      "house": "",
      "postcode": "2435-689",
      "city": "URQUEIRA",
      "lon": "-8.570419889710644",
      "lat": "39.74191071279814"
    },
    {
      "id": "pt.ine.add.PTCONT.4529319",
      "street": "R MOURISCAS",
      "house": "7",
      "postcode": "2435-689",
      "city": "URQUEIRA",
      "lon": "-8.566572183560286",
      "lat": "39.74599610474821"
    },
    {
      "id": "pt.ine.add.PTCONT.4544819",
      "street": "R MOURISCAS",
      "house": "5",
      "postcode": "2435-689",
      "city": "URQUEIRA",
      "lon": "-8.566774700746048",
      "lat": "39.74666183278405"
    },
    {
      "id": "pt.ine.add.PTCONT.4553893",
      "street": "R PASSAGEM DE NIVEL",
      "house": "6",
      "postcode": "2435-683",
      "city": "URQUEIRA",
      "lon": "-8.567087567133662",
      "lat": "39.73515929304877"
    },
    {
      "id": "pt.ine.add.PTCONT.4564522",
      "street": "R PRINCIPAL",
      "house": "11",
      "postcode": "2435-683",
      "city": "URQUEIRA",
      "lon": "-8.568915897617083",
      "lat": "39.73651243466565"
    },
    {
      "id": "pt.ine.add.PTCONT.4614354",
      "street": "MANUEL CAP",
      "house": "",
      "postcode": "2435-689",
      "city": "URQUEIRA",
      "lon": "-8.570039555335539",
      "lat": "39.74634336715643"
    },
    {
      "id": "pt.ine.add.PTCONT.4624802",
      "street": "R PRINCIPAL",
      "house": "5",
      "postcode": "2435-683",
      "city": "URQUEIRA",
      "lon": "-8.56931047706711",
      "lat": "39.736186716494196"
    },
    {
      "id": "pt.ine.add.PTCONT.4631532",
      "street": "R CASAS DE BAIXO",
      "house": "3",
      "postcode": "2435-689",
      "city": "URQUEIRA",
      "lon": "-8.570861914548242",
      "lat": "39.743548239074954"
    },
    {
      "id": "pt.ine.add.PTCONT.4641343",
      "street": "R PASSAGEM DE NIVEL",
      "house": "4",
      "postcode": "2435-683",
      "city": "URQUEIRA",
      "lon": "-8.567578199590875",
      "lat": "39.73341018427193"
    },
    {
      "id": "pt.ine.add.PTCONT.4645379",
      "street": "R PASSAGEM DE NIVEL",
      "house": "1",
      "postcode": "2435-683",
      "city": "URQUEIRA",
      "lon": "-8.568494802243512",
      "lat": "39.734478531529966"
    },
    {
      "id": "pt.ine.add.PTCONT.4653566",
      "street": "R OUTEIRAO",
      "house": "87",
      "postcode": "2435-689",
      "city": "URQUEIRA",
      "lon": "-8.570295942754171",
      "lat": "39.742604684167716"
    }
  ]
}