{
  "data": {
    "distrito": "Portalegre",
    "concelho": "Campo Maior",
    "freguesia": "Nossa Senhora da Expectação",
    "OBJECTID": 182,
    "BGRI2021": "12040100209",
    "DT21": "12",
    "DTMN21": "1204",
    "DTMNFR21": "120401",
    "DTMNFRSEC21": "120401002",
    "SECNUM21": "002",
    "SSNUM21": "09",
    "SECSSNUM21": "00209",
    "OBJECTID_1": 121159,
    "DT": "12",
    "CC": "04",
    "fr": "01",
    "SEC": "002",
    "SS": "09"
  },
  "addresses": [
    {
      "id": "pt.ine.add.PTCONT.3535392",
      "street": "R D JOÃO DE PORTUGAL",
      "house": "70",
      "postcode": "7370-101",
      "city": "CAMPO MAIOR",
      "lon": "-7.06226729154805",
      "lat": "39.01549922508504"
    },
    {
      "id": "pt.ine.add.PTCONT.3462335",
      "street": "R HEROIS ULTRAMAR",
      "house": "73",
      "postcode": "7370-026",
      "city": "CAMPO MAIOR",
      "lon": "-7.062374993675483",
      "lat": "39.01524800656594"
    },
    {
      "id": "pt.ine.add.PTCONT.3470504",
      "street": "R D JOÃO DE PORTUGAL",
      "house": "70 A",
      "postcode": "7370-101",
      "city": "CAMPO MAIOR",
      "lon": "-7.062175887954965",
      "lat": "39.01543533417662"
    },
    {
      "id": "pt.ine.add.PTCONT.3484048",
      "street": "R HEROIS DO ULTRAMAR",
      "house": "71",
      "postcode": "7370-026",
      "city": "CAMPO MAIOR",
      "lon": "-7.062443444448876",
      "lat": "39.01530267925203"
    },
    {
      "id": "pt.ine.add.PTCONT.3496527",
      "street": "R D JOÃO DE PORTUGAL",
      "house": "72 B",
      "postcode": "7370-101",
      "city": "CAMPO MAIOR",
      "lon": "-7.062073347827887",
      "lat": "39.0153443187494"
    },
    {
      "id": "pt.ine.add.PTCONT.3507481",
      "street": "R HEROIS DO ULTRAMAR",
      "house": "77",
      "postcode": "7370-026",
      "city": "CAMPO MAIOR",
      "lon": "-7.062203731353468",
      "lat": "39.0151203308313"
    },
    {
      "id": "pt.ine.add.PTCONT.3512250",
      "street": "R LUIS DE CAMÕES",
      "house": "3",
      "postcode": "7370-020",
      "city": "CAMPO MAIOR",
      "lon": "-7.062030975066017",
      "lat": "39.01509172251965"
    },
    {
      "id": "pt.ine.add.PTCONT.3514054",
      "street": "R D JOÃO DE PORTUGAL",
      "house": "72",
      "postcode": "7370-101",
      "city": "CAMPO MAIOR",
      "lon": "-7.06214179845604",
      "lat": "39.015398991609665"
    },
    {
      "id": "pt.ine.add.PTCONT.3531565",
      "street": "R HEROIS DO ULTRAMAR",
      "house": "75",
      "postcode": "7370-026",
      "city": "CAMPO MAIOR",
      "lon": "-7.062283590301768",
      "lat": "39.015184115742386"
    }
  ]
}