{
  "data": {
    "distrito": "Coimbra",
    "concelho": "Cantanhede",
    "freguesia": "Cadima",
    "OBJECTID": 717,
    "BGRI2021": "06020300125",
    "DT21": "06",
    "DTMN21": "0602",
    "DTMNFR21": "060203",
    "DTMNFRSEC21": "060203001",
    "SECNUM21": "001",
    "SSNUM21": "25",
    "SECSSNUM21": "00125",
    "OBJECTID_1": 47508,
    "DT": "06",
    "CC": "02",
    "fr": "03",
    "SEC": "001",
    "SS": "25"
  },
  "addresses": [
    {
      "id": "pt.ine.add.PTCONT.1128876",
      "street": "R DR ARISTIDES GONÇALVES SALVADOR",
      "house": "",
      "postcode": "3060-099",
      "city": "CADIMA",
      "lon": "-8.663041220103675",
      "lat": "40.33530415482357"
    },
    {
      "id": "pt.ine.add.PTCONT.1166518",
      "street": "R CATRAIA",
      "house": "122",
      "postcode": "3060-099",
      "city": "CADIMA",
      "lon": "-8.664650672436384",
      "lat": "40.336449488375784"
    },
    {
      "id": "pt.ine.add.PTCONT.1184427",
      "street": "R DR ARISTIDES GONÇALVES SALVADOR",
      "house": "366",
      "postcode": "3060-099",
      "city": "CADIMA",
      "lon": "-8.663527644719155",
      "lat": "40.335806239584755"
    },
    {
      "id": "pt.ine.add.PTCONT.1194470",
      "street": "R CAVADAS",
      "house": "54",
      "postcode": "3060-099",
      "city": "CADIMA",
      "lon": "-8.663997438727518",
      "lat": "40.33568701139824"
    },
    {
      "id": "pt.ine.add.PTCONT.1221052",
      "street": "R CÓNEGO EONFALVES SALVADOR",
      "house": "483",
      "postcode": "3060-099",
      "city": "CADIMA",
      "lon": "-8.657096780271027",
      "lat": "40.33358414637897"
    },
    {
      "id": "pt.ine.add.PTCONT.1251596",
      "street": "R CATRAIA",
      "house": "21",
      "postcode": "3060-099",
      "city": "CADIMA",
      "lon": "-8.663870956870314",
      "lat": "40.33606582751732"
    },
    {
      "id": "pt.ine.add.PTCONT.1262791",
      "street": "R CATRAIA",
      "house": "130",
      "postcode": "3060-099",
      "city": "CADIMA",
      "lon": "-8.664780755474021",
      "lat": "40.33652994102306"
    },
    {
      "id": "pt.ine.add.PTCONT.1305105",
      "street": "R DR ARISTIDES",
      "house": "355",
      "postcode": "3060-099",
      "city": "CADIMA",
      "lon": "-8.663199274178467",
      "lat": "40.33595183467614"
    },
    {
      "id": "pt.ine.add.PTCONT.1351373",
      "street": "R CATRAIA",
      "house": "151",
      "postcode": "3060-099",
      "city": "CADIMA",
      "lon": "-8.664957981231291",
      "lat": "40.33661918238099"
    }
  ]
}