{
  "data": {
    "distrito": "Aveiro",
    "concelho": "Albergaria-A-Velha",
    "freguesia": "Albergaria-a-Velha e Valmaior",
    "OBJECTID": 509,
    "BGRI2021": "01020900803",
    "DT21": "01",
    "DTMN21": "0102",
    "DTMNFR21": "010209",
    "DTMNFRSEC21": "010209008",
    "SECNUM21": "008",
    "SSNUM21": "03",
    "SECSSNUM21": "00803",
    "OBJECTID_1": 1456,
    "DT": "01",
    "CC": "02",
    "fr": "09",
    "SEC": "008",
    "SS": "03"
  },
  "addresses": [
    {
      "id": "pt.ine.add.PTCONT.318766",
      "street": "R JARDIM",
      "house": "",
      "postcode": "3850-234",
      "city": "ALBERGARIA-A-VELHA",
      "lon": "-8.510128072412675",
      "lat": "40.660214760490554"
    },
    {
      "id": "pt.ine.add.PTCONT.50214",
      "street": "R VALE MAGRA",
      "house": "10",
      "postcode": "3850-234",
      "city": "ALBERGARIA-A-VELHA",
      "lon": "-8.510377003243384",
      "lat": "40.66032200909385"
    },
    {
      "id": "pt.ine.add.PTCONT.72584",
      "street": "R MARRIDAS",
      "house": "7",
      "postcode": "3850-234",
      "city": "ALBERGARIA-A-VELHA",
      "lon": "-8.508757297910112",
      "lat": "40.660381320556894"
    },
    {
      "id": "pt.ine.add.PTCONT.75301",
      "street": "R 25 ABRIL",
      "house": "3",
      "postcode": "3850-235",
      "city": "ALBERGARIA-A-VELHA",
      "lon": "-8.508874384588708",
      "lat": "40.66017382140903"
    },
    {
      "id": "pt.ine.add.PTCONT.128211",
      "street": "R VALE DA MAGRA",
      "house": "",
      "postcode": "3850-234",
      "city": "ALBERGARIA-A-VELHA",
      "lon": "-8.508852806546432",
      "lat": "40.660543102288116"
    },
    {
      "id": "pt.ine.add.PTCONT.130549",
      "street": "R MARRIDAS",
      "house": "11",
      "postcode": "3850-234",
      "city": "ALBERGARIA-A-VELHA",
      "lon": "-8.509638567799414",
      "lat": "40.6614860820768"
    },
    {
      "id": "pt.ine.add.PTCONT.173947",
      "street": "R MARRIDAS",
      "house": "",
      "postcode": "3850-234",
      "city": "ALBERGARIA-A-VELHA",
      "lon": "-8.509804828194559",
      "lat": "40.66161161170648"
    },
    {
      "id": "pt.ine.add.PTCONT.194122",
      "street": "R VALE DA MAGRA",
      "house": "18",
      "postcode": "3850-234",
      "city": "ALBERGARIA-A-VELHA",
      "lon": "-8.511501435078289",
      "lat": "40.66050743769931"
    },
    {
      "id": "pt.ine.add.PTCONT.227059",
      "street": "R 25 ABRIL",
      "house": "5",
      "postcode": "3850-235",
      "city": "ALBERGARIA-A-VELHA",
      "lon": "-8.508839516346349",
      "lat": "40.66028199653278"
    },
    {
      "id": "pt.ine.add.PTCONT.254643",
      "street": "R MARRIDAS",
      "house": "3",
      "postcode": "3850-234",
      "city": "ALBERGARIA-A-VELHA",
      "lon": "-8.508937501512396",
      "lat": "40.66088502187962"
    },
    {
      "id": "pt.ine.add.PTCONT.286946",
      "street": "R JARDIM",
      "house": "",
      "postcode": "3850-234",
      "city": "ALBERGARIA-A-VELHA",
      "lon": "-8.50978499953512",
      "lat": "40.66018886473362"
    }
  ]
}