{
  "data": {
    "distrito": "Guarda",
    "concelho": "Almeida",
    "freguesia": "Vilar Formoso",
    "OBJECTID": 581,
    "BGRI2021": "09022900240",
    "DT21": "09",
    "DTMN21": "0902",
    "DTMNFR21": "090229",
    "DTMNFRSEC21": "090229002",
    "SECNUM21": "002",
    "SSNUM21": "40",
    "SECSSNUM21": "00240",
    "OBJECTID_1": 75765,
    "DT": "09",
    "CC": "02",
    "fr": "29",
    "SEC": "002",
    "SS": "40"
  },
  "addresses": [
    {
      "id": "pt.ine.add.PTCONT.1918013",
      "street": "R DA ERA",
      "house": "9",
      "postcode": "6355-255",
      "city": "VILAR FORMOSO",
      "lon": "-6.838416495680735",
      "lat": "40.613130744768846"
    },
    {
      "id": "pt.ine.add.PTCONT.1919044",
      "street": "R DA ERA",
      "house": "5",
      "postcode": "6355-255",
      "city": "VILAR FORMOSO",
      "lon": "-6.838239810354815",
      "lat": "40.61310174908645"
    },
    {
      "id": "pt.ine.add.PTCONT.1927214",
      "street": "AV DOS COMBATENTES DA GUERRA COLONIAL",
      "house": "14",
      "postcode": "6355-264",
      "city": "VILAR FORMOSO",
      "lon": "-6.8375832943722745",
      "lat": "40.61222091178485"
    },
    {
      "id": "pt.ine.add.PTCONT.1930776",
      "street": "R DA ERA",
      "house": "7",
      "postcode": "6355-255",
      "city": "VILAR FORMOSO",
      "lon": "-6.838406419921391",
      "lat": "40.613040582944"
    },
    {
      "id": "pt.ine.add.PTCONT.1945740",
      "street": "R DA ERA",
      "house": "11",
      "postcode": "6355-255",
      "city": "VILAR FORMOSO",
      "lon": "-6.838605342512401",
      "lat": "40.613141866737266"
    },
    {
      "id": "pt.ine.add.PTCONT.1949040",
      "street": "R DO POÃ‡O",
      "house": "3",
      "postcode": "6355-320",
      "city": "VILAR FORMOSO",
      "lon": "-6.837427456200217",
      "lat": "40.61233622692769"
    },
    {
      "id": "pt.ine.add.PTCONT.1957930",
      "street": "R DIREITA",
      "house": "23",
      "postcode": "6355-254",
      "city": "VILAR FORMOSO",
      "lon": "-6.839520903286811",
      "lat": "40.612233627820146"
    },
    {
      "id": "pt.ine.add.PTCONT.1957931",
      "street": "R DA ERA",
      "house": "13",
      "postcode": "6355-255",
      "city": "VILAR FORMOSO",
      "lon": "-6.838868546989613",
      "lat": "40.612973724055074"
    },
    {
      "id": "pt.ine.add.PTCONT.1869097",
      "street": "R DA ERA",
      "house": "3",
      "postcode": "6355-255",
      "city": "VILAR FORMOSO",
      "lon": "-6.838170492176295",
      "lat": "40.61301992783194"
    }
  ]
}