{
  "data": {
    "distrito": "Porto",
    "concelho": "Amarante",
    "freguesia": "Mancelos",
    "OBJECTID": 887,
    "BGRI2021": "13012300130",
    "DT21": "13",
    "DTMN21": "1301",
    "DTMNFR21": "130123",
    "DTMNFRSEC21": "130123001",
    "SECNUM21": "001",
    "SSNUM21": "30",
    "SECSSNUM21": "00130",
    "OBJECTID_1": 125270,
    "DT": "13",
    "CC": "01",
    "fr": "23",
    "SEC": "001",
    "SS": "30"
  },
  "addresses": [
    {
      "id": "pt.ine.add.PTCONT.3856032",
      "street": "TV MONTE",
      "house": "48",
      "postcode": "4605-136",
      "city": "MANCELOS",
      "lon": "-8.164762780723988",
      "lat": "41.2787722829772"
    },
    {
      "id": "pt.ine.add.PTCONT.3924768",
      "street": "R CRUZES",
      "house": "492",
      "postcode": "4605-123",
      "city": "MANCELOS",
      "lon": "-8.165383309690501",
      "lat": "41.278474972131995"
    },
    {
      "id": "pt.ine.add.PTCONT.3924769",
      "street": "CAM BARRA",
      "house": "97",
      "postcode": "4605-107",
      "city": "MANCELOS",
      "lon": "-8.16427344063125",
      "lat": "41.27885345426825"
    },
    {
      "id": "pt.ine.add.PTCONT.4030477",
      "street": "R MONTE",
      "house": "30",
      "postcode": "4605-136",
      "city": "MANCELOS",
      "lon": "-8.165419464095221",
      "lat": "41.279177289463924"
    },
    {
      "id": "pt.ine.add.PTCONT.4030478",
      "street": "R MONTE",
      "house": "34",
      "postcode": "4605-136",
      "city": "MANCELOS",
      "lon": "-8.165419464095221",
      "lat": "41.279177289463924"
    },
    {
      "id": "pt.ine.add.PTCONT.4089793",
      "street": "R CRUZES",
      "house": "518",
      "postcode": "4605-123",
      "city": "MANCELOS",
      "lon": "-8.16546705743934",
      "lat": "41.27887113336253"
    },
    {
      "id": "pt.ine.add.PTCONT.4194351",
      "street": "TV MONTE",
      "house": "86",
      "postcode": "4605-136",
      "city": "MANCELOS",
      "lon": "-8.164488346123019",
      "lat": "41.278970450469515"
    },
    {
      "id": "pt.ine.add.PTCONT.4194352",
      "street": "TV MONTE",
      "house": "86",
      "postcode": "4605-136",
      "city": "MANCELOS",
      "lon": "-8.164488346123019",
      "lat": "41.278970450469515"
    },
    {
      "id": "pt.ine.add.PTCONT.4283312",
      "street": "TV MONTE",
      "house": "88",
      "postcode": "4605-136",
      "city": "MANCELOS",
      "lon": "-8.164273607678256",
      "lat": "41.27920461794773"
    },
    {
      "id": "pt.ine.add.PTCONT.4313523",
      "street": "R CENTRAL DE NOGUEIRA",
      "house": "",
      "postcode": "4605-138",
      "city": "MANCELOS",
      "lon": "-8.16556263530604",
      "lat": "41.279051190421974"
    },
    {
      "id": "pt.ine.add.PTCONT.4313524",
      "street": "R CENTRAL DE NOGUEIRA",
      "house": "",
      "postcode": "4605-138",
      "city": "MANCELOS",
      "lon": "-8.16556263530604",
      "lat": "41.279051190421974"
    }
  ]
}