{
  "data": {
    "distrito": "Vila Real",
    "concelho": "Valpaços",
    "freguesia": "Lebução, Fiães e Nozelos",
    "OBJECTID": 13,
    "BGRI2021": "17123300115",
    "DT21": "17",
    "DTMN21": "1712",
    "DTMNFR21": "171233",
    "DTMNFRSEC21": "171233001",
    "SECNUM21": "001",
    "SSNUM21": "15",
    "SECSSNUM21": "00115",
    "OBJECTID_1": 185779,
    "DT": "17",
    "CC": "12",
    "fr": "33",
    "SEC": "001",
    "SS": "15"
  },
  "addresses": [
    {
      "id": "pt.ine.add.PTCONT.5308273",
      "street": "R DA CRUZ",
      "house": "5",
      "postcode": "5430-090",
      "city": "FIÃES VLP",
      "lon": "-7.265495167874422",
      "lat": "41.74232263605931"
    },
    {
      "id": "pt.ine.add.PTCONT.5334543",
      "street": "R DO CEMITÉRIO",
      "house": "2",
      "postcode": "5430-090",
      "city": "FIÃES VLP",
      "lon": "-7.265541263781191",
      "lat": "41.74068437397869"
    },
    {
      "id": "pt.ine.add.PTCONT.5343195",
      "street": "R DO ALTO DA CRUZ",
      "house": "1",
      "postcode": "5430-090",
      "city": "FIÃES VLP",
      "lon": "-7.265755102445989",
      "lat": "41.74176639079207"
    },
    {
      "id": "pt.ine.add.PTCONT.5352192",
      "street": "R DO CEMITÉRIO",
      "house": "",
      "postcode": "5430-090",
      "city": "FIÃES VLP",
      "lon": "-7.2648294387118435",
      "lat": "41.74176840259728"
    },
    {
      "id": "pt.ine.add.PTCONT.5374097",
      "street": "R DO ALTO DA CRUZ",
      "house": "15",
      "postcode": "5430-090",
      "city": "FIÃES VLP",
      "lon": "-7.266208294495033",
      "lat": "41.74382257499322"
    },
    {
      "id": "pt.ine.add.PTCONT.5389051",
      "street": "R DA CRUZ",
      "house": "7",
      "postcode": "5430-090",
      "city": "FIÃES VLP",
      "lon": "-7.265370118066001",
      "lat": "41.74268182574416"
    },
    {
      "id": "pt.ine.add.PTCONT.5418250",
      "street": "AV DO ESTÁDIO",
      "house": "",
      "postcode": "5430-163",
      "city": "LEBUÇÃO",
      "lon": "-7.2687566689710215",
      "lat": "41.75100843649929"
    }
  ]
}