{
  "data": {
    "distrito": "Lisboa",
    "concelho": "Loures",
    "freguesia": "Loures",
    "OBJECTID": 443,
    "BGRI2021": "11070701311",
    "DT21": "11",
    "DTMN21": "1107",
    "DTMNFR21": "110707",
    "DTMNFRSEC21": "110707013",
    "SECNUM21": "013",
    "SSNUM21": "11",
    "SECSSNUM21": "01311",
    "OBJECTID_1": 107028,
    "DT": "11",
    "CC": "07",
    "fr": "07",
    "SEC": "013",
    "SS": "11"
  },
  "addresses": [
    {
      "id": "pt.ine.add.PTCONT.2928854",
      "street": "R DR MANUEL DE ARRIAGA",
      "house": "8",
      "postcode": "2670-451",
      "city": "LOURES",
      "lon": "-9.167454861208823",
      "lat": "38.83010587092896"
    },
    {
      "id": "pt.ine.add.PTCONT.2928855",
      "street": "R DR MANUEL DE ARRIAGA",
      "house": "8",
      "postcode": "2670-451",
      "city": "LOURES",
      "lon": "-9.167454861208823",
      "lat": "38.83010587092896"
    },
    {
      "id": "pt.ine.add.PTCONT.2928856",
      "street": "R DR MANUEL DE ARRIAGA",
      "house": "8",
      "postcode": "2670-451",
      "city": "LOURES",
      "lon": "-9.167454861208823",
      "lat": "38.83010587092896"
    },
    {
      "id": "pt.ine.add.PTCONT.2933081",
      "street": "R DR MANUEL DE ARRIAGA",
      "house": "8",
      "postcode": "2670-451",
      "city": "LOURES",
      "lon": "-9.167454861208823",
      "lat": "38.83010587092896"
    },
    {
      "id": "pt.ine.add.PTCONT.3256048",
      "street": "R MANUEL FRANCISCO SOROMENHO",
      "house": "64",
      "postcode": "2670-453",
      "city": "LOURES",
      "lon": "-9.167928889655753",
      "lat": "38.829962353138136"
    },
    {
      "id": "pt.ine.add.PTCONT.3263713",
      "street": "BC PEREIRA CARDANTE",
      "house": "8",
      "postcode": "2670-460",
      "city": "LOURES",
      "lon": "-9.167666537615613",
      "lat": "38.8299212148557"
    },
    {
      "id": "pt.ine.add.PTCONT.3326139",
      "street": "BC PEREIRA CARDANTE",
      "house": "2B",
      "postcode": "2670-460",
      "city": "LOURES",
      "lon": "-9.16757129757566",
      "lat": "38.82999655199375"
    },
    {
      "id": "pt.ine.add.PTCONT.2564269",
      "street": "R REPUBLICA",
      "house": "47",
      "postcode": "2670-473",
      "city": "LOURES",
      "lon": "-9.16777772775643",
      "lat": "38.83065728490712"
    },
    {
      "id": "pt.ine.add.PTCONT.2757321",
      "street": "R DR MANUEL DE ARRIAGA",
      "house": "10",
      "postcode": "2670-451",
      "city": "LOURES",
      "lon": "-9.167786358410421",
      "lat": "38.82986005691823"
    },
    {
      "id": "pt.ine.add.PTCONT.2795131",
      "street": "R ANTERO DE QUENTAL",
      "house": "10-10A",
      "postcode": "2670-412",
      "city": "LOURES",
      "lon": "-9.16786870948793",
      "lat": "38.82978273228524"
    }
  ]
}