{
  "data": {
    "distrito": "Bragança",
    "concelho": "Bragança",
    "freguesia": "Gostei",
    "OBJECTID": 349,
    "BGRI2021": "04021800109",
    "DT21": "04",
    "DTMN21": "0402",
    "DTMNFR21": "040218",
    "DTMNFRSEC21": "040218001",
    "SECNUM21": "001",
    "SSNUM21": "09",
    "SECSSNUM21": "00109",
    "OBJECTID_1": 34025,
    "DT": "04",
    "CC": "02",
    "fr": "18",
    "SEC": "001",
    "SS": "09"
  },
  "addresses": [
    {
      "id": "pt.ine.add.PTCONT.852547",
      "street": "CAM VALE DE CONDE",
      "house": "",
      "postcode": "5300-573",
      "city": "BRAGANÇA",
      "lon": "-6.78419675780274",
      "lat": "41.78324491221635"
    },
    {
      "id": "pt.ine.add.PTCONT.881524",
      "street": "R ALBINO NOGUEIRO",
      "house": "54",
      "postcode": "5300-404",
      "city": "BRAGANÇA",
      "lon": "-6.784930284117496",
      "lat": "41.79358909910789"
    },
    {
      "id": "pt.ine.add.PTCONT.897717",
      "street": "CAM VALE DE CONDE",
      "house": "",
      "postcode": "5300-573",
      "city": "BRAGANÇA",
      "lon": "-6.786895092900374",
      "lat": "41.790533080611304"
    },
    {
      "id": "pt.ine.add.PTCONT.917403",
      "street": "R ALBINO NOGUEIRO",
      "house": "56",
      "postcode": "5300-404",
      "city": "BRAGANÇA",
      "lon": "-6.784886134870152",
      "lat": "41.793399515659694"
    },
    {
      "id": "pt.ine.add.PTCONT.917419",
      "street": "TAPADA DOS NOGUEIROS",
      "house": "",
      "postcode": "5300-574",
      "city": "BRAGANÇA",
      "lon": "-6.79013360381316",
      "lat": "41.78984173867972"
    },
    {
      "id": "pt.ine.add.PTCONT.918143",
      "street": "CAM S LOURENÇO",
      "house": "",
      "postcode": "5300-574",
      "city": "BRAGANÇA",
      "lon": "-6.786781772478303",
      "lat": "41.78272604937201"
    }
  ]
}