{
  "data": {
    "distrito": "Porto",
    "concelho": "Felgueiras",
    "freguesia": "União das freguesias de Unhão e Lordelo",
    "OBJECTID": 583,
    "BGRI2021": "13033800112",
    "DT21": "13",
    "DTMN21": "1303",
    "DTMNFR21": "130338",
    "DTMNFRSEC21": "130338001",
    "SECNUM21": "001",
    "SSNUM21": "12",
    "SECSSNUM21": "00112",
    "OBJECTID_1": 127509,
    "DT": "13",
    "CC": "03",
    "fr": "38",
    "SEC": "001",
    "SS": "12"
  },
  "addresses": [
    {
      "id": "pt.ine.add.PTCONT.3667647",
      "street": "R IGREJA",
      "house": "",
      "postcode": "4650-658",
      "city": "UNHÃO",
      "lon": "-8.237195385662703",
      "lat": "41.311684847300235"
    },
    {
      "id": "pt.ine.add.PTCONT.3669204",
      "street": "R SANTO EUSÉBIO",
      "house": "90",
      "postcode": "4650-658",
      "city": "UNHÃO",
      "lon": "-8.23996297066763",
      "lat": "41.309863473901636"
    },
    {
      "id": "pt.ine.add.PTCONT.3669205",
      "street": "R SANTO EUSÉBIO",
      "house": "90",
      "postcode": "4650-658",
      "city": "UNHÃO",
      "lon": "-8.23996297066763",
      "lat": "41.309863473901636"
    },
    {
      "id": "pt.ine.add.PTCONT.3701934",
      "street": "R NSA SRA DE FÁTIMA",
      "house": "152",
      "postcode": "4650-658",
      "city": "UNHÃO",
      "lon": "-8.238841395084544",
      "lat": "41.310449779148406"
    },
    {
      "id": "pt.ine.add.PTCONT.3779081",
      "street": "R SANTO EUSÉBIO",
      "house": "52",
      "postcode": "4650-658",
      "city": "UNHÃO",
      "lon": "-8.239711769320309",
      "lat": "41.30960258651888"
    },
    {
      "id": "pt.ine.add.PTCONT.3840925",
      "street": "R NSA SRA DE FÁTIMA",
      "house": "224",
      "postcode": "4650-658",
      "city": "UNHÃO",
      "lon": "-8.239689103099668",
      "lat": "41.31034995176175"
    },
    {
      "id": "pt.ine.add.PTCONT.3845978",
      "street": "R VALINHAS",
      "house": "",
      "postcode": "4650-671",
      "city": "UNHÃO",
      "lon": "-8.236098559490662",
      "lat": "41.312856372610725"
    },
    {
      "id": "pt.ine.add.PTCONT.3895247",
      "street": "LG IGREJA",
      "house": "4",
      "postcode": "4650-658",
      "city": "UNHÃO",
      "lon": "-8.236014014950587",
      "lat": "41.31225317059296"
    },
    {
      "id": "pt.ine.add.PTCONT.3947246",
      "street": "R SANTO EUSÉBIO",
      "house": "104",
      "postcode": "4650-658",
      "city": "UNHÃO",
      "lon": "-8.240118360183539",
      "lat": "41.309953371029856"
    },
    {
      "id": "pt.ine.add.PTCONT.3985155",
      "street": "R SANTO EUSÉBIO",
      "house": "24",
      "postcode": "4650-658",
      "city": "UNHÃO",
      "lon": "-8.239508365731549",
      "lat": "41.30935966270212"
    },
    {
      "id": "pt.ine.add.PTCONT.4070451",
      "street": "R CONDE DE UNHAO",
      "house": "134",
      "postcode": "4650-658",
      "city": "UNHÃO",
      "lon": "-8.236254447581",
      "lat": "41.313261419461604"
    },
    {
      "id": "pt.ine.add.PTCONT.4096962",
      "street": "R IGREJA",
      "house": "",
      "postcode": "4650-658",
      "city": "UNHÃO",
      "lon": "-8.239570124506645",
      "lat": "41.31062018626761"
    },
    {
      "id": "pt.ine.add.PTCONT.4210389",
      "street": "R SANTO EUSÉBIO",
      "house": "106",
      "postcode": "4650-658",
      "city": "UNHÃO",
      "lon": "-8.240058739820121",
      "lat": "41.310007451324715"
    },
    {
      "id": "pt.ine.add.PTCONT.4214587",
      "street": "R NSA SRA DE FÁTIMA",
      "house": "152",
      "postcode": "4650-658",
      "city": "UNHÃO",
      "lon": "-8.239414514758323",
      "lat": "41.31039522641012"
    },
    {
      "id": "pt.ine.add.PTCONT.4266677",
      "street": "R IGREJA",
      "house": "152",
      "postcode": "4650-658",
      "city": "UNHÃO",
      "lon": "-8.238686601721946",
      "lat": "41.31072904977547"
    },
    {
      "id": "pt.ine.add.PTCONT.4266678",
      "street": "R IGREJA",
      "house": "152",
      "postcode": "4650-658",
      "city": "UNHÃO",
      "lon": "-8.238686601721946",
      "lat": "41.31072904977547"
    },
    {
      "id": "pt.ine.add.PTCONT.4286966",
      "street": "LG IGREJA",
      "house": "116",
      "postcode": "4650-658",
      "city": "UNHÃO",
      "lon": "-8.23645544795611",
      "lat": "41.311982650782824"
    },
    {
      "id": "pt.ine.add.PTCONT.4380004",
      "street": "R VALINHAS VALINHAS DE CIMA",
      "house": "",
      "postcode": "4650-671",
      "city": "UNHÃO",
      "lon": "-8.23568789299462",
      "lat": "41.30990337955538"
    },
    {
      "id": "pt.ine.add.PTCONT.4389985",
      "street": "R SANTO EUSÉBIO",
      "house": "52",
      "postcode": "4650-658",
      "city": "UNHÃO",
      "lon": "-8.239711769320309",
      "lat": "41.30960258651888"
    }
  ]
}