{
  "data": {
    "distrito": "Lisboa",
    "concelho": "Sintra",
    "freguesia": "Colares",
    "OBJECTID": 44,
    "BGRI2021": "11110500701",
    "DT21": "11",
    "DTMN21": "1111",
    "DTMNFR21": "111105",
    "DTMNFRSEC21": "111105007",
    "SECNUM21": "007",
    "SSNUM21": "01",
    "SECSSNUM21": "00701",
    "OBJECTID_1": 111990,
    "DT": "11",
    "CC": "11",
    "fr": "05",
    "SEC": "007",
    "SS": "01"
  },
  "addresses": [
    {
      "id": "pt.ine.add.PTCONT.2320893",
      "street": "ESTR CABO DA ROCA",
      "house": "15",
      "postcode": "2705-001",
      "city": "COLARES",
      "lon": "-9.480599293684591",
      "lat": "38.77465636825343"
    },
    {
      "id": "pt.ine.add.PTCONT.2320894",
      "street": "ESTR CABO DA ROCA",
      "house": "15",
      "postcode": "2705-001",
      "city": "COLARES",
      "lon": "-9.480599293684591",
      "lat": "38.77465636825343"
    },
    {
      "id": "pt.ine.add.PTCONT.2347915",
      "street": "ESTR CABO DA ROCA",
      "house": "11",
      "postcode": "2705-001",
      "city": "COLARES",
      "lon": "-9.479693823111775",
      "lat": "38.77362192942712"
    },
    {
      "id": "pt.ine.add.PTCONT.2347916",
      "street": "ESTR CABO DA ROCA",
      "house": "11",
      "postcode": "2705-001",
      "city": "COLARES",
      "lon": "-9.479693823111775",
      "lat": "38.77362192942712"
    },
    {
      "id": "pt.ine.add.PTCONT.2384009",
      "street": "R CORREDOURAS",
      "house": "11",
      "postcode": "2705-001",
      "city": "COLARES",
      "lon": "-9.481116475020034",
      "lat": "38.77462338045294"
    },
    {
      "id": "pt.ine.add.PTCONT.2393942",
      "street": "ESTR CABO DA ROCA CASA DA FIEGUEIRA",
      "house": "",
      "postcode": "2705-001",
      "city": "COLARES",
      "lon": "-9.479430066809229",
      "lat": "38.77305749226648"
    },
    {
      "id": "pt.ine.add.PTCONT.2503156",
      "street": "R CAMPO DA BOLA",
      "house": "2",
      "postcode": "2705-001",
      "city": "COLARES",
      "lon": "-9.480229108900145",
      "lat": "38.77394003179773"
    },
    {
      "id": "pt.ine.add.PTCONT.2539182",
      "street": "R CORREDOURAS",
      "house": "7",
      "postcode": "2705-001",
      "city": "COLARES",
      "lon": "-9.481115651616832",
      "lat": "38.77519086607624"
    },
    {
      "id": "pt.ine.add.PTCONT.2851488",
      "street": "R CABECO DO PISAO",
      "house": "27",
      "postcode": "2705-001",
      "city": "COLARES",
      "lon": "-9.48156157792583",
      "lat": "38.774429086128386"
    },
    {
      "id": "pt.ine.add.PTCONT.2860662",
      "street": "R CABECO DO PISAO",
      "house": "27A",
      "postcode": "2705-001",
      "city": "COLARES",
      "lon": "-9.481591681028954",
      "lat": "38.77419454222861"
    },
    {
      "id": "pt.ine.add.PTCONT.2942438",
      "street": "ESTR CABO DA ROCA",
      "house": "",
      "postcode": "2705-001",
      "city": "COLARES",
      "lon": "-9.480664102427374",
      "lat": "38.7750429458733"
    },
    {
      "id": "pt.ine.add.PTCONT.2951882",
      "street": "R CORREDOURAS",
      "house": "3",
      "postcode": "2705-001",
      "city": "COLARES",
      "lon": "-9.481071329728701",
      "lat": "38.77528145294355"
    },
    {
      "id": "pt.ine.add.PTCONT.3015864",
      "street": "R CAVECO DO PISAO",
      "house": "14",
      "postcode": "2705-001",
      "city": "COLARES",
      "lon": "-9.480918168779084",
      "lat": "38.77386903304409"
    },
    {
      "id": "pt.ine.add.PTCONT.3024993",
      "street": "R CAMPO DA BOLA",
      "house": "20",
      "postcode": "2705-001",
      "city": "COLARES",
      "lon": "-9.478355122065791",
      "lat": "38.77096210238463"
    },
    {
      "id": "pt.ine.add.PTCONT.3024994",
      "street": "R CAMPO DA BOLA",
      "house": "20",
      "postcode": "2705-001",
      "city": "COLARES",
      "lon": "-9.478355122065791",
      "lat": "38.77096210238463"
    },
    {
      "id": "pt.ine.add.PTCONT.3024995",
      "street": "R CAMPO DA BOLA",
      "house": "20",
      "postcode": "2705-001",
      "city": "COLARES",
      "lon": "-9.478355122065791",
      "lat": "38.77096210238463"
    },
    {
      "id": "pt.ine.add.PTCONT.3024996",
      "street": "R CAMPO DA BOLA",
      "house": "20",
      "postcode": "2705-001",
      "city": "COLARES",
      "lon": "-9.478355122065791",
      "lat": "38.77096210238463"
    },
    {
      "id": "pt.ine.add.PTCONT.3024997",
      "street": "R CAMPO DA BOLA",
      "house": "20",
      "postcode": "2705-001",
      "city": "COLARES",
      "lon": "-9.478355122065791",
      "lat": "38.77096210238463"
    },
    {
      "id": "pt.ine.add.PTCONT.3025005",
      "street": "R CAMPO DA BOLA",
      "house": "20",
      "postcode": "2705-001",
      "city": "COLARES",
      "lon": "-9.478355122065791",
      "lat": "38.77096210238463"
    },
    {
      "id": "pt.ine.add.PTCONT.3062071",
      "street": "R CORREDOURAS",
      "house": "13",
      "postcode": "2705-001",
      "city": "COLARES",
      "lon": "-9.481460611182555",
      "lat": "38.77517787849748"
    },
    {
      "id": "pt.ine.add.PTCONT.3071624",
      "street": "R CAMPO DA BOLA",
      "house": "",
      "postcode": "2705-001",
      "city": "COLARES",
      "lon": "-9.478662505425968",
      "lat": "38.77078741958879"
    },
    {
      "id": "pt.ine.add.PTCONT.3247993",
      "street": "R TRIGO BRANCO QTA DAS CAMELIAS",
      "house": "",
      "postcode": "2705-001",
      "city": "COLARES",
      "lon": "-9.48235095435309",
      "lat": "38.77418577762621"
    },
    {
      "id": "pt.ine.add.PTCONT.3256528",
      "street": "SEM NOME",
      "house": "",
      "postcode": "2705-001",
      "city": "COLARES",
      "lon": "-9.48141756613779",
      "lat": "38.773502969382456"
    },
    {
      "id": "pt.ine.add.PTCONT.3431351",
      "street": "R CORREDOURAS",
      "house": "17",
      "postcode": "2705-001",
      "city": "COLARES",
      "lon": "-9.482016889272828",
      "lat": "38.775387639561885"
    },
    {
      "id": "pt.ine.add.PTCONT.3455506",
      "street": "R CORREDOURAS",
      "house": "15",
      "postcode": "2705-001",
      "city": "COLARES",
      "lon": "-9.481897774617291",
      "lat": "38.77517283319681"
    }
  ]
}