{
  "data": {
    "distrito": "Lisboa",
    "concelho": "Sintra",
    "freguesia": "Colares",
    "OBJECTID": 139,
    "BGRI2021": "11110500705",
    "DT21": "11",
    "DTMN21": "1111",
    "DTMNFR21": "111105",
    "DTMNFRSEC21": "111105007",
    "SECNUM21": "007",
    "SSNUM21": "05",
    "SECSSNUM21": "00705",
    "OBJECTID_1": 113679,
    "DT": "11",
    "CC": "11",
    "fr": "05",
    "SEC": "007",
    "SS": "05"
  },
  "addresses": [
    {
      "id": "pt.ine.add.PTCONT.2592790",
      "street": "R JUNQUEIROS",
      "house": "",
      "postcode": "2705-001",
      "city": "COLARES",
      "lon": "-9.475486467674047",
      "lat": "38.7756790250583"
    },
    {
      "id": "pt.ine.add.PTCONT.3003343",
      "street": "TV JUNQUEIROS",
      "house": "1",
      "postcode": "2705-001",
      "city": "COLARES",
      "lon": "-9.475537044024096",
      "lat": "38.77592164816435"
    },
    {
      "id": "pt.ine.add.PTCONT.3071623",
      "street": "R JUNQUEIROS",
      "house": "6",
      "postcode": "2705-001",
      "city": "COLARES",
      "lon": "-9.4756194550902",
      "lat": "38.77540727038965"
    },
    {
      "id": "pt.ine.add.PTCONT.3081483",
      "street": "R JUNQUEIROS CASA DA TAPADA",
      "house": "1",
      "postcode": "2705-001",
      "city": "COLARES",
      "lon": "-9.475656692196964",
      "lat": "38.77493844936184"
    },
    {
      "id": "pt.ine.add.PTCONT.3193199",
      "street": "TV JUNQUEIROS ESTRELA DO NORTE",
      "house": "",
      "postcode": "2705-001",
      "city": "COLARES",
      "lon": "-9.47675634628738",
      "lat": "38.77589862631711"
    },
    {
      "id": "pt.ine.add.PTCONT.3255925",
      "street": "R JUNQUEIROS",
      "house": "10",
      "postcode": "2705-001",
      "city": "COLARES",
      "lon": "-9.476135969122202",
      "lat": "38.775338282021586"
    },
    {
      "id": "pt.ine.add.PTCONT.3302997",
      "street": "R JUNQUEIROS",
      "house": "8",
      "postcode": "2705-001",
      "city": "COLARES",
      "lon": "-9.475724007563477",
      "lat": "38.77546011449181"
    },
    {
      "id": "pt.ine.add.PTCONT.3419714",
      "street": "TV DEOLINDA CATARINO",
      "house": "9",
      "postcode": "2705-001",
      "city": "COLARES",
      "lon": "-9.476958862657037",
      "lat": "38.775653093314205"
    },
    {
      "id": "pt.ine.add.PTCONT.3446153",
      "street": "R JUNQUEIROS",
      "house": "",
      "postcode": "2705-001",
      "city": "COLARES",
      "lon": "-9.475317615391901",
      "lat": "38.775879131055085"
    },
    {
      "id": "pt.ine.add.PTCONT.3456262",
      "street": "TV JUNQUEIROS",
      "house": "",
      "postcode": "2705-001",
      "city": "COLARES",
      "lon": "-9.476106016644703",
      "lat": "38.7755818304184"
    }
  ]
}