{
  "data": {
    "distrito": "Lisboa",
    "concelho": "Sintra",
    "freguesia": "Colares",
    "OBJECTID": 31,
    "BGRI2021": "11110500728",
    "DT21": "11",
    "DTMN21": "1111",
    "DTMNFR21": "111105",
    "DTMNFRSEC21": "111105007",
    "SECNUM21": "007",
    "SSNUM21": "28",
    "SECSSNUM21": "00728",
    "OBJECTID_1": 114131,
    "DT": "11",
    "CC": "11",
    "fr": "05",
    "SEC": "007",
    "SS": "28"
  },
  "addresses": [
    {
      "id": "pt.ine.add.PTCONT.2282019",
      "street": "R ROSAS",
      "house": "14 A",
      "postcode": "2705-349",
      "city": "COLARES",
      "lon": "-9.476181337476412",
      "lat": "38.786957503141814"
    },
    {
      "id": "pt.ine.add.PTCONT.2324148",
      "street": "R ROSEIRAL CASA DO FORNO",
      "house": "2",
      "postcode": "2705-349",
      "city": "COLARES",
      "lon": "-9.476440221071456",
      "lat": "38.787260783477876"
    },
    {
      "id": "pt.ine.add.PTCONT.2362777",
      "street": "R LIRIOS",
      "house": "2",
      "postcode": "2705-349",
      "city": "COLARES",
      "lon": "-9.475821603623865",
      "lat": "38.78679950191457"
    },
    {
      "id": "pt.ine.add.PTCONT.2362778",
      "street": "R HORTENCIAS",
      "house": "2",
      "postcode": "2705-349",
      "city": "COLARES",
      "lon": "-9.475821603623865",
      "lat": "38.78679950191457"
    },
    {
      "id": "pt.ine.add.PTCONT.2381593",
      "street": "R ROSEIRAL",
      "house": "8",
      "postcode": "2705-349",
      "city": "COLARES",
      "lon": "-9.476980339200127",
      "lat": "38.787218542213466"
    },
    {
      "id": "pt.ine.add.PTCONT.2454879",
      "street": "R GIESTAS",
      "house": "",
      "postcode": "2705-349",
      "city": "COLARES",
      "lon": "-9.477344311002343",
      "lat": "38.78698916674045"
    },
    {
      "id": "pt.ine.add.PTCONT.2463224",
      "street": "R ROSEIRAL",
      "house": "6",
      "postcode": "2705-349",
      "city": "COLARES",
      "lon": "-9.476958172128066",
      "lat": "38.787263834887256"
    },
    {
      "id": "pt.ine.add.PTCONT.2500176",
      "street": "R ROSAS",
      "house": "14",
      "postcode": "2705-349",
      "city": "COLARES",
      "lon": "-9.476217377084554",
      "lat": "38.7870381567569"
    },
    {
      "id": "pt.ine.add.PTCONT.2661565",
      "street": "R LIRIOS",
      "house": "8",
      "postcode": "2705-349",
      "city": "COLARES",
      "lon": "-9.475983704149348",
      "lat": "38.78685168423104"
    },
    {
      "id": "pt.ine.add.PTCONT.2782978",
      "street": "R FLORES",
      "house": "",
      "postcode": "2705-349",
      "city": "COLARES",
      "lon": "-9.479323887829532",
      "lat": "38.78699339773016"
    },
    {
      "id": "pt.ine.add.PTCONT.2839579",
      "street": "R LIRIOS CASAL DE S JOSE",
      "house": "10",
      "postcode": "2705-349",
      "city": "COLARES",
      "lon": "-9.476143439126526",
      "lat": "38.786777787894366"
    },
    {
      "id": "pt.ine.add.PTCONT.2839580",
      "street": "R ROSAS",
      "house": "10",
      "postcode": "2705-349",
      "city": "COLARES",
      "lon": "-9.476105525387329",
      "lat": "38.787210585799194"
    },
    {
      "id": "pt.ine.add.PTCONT.2857303",
      "street": "R ROSEIRAL",
      "house": "4",
      "postcode": "2705-349",
      "city": "COLARES",
      "lon": "-9.476669501145766",
      "lat": "38.787213109459294"
    },
    {
      "id": "pt.ine.add.PTCONT.2875638",
      "street": "R GIESTAS ROMEIRAS",
      "house": "8",
      "postcode": "2705-349",
      "city": "COLARES",
      "lon": "-9.476938034073473",
      "lat": "38.787417194732384"
    },
    {
      "id": "pt.ine.add.PTCONT.2903751",
      "street": "R HORTENCIAS CASA DO ACUCAR",
      "house": "",
      "postcode": "2705-349",
      "city": "COLARES",
      "lon": "-9.475731919102316",
      "lat": "38.78692663814357"
    },
    {
      "id": "pt.ine.add.PTCONT.2936195",
      "street": "R LIRIOS CASA VELHA",
      "house": "4",
      "postcode": "2705-349",
      "city": "COLARES",
      "lon": "-9.47597067728485",
      "lat": "38.786770766052875"
    },
    {
      "id": "pt.ine.add.PTCONT.3105393",
      "street": "R FLORES",
      "house": "30",
      "postcode": "2705-349",
      "city": "COLARES",
      "lon": "-9.478541126730432",
      "lat": "38.78698439888966"
    },
    {
      "id": "pt.ine.add.PTCONT.3272420",
      "street": "R ROSAS IASA DA TRAVESSA",
      "house": "12",
      "postcode": "2705-349",
      "city": "COLARES",
      "lon": "-9.476168479353804",
      "lat": "38.78688559059297"
    },
    {
      "id": "pt.ine.add.PTCONT.3355433",
      "street": "R GIESTAS",
      "house": "",
      "postcode": "2705-349",
      "city": "COLARES",
      "lon": "-9.477096754630717",
      "lat": "38.78728926350826"
    },
    {
      "id": "pt.ine.add.PTCONT.3410909",
      "street": "R HORTENCIAS O QUINTAL",
      "house": "20",
      "postcode": "2705-349",
      "city": "COLARES",
      "lon": "-9.475891299242715",
      "lat": "38.787447244121175"
    }
  ]
}