{
  "data": {
    "distrito": "Setúbal",
    "concelho": "Sines",
    "freguesia": "Sines",
    "OBJECTID": 293,
    "BGRI2021": "15130100120",
    "DT21": "15",
    "DTMN21": "1513",
    "DTMNFR21": "151301",
    "DTMNFRSEC21": "151301001",
    "SECNUM21": "001",
    "SSNUM21": "20",
    "SECSSNUM21": "00120",
    "OBJECTID_1": 171473,
    "DT": "15",
    "CC": "13",
    "fr": "01",
    "SEC": "001",
    "SS": "20"
  },
  "addresses": [
    {
      "id": "pt.ine.add.PTCONT.4706814",
      "street": "R EUGÉNIO DE PAULA TAVARES",
      "house": "",
      "postcode": "7520-109",
      "city": "SINES",
      "lon": "-8.880836853659602",
      "lat": "37.95635660895832"
    },
    {
      "id": "pt.ine.add.PTCONT.4776027",
      "street": "R EUGÉNIO DE PAULA TAVARES",
      "house": "",
      "postcode": "7520-109",
      "city": "SINES",
      "lon": "-8.88076261710805",
      "lat": "37.956291307495846"
    },
    {
      "id": "pt.ine.add.PTCONT.4818327",
      "street": "R EUGÉNIO DE PAULA TAVARES",
      "house": "",
      "postcode": "7520-109",
      "city": "SINES",
      "lon": "-8.881072373447537",
      "lat": "37.95654461795758"
    },
    {
      "id": "pt.ine.add.PTCONT.4828633",
      "street": "R EUGÉNIO DE PAULA TAVARES",
      "house": "",
      "postcode": "7520-109",
      "city": "SINES",
      "lon": "-8.88114952979702",
      "lat": "37.95661515029916"
    },
    {
      "id": "pt.ine.add.PTCONT.5033031",
      "street": "R EUGENIO DE PAULA TAVARES",
      "house": "10",
      "postcode": "7520-109",
      "city": "SINES",
      "lon": "-8.880993443564321",
      "lat": "37.95648476550133"
    },
    {
      "id": "pt.ine.add.PTCONT.5033719",
      "street": "R EUGÉNIO DE PAULA TAVARES",
      "house": "",
      "postcode": "7520-109",
      "city": "SINES",
      "lon": "-8.881231181026772",
      "lat": "37.956681895378175"
    },
    {
      "id": "pt.ine.add.PTCONT.5043937",
      "street": "R EUGENIO PAULA TAVARES",
      "house": "1",
      "postcode": "7520-109",
      "city": "SINES",
      "lon": "-8.88068206768718",
      "lat": "37.95622350551353"
    },
    {
      "id": "pt.ine.add.PTCONT.5132106",
      "street": "R 5 JULHO",
      "house": "10",
      "postcode": "7520-109",
      "city": "SINES",
      "lon": "-8.880993443564321",
      "lat": "37.95648476550133"
    }
  ]
}