{
  "data": {
    "distrito": "Vila Real",
    "concelho": "Chaves",
    "freguesia": "Vidago (União das freguesias de Vidago, Arcossó, Selhariz e Vilarinho das Paranheiras)",
    "OBJECTID": 714,
    "BGRI2021": "17036100213",
    "DT21": "17",
    "DTMN21": "1703",
    "DTMNFR21": "170361",
    "DTMNFRSEC21": "170361002",
    "SECNUM21": "002",
    "SSNUM21": "13",
    "SECSSNUM21": "00213",
    "OBJECTID_1": 181871,
    "DT": "17",
    "CC": "03",
    "fr": "61",
    "SEC": "002",
    "SS": "13"
  },
  "addresses": [
    {
      "id": "pt.ine.add.PTCONT.5288169",
      "street": "BR DO CANDAL",
      "house": "15",
      "postcode": "5425-344",
      "city": "VIDAGO",
      "lon": "-7.563508981862706",
      "lat": "41.64257304631193"
    },
    {
      "id": "pt.ine.add.PTCONT.5301509",
      "street": "R DO CANDAL",
      "house": "25",
      "postcode": "5425-306",
      "city": "VIDAGO",
      "lon": "-7.562490607808243",
      "lat": "41.64236091320255"
    },
    {
      "id": "pt.ine.add.PTCONT.5309990",
      "street": "BR DO CANDAL",
      "house": "23",
      "postcode": "5425-344",
      "city": "VIDAGO",
      "lon": "-7.562752674110309",
      "lat": "41.642587303210405"
    },
    {
      "id": "pt.ine.add.PTCONT.5342974",
      "street": "BR DO CANDAL",
      "house": "13",
      "postcode": "5425-344",
      "city": "VIDAGO",
      "lon": "-7.563645764039568",
      "lat": "41.64203350954684"
    },
    {
      "id": "pt.ine.add.PTCONT.5351113",
      "street": "R 20 DE JULHO",
      "house": "12",
      "postcode": "5425-323",
      "city": "VIDAGO",
      "lon": "-7.56584241617511",
      "lat": "41.642017360349065"
    },
    {
      "id": "pt.ine.add.PTCONT.5353240",
      "street": "AV 20 DE JULHO",
      "house": "14",
      "postcode": "5425-355",
      "city": "VIDAGO",
      "lon": "-7.566369332639057",
      "lat": "41.64215501312234"
    },
    {
      "id": "pt.ine.add.PTCONT.5359869",
      "street": "BR DO CANDAL",
      "house": "19",
      "postcode": "5425-344",
      "city": "VIDAGO",
      "lon": "-7.563020932069325",
      "lat": "41.642111444519344"
    },
    {
      "id": "pt.ine.add.PTCONT.5365867",
      "street": "BR DO CANDAL",
      "house": "17",
      "postcode": "5425-344",
      "city": "VIDAGO",
      "lon": "-7.563224891490228",
      "lat": "41.64212145946569"
    },
    {
      "id": "pt.ine.add.PTCONT.5390769",
      "street": "BR DO CANDAL",
      "house": "",
      "postcode": "5425-344",
      "city": "VIDAGO",
      "lon": "-7.563940591677785",
      "lat": "41.64262920572081"
    },
    {
      "id": "pt.ine.add.PTCONT.5393031",
      "street": "ESTR DE VALVERDE",
      "house": "21",
      "postcode": "5425-306",
      "city": "VIDAGO",
      "lon": "-7.562683836041901",
      "lat": "41.64222681864388"
    },
    {
      "id": "pt.ine.add.PTCONT.5394149",
      "street": "BR DO CANDAL",
      "house": "",
      "postcode": "5425-344",
      "city": "VIDAGO",
      "lon": "-7.563149307602811",
      "lat": "41.64252624556969"
    },
    {
      "id": "pt.ine.add.PTCONT.5413798",
      "street": "ESTR DE VALVERDE",
      "house": "5",
      "postcode": "5425-344",
      "city": "VIDAGO",
      "lon": "-7.565196111986631",
      "lat": "41.64180708676316"
    }
  ]
}