{
  "data": {
    "distrito": "Vila Real",
    "concelho": "Chaves",
    "freguesia": "Vidago (União das freguesias de Vidago, Arcossó, Selhariz e Vilarinho das Paranheiras)",
    "OBJECTID": 1788,
    "BGRI2021": "17036100230",
    "DT21": "17",
    "DTMN21": "1703",
    "DTMNFR21": "170361",
    "DTMNFRSEC21": "170361002",
    "SECNUM21": "002",
    "SSNUM21": "30",
    "SECSSNUM21": "00230",
    "OBJECTID_1": 182286,
    "DT": "17",
    "CC": "03",
    "fr": "61",
    "SEC": "002",
    "SS": "30"
  },
  "addresses": [
    {
      "id": "pt.ine.add.PTCONT.5292981",
      "street": "R PENEDO DO LOBO",
      "house": "2",
      "postcode": "5425-021",
      "city": "ARCOSSÓ",
      "lon": "-7.589494956762276",
      "lat": "41.652602806400836"
    },
    {
      "id": "pt.ine.add.PTCONT.5293995",
      "street": "R PENEDO DO LOBO",
      "house": "6",
      "postcode": "5425-021",
      "city": "ARCOSSÓ",
      "lon": "-7.591899355576492",
      "lat": "41.652190985207355"
    },
    {
      "id": "pt.ine.add.PTCONT.5337985",
      "street": "R PENEDO DO LOBO",
      "house": "5",
      "postcode": "5425-021",
      "city": "ARCOSSÓ",
      "lon": "-7.59301499505767",
      "lat": "41.652286268446645"
    },
    {
      "id": "pt.ine.add.PTCONT.5360449",
      "street": "QTA DA CANDEIRA",
      "house": "3",
      "postcode": "5425-025",
      "city": "ARCOSSÓ",
      "lon": "-7.593631943370379",
      "lat": "41.6517219411155"
    },
    {
      "id": "pt.ine.add.PTCONT.5371224",
      "street": "R PENEDO DO LOBO",
      "house": "2 A",
      "postcode": "5425-021",
      "city": "ARCOSSÓ",
      "lon": "-7.588998689847887",
      "lat": "41.65308665066206"
    },
    {
      "id": "pt.ine.add.PTCONT.5393356",
      "street": "R PENEDO LOBO",
      "house": "1",
      "postcode": "5425-021",
      "city": "ARCOSSÓ",
      "lon": "-7.59088564139784",
      "lat": "41.65282546067697"
    },
    {
      "id": "pt.ine.add.PTCONT.5405496",
      "street": "R PENEDO DO LOBO",
      "house": "2 A",
      "postcode": "5425-021",
      "city": "ARCOSSÓ",
      "lon": "-7.589070109994288",
      "lat": "41.65315901722677"
    },
    {
      "id": "pt.ine.add.PTCONT.5413182",
      "street": "R DA CANDEIRA",
      "house": "",
      "postcode": "5425-021",
      "city": "ARCOSSÓ",
      "lon": "-7.593648740286341",
      "lat": "41.652586362174766"
    }
  ]
}