{
  "data": {
    "ilha": "Ilha de São Miguel (Açores)",
    "concelho": "Lagoa (Açores)",
    "freguesia": "Lagoa (Santa Cruz)",
    "OBJECTID": 28,
    "BGRI2021": "42010400224",
    "DT21": "42",
    "DTMN21": "4201",
    "DTMNFR21": "420104",
    "DTMNFRSEC21": "420104002",
    "SECNUM21": "002",
    "SSNUM21": "24",
    "SECSSNUM21": "00224",
    "OBJECTID_1": 205930,
    "DT": "42",
    "CC": "01",
    "fr": "04",
    "SEC": "002",
    "SS": "24",
    "BGRI2021_1": "42010400224"
  },
  "addresses": [
    {
      "id": "pt.ine.add.AC26.15017",
      "street": "R PAU PIQUE",
      "house": "12",
      "postcode": "9560-501",
      "city": "LAGOA (SÃO MIGUEL)",
      "lon": "-25.541247317737437",
      "lat": "37.75153871083323"
    },
    {
      "id": "pt.ine.add.AC26.15018",
      "street": "R MANUEL SOUSA PEREIRA",
      "house": "22",
      "postcode": "9560-112",
      "city": "LAGOA (SÃO MIGUEL)",
      "lon": "-25.554564718908754",
      "lat": "37.74671887311644"
    },
    {
      "id": "pt.ine.add.AC26.15019",
      "street": "R PAU PIQUE",
      "house": "6",
      "postcode": "9560-501",
      "city": "LAGOA (SÃO MIGUEL)",
      "lon": "-25.54190579600506",
      "lat": "37.75384505871218"
    },
    {
      "id": "pt.ine.add.AC26.15020",
      "street": "R PAU PIQUE",
      "house": "8",
      "postcode": "9560-501",
      "city": "LAGOA (SÃO MIGUEL)",
      "lon": "-25.542204805966826",
      "lat": "37.75480408751203"
    },
    {
      "id": "pt.ine.add.AC26.23885",
      "street": "R MANUEL SOUSA PEREIRA",
      "house": "20",
      "postcode": "9560-112",
      "city": "LAGOA (SÃO MIGUEL)",
      "lon": "-25.55202720149584",
      "lat": "37.745885603294376"
    },
    {
      "id": "pt.ine.add.AC26.23886",
      "street": "R MANUEL SOUSA PEREIRA",
      "house": "20",
      "postcode": "9560-112",
      "city": "LAGOA (SÃO MIGUEL)",
      "lon": "-25.55202720149584",
      "lat": "37.745885603294376"
    },
    {
      "id": "pt.ine.add.AC26.26400",
      "street": "R REMENDINHO",
      "house": "4",
      "postcode": "9560-501",
      "city": "LAGOA (SÃO MIGUEL)",
      "lon": "-25.542087795200267",
      "lat": "37.74862003497349"
    },
    {
      "id": "pt.ine.add.AC26.46451",
      "street": "R PAU PIQUE",
      "house": "32",
      "postcode": "9560-501",
      "city": "LAGOA (SÃO MIGUEL)",
      "lon": "-25.54251305030574",
      "lat": "37.755871380148584"
    },
    {
      "id": "pt.ine.add.AC26.50331",
      "street": "R MANUEL SOUSA PEREIRA",
      "house": "30",
      "postcode": "9560-112",
      "city": "LAGOA (SÃO MIGUEL)",
      "lon": "-25.552966852684165",
      "lat": "37.748339549281866"
    },
    {
      "id": "pt.ine.add.AC26.60380",
      "street": "R CALDEIRO",
      "house": "16",
      "postcode": "9560-501",
      "city": "LAGOA (SÃO MIGUEL)",
      "lon": "-25.541109124091204",
      "lat": "37.7499057295471"
    },
    {
      "id": "pt.ine.add.AC26.60546",
      "street": "R PAU PIQUE",
      "house": "22",
      "postcode": "9560-501",
      "city": "LAGOA (SÃO MIGUEL)",
      "lon": "-25.541474330101753",
      "lat": "37.75269512629609"
    },
    {
      "id": "pt.ine.add.AC26.62436",
      "street": "R AGUINHAS",
      "house": "2",
      "postcode": "9560-501",
      "city": "LAGOA (SÃO MIGUEL)",
      "lon": "-25.54263562156269",
      "lat": "37.756566861574534"
    },
    {
      "id": "pt.ine.add.AC26.72558",
      "street": "R PAU PIQUE",
      "house": "4",
      "postcode": "9560-501",
      "city": "LAGOA (SÃO MIGUEL)",
      "lon": "-25.54137679648089",
      "lat": "37.75245959294885"
    }
  ]
}