{
  "data": {
    "distrito": "Castelo Branco",
    "concelho": "Fundão",
    "freguesia": "Orca",
    "OBJECTID": 529,
    "BGRI2021": "05042000121",
    "DT21": "05",
    "DTMN21": "0504",
    "DTMNFR21": "050420",
    "DTMNFRSEC21": "050420001",
    "SECNUM21": "001",
    "SSNUM21": "21",
    "SECSSNUM21": "00121",
    "OBJECTID_1": 43824,
    "DT": "05",
    "CC": "04",
    "fr": "20",
    "SEC": "001",
    "SS": "21"
  },
  "addresses": [
    {
      "id": "pt.ine.add.PTCONT.1012814",
      "street": "CC BARÃO",
      "house": "4",
      "postcode": "6230-512",
      "city": "ORCA",
      "lon": "-7.365947687785655",
      "lat": "40.04931087232588"
    },
    {
      "id": "pt.ine.add.PTCONT.1012815",
      "street": "LG IGREJA",
      "house": "",
      "postcode": "6230-512",
      "city": "ORCA",
      "lon": "-7.366243459214934",
      "lat": "40.04906066289828"
    },
    {
      "id": "pt.ine.add.PTCONT.1023527",
      "street": "R S FRANCISCO DEASSIS",
      "house": "1",
      "postcode": "6230-512",
      "city": "ORCA",
      "lon": "-7.365903340625149",
      "lat": "40.0490854291326"
    },
    {
      "id": "pt.ine.add.PTCONT.1025707",
      "street": "R FLORES",
      "house": "3",
      "postcode": "6230-512",
      "city": "ORCA",
      "lon": "-7.366241238959651",
      "lat": "40.04925877980319"
    },
    {
      "id": "pt.ine.add.PTCONT.1031150",
      "street": "CC BARÃO",
      "house": "6",
      "postcode": "6230-512",
      "city": "ORCA",
      "lon": "-7.366006781673524",
      "lat": "40.049266233691185"
    },
    {
      "id": "pt.ine.add.PTCONT.1032152",
      "street": "R FLORES",
      "house": "1 A",
      "postcode": "6230-512",
      "city": "ORCA",
      "lon": "-7.366064664151378",
      "lat": "40.049329658784956"
    },
    {
      "id": "pt.ine.add.PTCONT.1042603",
      "street": "R S FRANCISCO DE ASSIS",
      "house": "6",
      "postcode": "6230-512",
      "city": "ORCA",
      "lon": "-7.365902532903369",
      "lat": "40.04915747163821"
    },
    {
      "id": "pt.ine.add.PTCONT.1054559",
      "street": "CC BARÃO",
      "house": "10",
      "postcode": "6230-512",
      "city": "ORCA",
      "lon": "-7.366195175108819",
      "lat": "40.04918642704678"
    },
    {
      "id": "pt.ine.add.PTCONT.1058442",
      "street": "R FLORES",
      "house": "7",
      "postcode": "6230-512",
      "city": "ORCA",
      "lon": "-7.366311949510832",
      "lat": "40.04922322388284"
    },
    {
      "id": "pt.ine.add.PTCONT.1088017",
      "street": "LG IGREJA",
      "house": "4",
      "postcode": "6230-512",
      "city": "ORCA",
      "lon": "-7.366125776706173",
      "lat": "40.04910491381898"
    }
  ]
}