{
  "data": {
    "distrito": "Santarém",
    "concelho": "Mação",
    "freguesia": "Envendos",
    "OBJECTID": 370,
    "BGRI2021": "14130500222",
    "DT21": "14",
    "DTMN21": "1413",
    "DTMNFR21": "141305",
    "DTMNFRSEC21": "141305002",
    "SECNUM21": "002",
    "SSNUM21": "22",
    "SECSSNUM21": "00222",
    "OBJECTID_1": 152505,
    "DT": "14",
    "CC": "13",
    "fr": "05",
    "SEC": "002",
    "SS": "22"
  },
  "addresses": [
    {
      "id": "pt.ine.add.PTCONT.4417056",
      "street": "R CUMEADA",
      "house": "1",
      "postcode": "6120-069",
      "city": "ENVENDOS",
      "lon": "-7.855174651575069",
      "lat": "39.52931110470745"
    },
    {
      "id": "pt.ine.add.PTCONT.4427785",
      "street": "TV LOMBA",
      "house": "6",
      "postcode": "6120-069",
      "city": "ENVENDOS",
      "lon": "-7.855359058409189",
      "lat": "39.52973487027592"
    },
    {
      "id": "pt.ine.add.PTCONT.4443175",
      "street": "R CUMEADA",
      "house": "21",
      "postcode": "6120-069",
      "city": "ENVENDOS",
      "lon": "-7.855810787259248",
      "lat": "39.53313155306795"
    },
    {
      "id": "pt.ine.add.PTCONT.4479900",
      "street": "R SANTO ANTÓNIO",
      "house": "24",
      "postcode": "6120-019",
      "city": "ENVENDOS",
      "lon": "-7.855185241070045",
      "lat": "39.529572330446385"
    },
    {
      "id": "pt.ine.add.PTCONT.4541897",
      "street": "R SANTO ANTÓNIO",
      "house": "26",
      "postcode": "6120-069",
      "city": "ENVENDOS",
      "lon": "-7.8551040403829155",
      "lat": "39.52951809481654"
    },
    {
      "id": "pt.ine.add.PTCONT.4543408",
      "street": "R CUMEADA",
      "house": "20",
      "postcode": "6120-069",
      "city": "ENVENDOS",
      "lon": "-7.855301226887893",
      "lat": "39.529653669886955"
    },
    {
      "id": "pt.ine.add.PTCONT.4585140",
      "street": "TV CUMEADA",
      "house": "8",
      "postcode": "6120-069",
      "city": "ENVENDOS",
      "lon": "-7.855216938185324",
      "lat": "39.53037402123613"
    },
    {
      "id": "pt.ine.add.PTCONT.4589359",
      "street": "R CUMEADA",
      "house": "28",
      "postcode": "6120-016",
      "city": "ENVENDOS",
      "lon": "-7.855604024690799",
      "lat": "39.52955531710588"
    },
    {
      "id": "pt.ine.add.PTCONT.4631842",
      "street": "R CUMEADA",
      "house": "17",
      "postcode": "6120-069",
      "city": "ENVENDOS",
      "lon": "-7.855628218595344",
      "lat": "39.5293211951699"
    }
  ]
}