{
  "data": {
    "distrito": "Bragança",
    "concelho": "Bragança",
    "freguesia": "União das freguesias de Sé, Santa Maria e Meixedo",
    "OBJECTID": 246,
    "BGRI2021": "04025702413",
    "DT21": "04",
    "DTMN21": "0402",
    "DTMNFR21": "040257",
    "DTMNFRSEC21": "040257024",
    "SECNUM21": "024",
    "SSNUM21": "13",
    "SECSSNUM21": "02413",
    "OBJECTID_1": 34465,
    "DT": "04",
    "CC": "02",
    "fr": "57",
    "SEC": "024",
    "SS": "13"
  },
  "addresses": [
    {
      "id": "pt.ine.add.PTCONT.850116",
      "street": "R DR HERCULANO DA CONCEIÇÃO",
      "house": "",
      "postcode": "5300-032",
      "city": "BRAGANÇA",
      "lon": "-6.755121766657613",
      "lat": "41.807460226992056"
    },
    {
      "id": "pt.ine.add.PTCONT.850117",
      "street": "R DR HERCULANO DA CONCEIÇÃO",
      "house": "2",
      "postcode": "5300-032",
      "city": "BRAGANÇA",
      "lon": "-6.755121766657613",
      "lat": "41.807460226992056"
    },
    {
      "id": "pt.ine.add.PTCONT.850118",
      "street": "R DR HERCULANO DA CONCEIÇÃO",
      "house": "2",
      "postcode": "5300-032",
      "city": "BRAGANÇA",
      "lon": "-6.755121766657613",
      "lat": "41.807460226992056"
    },
    {
      "id": "pt.ine.add.PTCONT.850119",
      "street": "R DR HERCULANO DA CONCEIÇÃO",
      "house": "",
      "postcode": "5300-032",
      "city": "BRAGANÇA",
      "lon": "-6.755121766657613",
      "lat": "41.807460226992056"
    },
    {
      "id": "pt.ine.add.PTCONT.850120",
      "street": "R DR HERCULANO DA CONCEIÇÃO",
      "house": "",
      "postcode": "5300-032",
      "city": "BRAGANÇA",
      "lon": "-6.755121766657613",
      "lat": "41.807460226992056"
    },
    {
      "id": "pt.ine.add.PTCONT.860218",
      "street": "R DR HERCULANO DA CONCEIÇÃO",
      "house": "",
      "postcode": "5300-032",
      "city": "BRAGANÇA",
      "lon": "-6.755296940582075",
      "lat": "41.807147220961156"
    },
    {
      "id": "pt.ine.add.PTCONT.884699",
      "street": "R EMIDIO NAVARRO",
      "house": "2",
      "postcode": "5300-210",
      "city": "BRAGANÇA",
      "lon": "-6.755460468407167",
      "lat": "41.80681606880178"
    },
    {
      "id": "pt.ine.add.PTCONT.885227",
      "street": "R EMIDIO NAVARRO",
      "house": "4",
      "postcode": "5300-210",
      "city": "BRAGANÇA",
      "lon": "-6.755460468407167",
      "lat": "41.80681606880178"
    },
    {
      "id": "pt.ine.add.PTCONT.885228",
      "street": "R EMIDIO NAVARRO",
      "house": "4",
      "postcode": "5300-210",
      "city": "BRAGANÇA",
      "lon": "-6.755460468407167",
      "lat": "41.80681606880178"
    },
    {
      "id": "pt.ine.add.PTCONT.885229",
      "street": "R EMIDIO NAVARRO",
      "house": "4",
      "postcode": "5300-210",
      "city": "BRAGANÇA",
      "lon": "-6.755460468407167",
      "lat": "41.80681606880178"
    },
    {
      "id": "pt.ine.add.PTCONT.919559",
      "street": "AV CIDADE DE ZAMORA",
      "house": "",
      "postcode": "5300-111",
      "city": "BRAGANÇA",
      "lon": "-6.7547180161134746",
      "lat": "41.80777048976456"
    },
    {
      "id": "pt.ine.add.PTCONT.938959",
      "street": "R EMÍDIO NAVARRO",
      "house": "2",
      "postcode": "5300-210",
      "city": "BRAGANÇA",
      "lon": "-6.755085413866732",
      "lat": "41.806910603337215"
    },
    {
      "id": "pt.ine.add.PTCONT.947913",
      "street": "R DR HERCULANO DA CONCEIÇÃO",
      "house": "2",
      "postcode": "5300-032",
      "city": "BRAGANÇA",
      "lon": "-6.755121766657613",
      "lat": "41.807460226992056"
    }
  ]
}