{
  "data": {
    "distrito": "Lisboa",
    "concelho": "Sintra",
    "freguesia": "Uni達o das freguesias de Sintra (Santa Maria e S達o Miguel, S達o Martinho e S達o Pedro de Penaferrim)",
    "OBJECTID": 2753,
    "BGRI2021": "11112801317",
    "DT21": "11",
    "DTMN21": "1111",
    "DTMNFR21": "111128",
    "DTMNFRSEC21": "111128013",
    "SECNUM21": "013",
    "SSNUM21": "17",
    "SECSSNUM21": "01317",
    "OBJECTID_1": 111460,
    "DT": "11",
    "CC": "11",
    "fr": "28",
    "SEC": "013",
    "SS": "17"
  },
  "addresses": [
    {
      "id": "pt.ine.add.PTCONT.2322520",
      "street": "R PROF DR JOAQUIM FONTES",
      "house": "11",
      "postcode": "2710-654",
      "city": "SINTRA",
      "lon": "-9.394597325660605",
      "lat": "38.815763309770404"
    },
    {
      "id": "pt.ine.add.PTCONT.2364977",
      "street": "R PADRE AMARO TEIXEIRA DE AZEVEDO",
      "house": "39",
      "postcode": "2710-633",
      "city": "SINTRA",
      "lon": "-9.394627498337007",
      "lat": "38.81616832434377"
    },
    {
      "id": "pt.ine.add.PTCONT.2449060",
      "street": "R PROF DR JOAQUIM FONTES",
      "house": "15",
      "postcode": "2710-654",
      "city": "SINTRA",
      "lon": "-9.394901771681727",
      "lat": "38.81539971911868"
    },
    {
      "id": "pt.ine.add.PTCONT.2464964",
      "street": "R PADRE AMARO TEIXEIRA DE AZEVEDO",
      "house": "33",
      "postcode": "2710-633",
      "city": "SINTRA",
      "lon": "-9.394373614441172",
      "lat": "38.816135035529555"
    },
    {
      "id": "pt.ine.add.PTCONT.2568454",
      "street": "R PADRE AMARO TEIXEIRA DE AZEVEDO",
      "house": "33",
      "postcode": "2710-633",
      "city": "SINTRA",
      "lon": "-9.39426890089811",
      "lat": "38.81607311311501"
    },
    {
      "id": "pt.ine.add.PTCONT.2661819",
      "street": "R PADRE AMARO TEIXEIRA DE AZEVEDO",
      "house": "33",
      "postcode": "2710-633",
      "city": "SINTRA",
      "lon": "-9.394268265499742",
      "lat": "38.81603708971587"
    },
    {
      "id": "pt.ine.add.PTCONT.2729903",
      "street": "R PROF DR JOAQUIM FONTES",
      "house": "7",
      "postcode": "2710-654",
      "city": "SINTRA",
      "lon": "-9.394891304463949",
      "lat": "38.81611142979003"
    },
    {
      "id": "pt.ine.add.PTCONT.2729904",
      "street": "R PROF DR JOAQUIM FONTES",
      "house": "7",
      "postcode": "2710-654",
      "city": "SINTRA",
      "lon": "-9.394891304463949",
      "lat": "38.81611142979003"
    },
    {
      "id": "pt.ine.add.PTCONT.2867198",
      "street": "R GIESTAS",
      "house": "4",
      "postcode": "2710-647",
      "city": "SINTRA",
      "lon": "-9.394396868882412",
      "lat": "38.81549524733683"
    },
    {
      "id": "pt.ine.add.PTCONT.2948314",
      "street": "R GIESTAS CASALINHO SALOIO",
      "house": "2",
      "postcode": "2710-647",
      "city": "SINTRA",
      "lon": "-9.393779552006638",
      "lat": "38.81574511519891"
    },
    {
      "id": "pt.ine.add.PTCONT.3170103",
      "street": "R PROF DR JOAQUIM FONTES",
      "house": "5",
      "postcode": "2710-654",
      "city": "SINTRA",
      "lon": "-9.394870189010723",
      "lat": "38.81621974863315"
    }
  ]
}