{
  "data": {
    "distrito": "Leiria",
    "concelho": "Caldas da Rainha",
    "freguesia": "Santa Catarina",
    "OBJECTID": 586,
    "BGRI2021": "10061100120",
    "DT21": "10",
    "DTMN21": "1006",
    "DTMNFR21": "100611",
    "DTMNFRSEC21": "100611001",
    "SECNUM21": "001",
    "SSNUM21": "20",
    "SECSSNUM21": "00120",
    "OBJECTID_1": 88297,
    "DT": "10",
    "CC": "06",
    "fr": "11",
    "SEC": "001",
    "SS": "20"
  },
  "addresses": [
    {
      "id": "pt.ine.add.PTCONT.1986785",
      "street": "R SERRADINHA",
      "house": "2",
      "postcode": "2500-793",
      "city": "SANTA CATARINA CLD",
      "lon": "-9.00616494236926",
      "lat": "39.42853281607356"
    },
    {
      "id": "pt.ine.add.PTCONT.1988246",
      "street": "R MOIRANA",
      "house": "5",
      "postcode": "2500-793",
      "city": "SANTA CATARINA CLD",
      "lon": "-9.005347999913134",
      "lat": "39.42821469723368"
    },
    {
      "id": "pt.ine.add.PTCONT.2021136",
      "street": "R SERRADINHA",
      "house": "4",
      "postcode": "2500-793",
      "city": "SANTA CATARINA CLD",
      "lon": "-9.006096389089908",
      "lat": "39.42862339944151"
    },
    {
      "id": "pt.ine.add.PTCONT.2046008",
      "street": "R CAPELA",
      "house": "38",
      "postcode": "2500-793",
      "city": "SANTA CATARINA CLD",
      "lon": "-9.005860536280416",
      "lat": "39.428336949060665"
    },
    {
      "id": "pt.ine.add.PTCONT.2053700",
      "street": "R MOIRANA",
      "house": "1",
      "postcode": "2500-793",
      "city": "SANTA CATARINA CLD",
      "lon": "-9.005530435462177",
      "lat": "39.427943122498355"
    },
    {
      "id": "pt.ine.add.PTCONT.2064911",
      "street": "R PRINCIPAL",
      "house": "57",
      "postcode": "2500-788",
      "city": "SANTA CATARINA CLD",
      "lon": "-9.00324731361546",
      "lat": "39.43113064736539"
    },
    {
      "id": "pt.ine.add.PTCONT.2192253",
      "street": "R FONTE DA AZENHA",
      "house": "25",
      "postcode": "2500-788",
      "city": "SANTA CATARINA CLD",
      "lon": "-9.003699024171985",
      "lat": "39.42916376692519"
    },
    {
      "id": "pt.ine.add.PTCONT.2195083",
      "street": "R PRINCIPAL",
      "house": "55",
      "postcode": "2500-788",
      "city": "SANTA CATARINA CLD",
      "lon": "-9.00299249306258",
      "lat": "39.431186594663615"
    },
    {
      "id": "pt.ine.add.PTCONT.2236617",
      "street": "R FONTE DA AZENHA",
      "house": "1",
      "postcode": "2500-788",
      "city": "SANTA CATARINA CLD",
      "lon": "-9.002346624383643",
      "lat": "39.43155169838984"
    }
  ]
}