{
  "data": {
    "ilha": "Ilha da Madeira (Madeira)",
    "concelho": "Funchal",
    "freguesia": "Monte",
    "OBJECTID": 450,
    "BGRI2021": "31030200314",
    "DT21": "31",
    "DTMN21": "3103",
    "DTMNFR21": "310302",
    "DTMNFRSEC21": "310302003",
    "SECNUM21": "003",
    "SSNUM21": "14",
    "SECSSNUM21": "00314",
    "OBJECTID_1": 204099,
    "DT": "31",
    "CC": "03",
    "fr": "02",
    "SEC": "003",
    "SS": "14",
    "BGRI2021_1": "31030200314"
  },
  "addresses": [
    {
      "id": "pt.ine.add.MAD.4853",
      "street": "ESTR CURRAL DOS ROMEIROS",
      "house": "",
      "postcode": "9060-086",
      "city": "FUNCHAL",
      "lon": "-16.889655404067067",
      "lat": "32.677822064425676"
    },
    {
      "id": "pt.ine.add.MAD.5636",
      "street": "ESTR CURRAL DOS ROMEIROS",
      "house": "",
      "postcode": "9060-086",
      "city": "FUNCHAL",
      "lon": "-16.890451770615957",
      "lat": "32.67614158977378"
    },
    {
      "id": "pt.ine.add.MAD.5637",
      "street": "ESTR CURRAL DOS ROMEIROS",
      "house": "",
      "postcode": "9060-086",
      "city": "FUNCHAL",
      "lon": "-16.890557992682826",
      "lat": "32.67612195125516"
    },
    {
      "id": "pt.ine.add.MAD.5640",
      "street": "EURICO VIEIRA",
      "house": "",
      "postcode": "9060-086",
      "city": "FUNCHAL",
      "lon": "-16.88940793622969",
      "lat": "32.67771756699043"
    },
    {
      "id": "pt.ine.add.MAD.5641",
      "street": "RARIA GORETE FREITAS",
      "house": "",
      "postcode": "9060-086",
      "city": "FUNCHAL",
      "lon": "-16.88924021770842",
      "lat": "32.67785537503243"
    },
    {
      "id": "pt.ine.add.MAD.5642",
      "street": "EDUARDO VASCO SILVA",
      "house": "",
      "postcode": "9060-086",
      "city": "FUNCHAL",
      "lon": "-16.889587074166677",
      "lat": "32.67761566183152"
    },
    {
      "id": "pt.ine.add.MAD.5643",
      "street": "SIT CURRAL ROMEIROS CII",
      "house": "CII 110",
      "postcode": "9060-086",
      "city": "FUNCHAL",
      "lon": "-16.889976619453797",
      "lat": "32.676365200839115"
    },
    {
      "id": "pt.ine.add.MAD.5644",
      "street": "PAULO N F GAUDENCIO",
      "house": "",
      "postcode": "9060-086",
      "city": "FUNCHAL",
      "lon": "-16.889880297547787",
      "lat": "32.6763486145759"
    },
    {
      "id": "pt.ine.add.MAD.7971",
      "street": "CURRAL ROMEIROS CCI",
      "house": "",
      "postcode": "9050-288",
      "city": "FUNCHAL",
      "lon": "-16.890849828098577",
      "lat": "32.67580189495565"
    },
    {
      "id": "pt.ine.add.MAD.7972",
      "street": "SIT CURRAL DOS ROMEIROS",
      "house": "",
      "postcode": "9050-288",
      "city": "FUNCHAL",
      "lon": "-16.890956049662446",
      "lat": "32.6757822561168"
    },
    {
      "id": "pt.ine.add.MAD.7973",
      "street": "SIT CURRAL DOS ROMEIROS",
      "house": "",
      "postcode": "9050-288",
      "city": "FUNCHAL",
      "lon": "-16.891040760847385",
      "lat": "32.6757539226985"
    },
    {
      "id": "pt.ine.add.MAD.7974",
      "street": "SIT CURRAL ROMEIROS CCI",
      "house": "",
      "postcode": "9050-288",
      "city": "FUNCHAL",
      "lon": "-16.891113101576977",
      "lat": "32.675644606694"
    },
    {
      "id": "pt.ine.add.MAD.7975",
      "street": "SIT CURRAL DOS ROMEIROS",
      "house": "148",
      "postcode": "9060-086",
      "city": "FUNCHAL",
      "lon": "-16.8910165902688",
      "lat": "32.67561900536411"
    },
    {
      "id": "pt.ine.add.MAD.8771",
      "street": "CAM PRETOS",
      "house": "",
      "postcode": "9050-291",
      "city": "FUNCHAL",
      "lon": "-16.88533788201783",
      "lat": "32.67839208755666"
    },
    {
      "id": "pt.ine.add.MAD.9590",
      "street": "CAM PRETOS",
      "house": "",
      "postcode": "9050-291",
      "city": "FUNCHAL",
      "lon": "-16.885369754722547",
      "lat": "32.681430940245576"
    },
    {
      "id": "pt.ine.add.MAD.62994",
      "street": "CAM PRETOS",
      "house": "273",
      "postcode": "9050-291",
      "city": "FUNCHAL",
      "lon": "-16.8839571041245",
      "lat": "32.68220974563782"
    },
    {
      "id": "pt.ine.add.MAD.63154",
      "street": "JOSE VITOR FERNANDES",
      "house": "",
      "postcode": "9060-086",
      "city": "FUNCHAL",
      "lon": "-16.8895686017069",
      "lat": "32.67775122184944"
    },
    {
      "id": "pt.ine.add.MAD.71521",
      "street": "ESTR CURRAL DOS ROMEIROS",
      "house": "",
      "postcode": "9060-086",
      "city": "FUNCHAL",
      "lon": "-16.890939669652784",
      "lat": "32.676016991372094"
    },
    {
      "id": "pt.ine.add.MAD.78079",
      "street": "R NOVA DO CURRAL DOS ROMEIROS",
      "house": "211",
      "postcode": "9050-291",
      "city": "FUNCHAL",
      "lon": "-16.888682396628674",
      "lat": "32.678711541392595"
    },
    {
      "id": "pt.ine.add.MAD.78292",
      "street": "SIT CURRAL ROMEIROS",
      "house": "",
      "postcode": "9050-288",
      "city": "FUNCHAL",
      "lon": "-16.890541633298092",
      "lat": "32.675851634353336"
    },
    {
      "id": "pt.ine.add.MAD.78293",
      "street": "SIT CURRAL DOS ROMEIROS",
      "house": "",
      "postcode": "9050-288",
      "city": "FUNCHAL",
      "lon": "-16.89143290571075",
      "lat": "32.67563978475906"
    },
    {
      "id": "pt.ine.add.MAD.91270",
      "street": "SIT CURRAL ROMEIROS CII",
      "house": "CII 110",
      "postcode": "9060-086",
      "city": "FUNCHAL",
      "lon": "-16.88976379459831",
      "lat": "32.676386444986825"
    },
    {
      "id": "pt.ine.add.MAD.91272",
      "street": "SIT CURRAL ROMEIROS",
      "house": "",
      "postcode": "9050-288",
      "city": "FUNCHAL",
      "lon": "-16.891284043880503",
      "lat": "32.67566006692823"
    },
    {
      "id": "pt.ine.add.MAD.98492",
      "street": "ESTR CURRAL DOS ROMEIROS",
      "house": "",
      "postcode": "9060-086",
      "city": "FUNCHAL",
      "lon": "-16.89094823969003",
      "lat": "32.67591765557962"
    },
    {
      "id": "pt.ine.add.MAD.99797",
      "street": "SIT CURRAL DOS ROMEIROS CONSTANTINA P DO TANQUE",
      "house": "",
      "postcode": "9060-086",
      "city": "FUNCHAL",
      "lon": "-16.89112794236448",
      "lat": "32.675842796137836"
    },
    {
      "id": "pt.ine.add.MAD.104665",
      "street": "ESTR CURRAL DOS ROMEIROS",
      "house": "",
      "postcode": "9060-086",
      "city": "FUNCHAL",
      "lon": "-16.890608064020736",
      "lat": "32.6759678772633"
    },
    {
      "id": "pt.ine.add.MAD.106709",
      "street": "QTA DA RELVA CAMINHO DOS PRETOS",
      "house": "",
      "postcode": "9050-998",
      "city": "FUNCHAL",
      "lon": "-16.885308931951293",
      "lat": "32.678536823354314"
    }
  ]
}