{
  "data": {
    "distrito": "Castelo Branco",
    "concelho": "Fundão",
    "freguesia": "União das freguesias de Fundão, Valverde, Donas, Aldeia de Joanes e Aldeia Nova do Cabo",
    "OBJECTID": 319,
    "BGRI2021": "05043400622",
    "DT21": "05",
    "DTMN21": "0504",
    "DTMNFR21": "050434",
    "DTMNFRSEC21": "050434006",
    "SECNUM21": "006",
    "SSNUM21": "22",
    "SECSSNUM21": "00622",
    "OBJECTID_1": 43359,
    "DT": "05",
    "CC": "04",
    "fr": "34",
    "SEC": "006",
    "SS": "22"
  },
  "addresses": [
    {
      "id": "pt.ine.add.PTCONT.955688",
      "street": "R MANUEL BERNARDO DE CAMPOS",
      "house": "54",
      "postcode": "6230-045",
      "city": "ALDEIA DE JOANES",
      "lon": "-7.514145847711482",
      "lat": "40.13569098296932"
    },
    {
      "id": "pt.ine.add.PTCONT.955689",
      "street": "R MANUEL BERNARDO DE CAMPOS",
      "house": "54",
      "postcode": "6230-045",
      "city": "ALDEIA DE JOANES",
      "lon": "-7.514145847711482",
      "lat": "40.13569098296932"
    },
    {
      "id": "pt.ine.add.PTCONT.955690",
      "street": "R MANUEL BERNARDO DE CAMPOS",
      "house": "54",
      "postcode": "6230-045",
      "city": "ALDEIA DE JOANES",
      "lon": "-7.514145847711482",
      "lat": "40.13569098296932"
    },
    {
      "id": "pt.ine.add.PTCONT.955691",
      "street": "R MANUEL BERNARDO DE CAMPOS",
      "house": "54",
      "postcode": "6230-045",
      "city": "ALDEIA DE JOANES",
      "lon": "-7.514145847711482",
      "lat": "40.13569098296932"
    },
    {
      "id": "pt.ine.add.PTCONT.955692",
      "street": "R MANUEL BERNARDO DE CAMPOS",
      "house": "54",
      "postcode": "6230-045",
      "city": "ALDEIA DE JOANES",
      "lon": "-7.514145847711482",
      "lat": "40.13569098296932"
    },
    {
      "id": "pt.ine.add.PTCONT.955693",
      "street": "R MANUEL BERNARDO DE CAMPOS",
      "house": "54",
      "postcode": "6230-045",
      "city": "ALDEIA DE JOANES",
      "lon": "-7.514145847711482",
      "lat": "40.13569098296932"
    },
    {
      "id": "pt.ine.add.PTCONT.955694",
      "street": "R MANUEL BERNARDO DE CAMPOS",
      "house": "54",
      "postcode": "6230-045",
      "city": "ALDEIA DE JOANES",
      "lon": "-7.514145847711482",
      "lat": "40.13569098296932"
    },
    {
      "id": "pt.ine.add.PTCONT.955695",
      "street": "R MANUEL BERNARDO DE CAMPOS",
      "house": "54",
      "postcode": "6230-045",
      "city": "ALDEIA DE JOANES",
      "lon": "-7.514145847711482",
      "lat": "40.13569098296932"
    },
    {
      "id": "pt.ine.add.PTCONT.955696",
      "street": "R MANUEL BERNARDO DE CAMPOS",
      "house": "54",
      "postcode": "6230-045",
      "city": "ALDEIA DE JOANES",
      "lon": "-7.514145847711482",
      "lat": "40.13569098296932"
    },
    {
      "id": "pt.ine.add.PTCONT.955703",
      "street": "R MANUEL BERNARDO DE CAMPOS",
      "house": "54",
      "postcode": "6230-045",
      "city": "ALDEIA DE JOANES",
      "lon": "-7.514145847711482",
      "lat": "40.13569098296932"
    },
    {
      "id": "pt.ine.add.PTCONT.955704",
      "street": "R MANUEL BERNARDO DE CAMPOS",
      "house": "54",
      "postcode": "6230-045",
      "city": "ALDEIA DE JOANES",
      "lon": "-7.514145847711482",
      "lat": "40.13569098296932"
    },
    {
      "id": "pt.ine.add.PTCONT.955705",
      "street": "R MANUEL BERNARDO DE CAMPOS",
      "house": "54",
      "postcode": "6230-045",
      "city": "ALDEIA DE JOANES",
      "lon": "-7.514145847711482",
      "lat": "40.13569098296932"
    },
    {
      "id": "pt.ine.add.PTCONT.955706",
      "street": "R MANUEL BERNARDO DE CAMPOS",
      "house": "54",
      "postcode": "6230-045",
      "city": "ALDEIA DE JOANES",
      "lon": "-7.514145847711482",
      "lat": "40.13569098296932"
    },
    {
      "id": "pt.ine.add.PTCONT.955707",
      "street": "R MANUEL BERNARDO DE CAMPOS",
      "house": "54",
      "postcode": "6230-045",
      "city": "ALDEIA DE JOANES",
      "lon": "-7.514145847711482",
      "lat": "40.13569098296932"
    },
    {
      "id": "pt.ine.add.PTCONT.956129",
      "street": "R MANUEL BERNARDO DE CAMPOS",
      "house": "54",
      "postcode": "6230-045",
      "city": "ALDEIA DE JOANES",
      "lon": "-7.514145847711482",
      "lat": "40.13569098296932"
    },
    {
      "id": "pt.ine.add.PTCONT.956158",
      "street": "R MANUEL BERNARDO DE CAMPOS",
      "house": "54",
      "postcode": "6230-045",
      "city": "ALDEIA DE JOANES",
      "lon": "-7.514145847711482",
      "lat": "40.13569098296932"
    },
    {
      "id": "pt.ine.add.PTCONT.963083",
      "street": "R NOVA",
      "house": "",
      "postcode": "6230-045",
      "city": "ALDEIA DE JOANES",
      "lon": "-7.515304480560807",
      "lat": "40.13602138234116"
    },
    {
      "id": "pt.ine.add.PTCONT.966727",
      "street": "R CONVENTO",
      "house": "21",
      "postcode": "6230-045",
      "city": "ALDEIA DE JOANES",
      "lon": "-7.513686134886146",
      "lat": "40.13333798523416"
    },
    {
      "id": "pt.ine.add.PTCONT.971754",
      "street": "R NOVA",
      "house": "1",
      "postcode": "6230-045",
      "city": "ALDEIA DE JOANES",
      "lon": "-7.515866446027472",
      "lat": "40.13615946750867"
    },
    {
      "id": "pt.ine.add.PTCONT.1051662",
      "street": "CAM CALÇADA",
      "house": "",
      "postcode": "6230-045",
      "city": "ALDEIA DE JOANES",
      "lon": "-7.513708046705206",
      "lat": "40.13350921455086"
    },
    {
      "id": "pt.ine.add.PTCONT.1081301",
      "street": "CAM CALÇADA",
      "house": "",
      "postcode": "6230-045",
      "city": "ALDEIA DE JOANES",
      "lon": "-7.514318033236699",
      "lat": "40.13481833104581"
    },
    {
      "id": "pt.ine.add.PTCONT.1095486",
      "street": "CAM CALÇADA",
      "house": "",
      "postcode": "6230-045",
      "city": "ALDEIA DE JOANES",
      "lon": "-7.515858053685248",
      "lat": "40.13579018097856"
    },
    {
      "id": "pt.ine.add.PTCONT.1095633",
      "street": "R MANUEL BERNARDO DE CAMPOS",
      "house": "54",
      "postcode": "6230-045",
      "city": "ALDEIA DE JOANES",
      "lon": "-7.514145847711482",
      "lat": "40.13569098296932"
    }
  ]
}