{
  "data": {
    "distrito": "Viseu",
    "concelho": "Castro Daire",
    "freguesia": "Castro Daire",
    "OBJECTID": 238,
    "BGRI2021": "18030400104",
    "DT21": "18",
    "DTMN21": "1803",
    "DTMNFR21": "180304",
    "DTMNFRSEC21": "180304001",
    "SECNUM21": "001",
    "SSNUM21": "04",
    "SECSSNUM21": "00104",
    "OBJECTID_1": 189134,
    "DT": "18",
    "CC": "03",
    "fr": "04",
    "SEC": "001",
    "SS": "04"
  },
  "addresses": [
    {
      "id": "pt.ine.add.PTCONT.5458149",
      "street": "R QUINTA",
      "house": "11",
      "postcode": "3600-272",
      "city": "CASTRO DAIRE",
      "lon": "-7.900901035019043",
      "lat": "40.90783704011064"
    },
    {
      "id": "pt.ine.add.PTCONT.5461115",
      "street": "R CRUZEIRO",
      "house": "1",
      "postcode": "3600-272",
      "city": "CASTRO DAIRE",
      "lon": "-7.90037772480483",
      "lat": "40.90814214740216"
    },
    {
      "id": "pt.ine.add.PTCONT.5467132",
      "street": "R QUINTA",
      "house": "7",
      "postcode": "3600-272",
      "city": "CASTRO DAIRE",
      "lon": "-7.90088948101433",
      "lat": "40.90774696914977"
    },
    {
      "id": "pt.ine.add.PTCONT.5474422",
      "street": "R FIGUEIREDO",
      "house": "5",
      "postcode": "3600-272",
      "city": "CASTRO DAIRE",
      "lon": "-7.900771988642031",
      "lat": "40.90740455125009"
    },
    {
      "id": "pt.ine.add.PTCONT.5532540",
      "street": "R FIGUEIREDO",
      "house": "",
      "postcode": "3600-272",
      "city": "CASTRO DAIRE",
      "lon": "-7.900225195996734",
      "lat": "40.90763757240595"
    },
    {
      "id": "pt.ine.add.PTCONT.5549180",
      "street": "R QUINTA",
      "house": "3",
      "postcode": "3600-272",
      "city": "CASTRO DAIRE",
      "lon": "-7.900925371489478",
      "lat": "40.907665998484596"
    },
    {
      "id": "pt.ine.add.PTCONT.5557823",
      "street": "R PRINCIPAL",
      "house": "16",
      "postcode": "3600-272",
      "city": "CASTRO DAIRE",
      "lon": "-7.901009084104601",
      "lat": "40.90748607159055"
    },
    {
      "id": "pt.ine.add.PTCONT.5567356",
      "street": "R FIGUEIREDO",
      "house": "17",
      "postcode": "3600-272",
      "city": "CASTRO DAIRE",
      "lon": "-7.900141828697106",
      "lat": "40.907718446956466"
    },
    {
      "id": "pt.ine.add.PTCONT.5593249",
      "street": "R CRUZEIRO",
      "house": "7",
      "postcode": "3600-272",
      "city": "CASTRO DAIRE",
      "lon": "-7.900804129054669",
      "lat": "40.90839514063752"
    },
    {
      "id": "pt.ine.add.PTCONT.5664626",
      "street": "R PRINCIPAL",
      "house": "16",
      "postcode": "3600-272",
      "city": "CASTRO DAIRE",
      "lon": "-7.901009084104601",
      "lat": "40.90748607159055"
    }
  ]
}