{
  "data": {
    "distrito": "Guarda",
    "concelho": "Guarda",
    "freguesia": "Guarda",
    "OBJECTID": 162,
    "BGRI2021": "09075801616",
    "DT21": "09",
    "DTMN21": "0907",
    "DTMNFR21": "090758",
    "DTMNFRSEC21": "090758016",
    "SECNUM21": "016",
    "SSNUM21": "16",
    "SECSSNUM21": "01616",
    "OBJECTID_1": 78902,
    "DT": "09",
    "CC": "07",
    "fr": "58",
    "SEC": "016",
    "SS": "16"
  },
  "addresses": [
    {
      "id": "pt.ine.add.PTCONT.1920263",
      "street": "R COLMEIAS",
      "house": "100",
      "postcode": "6300-824",
      "city": "GUARDA",
      "lon": "-7.249728435859225",
      "lat": "40.5562699804197"
    },
    {
      "id": "pt.ine.add.PTCONT.1920264",
      "street": "R COLMEIAS",
      "house": "",
      "postcode": "6300-824",
      "city": "GUARDA",
      "lon": "-7.249728435859225",
      "lat": "40.5562699804197"
    },
    {
      "id": "pt.ine.add.PTCONT.1927937",
      "street": "R DA FONTE DA TIGELA",
      "house": "29",
      "postcode": "6300-836",
      "city": "GUARDA",
      "lon": "-7.249879302732767",
      "lat": "40.556469247524255"
    },
    {
      "id": "pt.ine.add.PTCONT.1927938",
      "street": "R DA FONTE DA TIGELA",
      "house": "29",
      "postcode": "6300-836",
      "city": "GUARDA",
      "lon": "-7.249879302732767",
      "lat": "40.556469247524255"
    },
    {
      "id": "pt.ine.add.PTCONT.1941278",
      "street": "AV DE S SALVADOR",
      "house": "3",
      "postcode": "6300-868",
      "city": "GUARDA",
      "lon": "-7.249082099860115",
      "lat": "40.5560399072511"
    },
    {
      "id": "pt.ine.add.PTCONT.1944962",
      "street": "AV DE S SALVADOR",
      "house": "97",
      "postcode": "6300-868",
      "city": "GUARDA",
      "lon": "-7.249421969014595",
      "lat": "40.556231615924084"
    },
    {
      "id": "pt.ine.add.PTCONT.1951310",
      "street": "AV S SALVADOR",
      "house": "99",
      "postcode": "6300-868",
      "city": "GUARDA",
      "lon": "-7.2495739002672375",
      "lat": "40.556349845104485"
    },
    {
      "id": "pt.ine.add.PTCONT.1951311",
      "street": "AV S SALVADOR",
      "house": "99",
      "postcode": "6300-868",
      "city": "GUARDA",
      "lon": "-7.2495739002672375",
      "lat": "40.556349845104485"
    },
    {
      "id": "pt.ine.add.PTCONT.1951312",
      "street": "R COLMEIAS",
      "house": "",
      "postcode": "6300-824",
      "city": "GUARDA",
      "lon": "-7.2495739002672375",
      "lat": "40.556349845104485"
    },
    {
      "id": "pt.ine.add.PTCONT.1951313",
      "street": "R COLMEIAS",
      "house": "",
      "postcode": "6300-824",
      "city": "GUARDA",
      "lon": "-7.2495739002672375",
      "lat": "40.556349845104485"
    },
    {
      "id": "pt.ine.add.PTCONT.1956137",
      "street": "R DAS FLORES",
      "house": "88",
      "postcode": "6300-363",
      "city": "GUARDA",
      "lon": "-7.249168290213967",
      "lat": "40.55577041187086"
    },
    {
      "id": "pt.ine.add.PTCONT.1958093",
      "street": "LG DOS NAMORADOS",
      "house": "90",
      "postcode": "6300-844",
      "city": "GUARDA",
      "lon": "-7.2495009698577695",
      "lat": "40.55561086393066"
    },
    {
      "id": "pt.ine.add.PTCONT.1958094",
      "street": "LG DOS NAMORADOS",
      "house": "90",
      "postcode": "6300-844",
      "city": "GUARDA",
      "lon": "-7.2495009698577695",
      "lat": "40.55561086393066"
    },
    {
      "id": "pt.ine.add.PTCONT.1968764",
      "street": "R DAS FLORES",
      "house": "7",
      "postcode": "6300-363",
      "city": "GUARDA",
      "lon": "-7.249025442008359",
      "lat": "40.55585937041812"
    },
    {
      "id": "pt.ine.add.PTCONT.1972010",
      "street": "AV DE S SALVADOR",
      "house": "9",
      "postcode": "6300-868",
      "city": "GUARDA",
      "lon": "-7.248882948823846",
      "lat": "40.55592131601457"
    },
    {
      "id": "pt.ine.add.PTCONT.1974947",
      "street": "R DAS COLMEIAS",
      "house": "98",
      "postcode": "6300-824",
      "city": "GUARDA",
      "lon": "-7.249576622883091",
      "lat": "40.55614274718234"
    },
    {
      "id": "pt.ine.add.PTCONT.1978055",
      "street": "AV DE S SALVADOR",
      "house": "3",
      "postcode": "6300-868",
      "city": "GUARDA",
      "lon": "-7.249082099860115",
      "lat": "40.5560399072511"
    },
    {
      "id": "pt.ine.add.PTCONT.1869301",
      "street": "LG DOS NAMORADOS",
      "house": "93",
      "postcode": "6300-844",
      "city": "GUARDA",
      "lon": "-7.249236990561433",
      "lat": "40.555933030447264"
    },
    {
      "id": "pt.ine.add.PTCONT.1869302",
      "street": "R DAS FLORES",
      "house": "89",
      "postcode": "6300-363",
      "city": "GUARDA",
      "lon": "-7.249299095926988",
      "lat": "40.55569937134327"
    },
    {
      "id": "pt.ine.add.PTCONT.1869797",
      "street": "LG DOS NAMORADOS",
      "house": "93",
      "postcode": "6300-844",
      "city": "GUARDA",
      "lon": "-7.249236990561433",
      "lat": "40.555933030447264"
    },
    {
      "id": "pt.ine.add.PTCONT.1878960",
      "street": "AV DE S SALVADOR",
      "house": "95",
      "postcode": "6300-868",
      "city": "GUARDA",
      "lon": "-7.249246427551084",
      "lat": "40.55611320590852"
    },
    {
      "id": "pt.ine.add.PTCONT.1887212",
      "street": "R DA FONTE DA TIGELA",
      "house": "30",
      "postcode": "6300-836",
      "city": "GUARDA",
      "lon": "-7.249986498232148",
      "lat": "40.55639802571811"
    },
    {
      "id": "pt.ine.add.PTCONT.1887213",
      "street": "R DA FONTE DA TIGELA",
      "house": "30",
      "postcode": "6300-836",
      "city": "GUARDA",
      "lon": "-7.249986498232148",
      "lat": "40.55639802571811"
    },
    {
      "id": "pt.ine.add.PTCONT.1887214",
      "street": "R DA FONTE DA TIGELA",
      "house": "30",
      "postcode": "6300-836",
      "city": "GUARDA",
      "lon": "-7.249986498232148",
      "lat": "40.55639802571811"
    },
    {
      "id": "pt.ine.add.PTCONT.1887298",
      "street": "R DA FONTE DA TIGELA",
      "house": "30",
      "postcode": "6300-836",
      "city": "GUARDA",
      "lon": "-7.249986498232148",
      "lat": "40.55639802571811"
    },
    {
      "id": "pt.ine.add.PTCONT.1895360",
      "street": "LG DOS NAMORADOS",
      "house": "96",
      "postcode": "6300-844",
      "city": "GUARDA",
      "lon": "-7.249389157616085",
      "lat": "40.55603325135181"
    },
    {
      "id": "pt.ine.add.PTCONT.1898563",
      "street": "R DA FONTE DA TIGELA",
      "house": "31",
      "postcode": "6300-836",
      "city": "GUARDA",
      "lon": "-7.250105380613654",
      "lat": "40.55633589830159"
    },
    {
      "id": "pt.ine.add.PTCONT.1898564",
      "street": "R DA FONTE DA TIGELA",
      "house": "31",
      "postcode": "6300-836",
      "city": "GUARDA",
      "lon": "-7.250105380613654",
      "lat": "40.55633589830159"
    },
    {
      "id": "pt.ine.add.PTCONT.1898565",
      "street": "R DA FONTE DA TIGELA",
      "house": "31",
      "postcode": "6300-836",
      "city": "GUARDA",
      "lon": "-7.250105380613654",
      "lat": "40.55633589830159"
    }
  ]
}