{
  "data": {
    "distrito": "Faro",
    "concelho": "Silves",
    "freguesia": "São Bartolomeu de Messines",
    "OBJECTID": 584,
    "BGRI2021": "08130500310",
    "DT21": "08",
    "DTMN21": "0813",
    "DTMNFR21": "081305",
    "DTMNFRSEC21": "081305003",
    "SECNUM21": "003",
    "SSNUM21": "10",
    "SECSSNUM21": "00310",
    "OBJECTID_1": 72716,
    "DT": "08",
    "CC": "13",
    "fr": "05",
    "SEC": "003",
    "SS": "10"
  },
  "addresses": [
    {
      "id": "pt.ine.add.PTCONT.1506393",
      "street": "R PERPENDICULAR A UNIAO POVO",
      "house": "",
      "postcode": "8375-157",
      "city": "S BARTOLOMEU DE MESSINES",
      "lon": "-8.283052123348547",
      "lat": "37.25527803185055"
    },
    {
      "id": "pt.ine.add.PTCONT.1584737",
      "street": "TV UNIAO DO POVO",
      "house": "2",
      "postcode": "8375-157",
      "city": "S BARTOLOMEU DE MESSINES",
      "lon": "-8.283176153721353",
      "lat": "37.25529589557089"
    },
    {
      "id": "pt.ine.add.PTCONT.1589219",
      "street": "R ANTÓNIO ALEIXO",
      "house": "39",
      "postcode": "8375-128",
      "city": "S BARTOLOMEU DE MESSINES",
      "lon": "-8.28290510254726",
      "lat": "37.255034936415015"
    },
    {
      "id": "pt.ine.add.PTCONT.1603404",
      "street": "R ANTÓNIO ALEIXO",
      "house": "27",
      "postcode": "8375-128",
      "city": "S BARTOLOMEU DE MESSINES",
      "lon": "-8.283277156771733",
      "lat": "37.25507050684414"
    },
    {
      "id": "pt.ine.add.PTCONT.1637759",
      "street": "R ANTONIO ALEIXO",
      "house": "31",
      "postcode": "8375-128",
      "city": "S BARTOLOMEU DE MESSINES",
      "lon": "-8.28318694336078",
      "lat": "37.255052600370306"
    },
    {
      "id": "pt.ine.add.PTCONT.1640029",
      "street": "R ANTONIO ALEIXO",
      "house": "29",
      "postcode": "8375-128",
      "city": "S BARTOLOMEU DE MESSINES",
      "lon": "-8.28318694336078",
      "lat": "37.255052600370306"
    },
    {
      "id": "pt.ine.add.PTCONT.1691436",
      "street": "R ANTÓNIO ALEIXO",
      "house": "33",
      "postcode": "8375-128",
      "city": "S BARTOLOMEU DE MESSINES",
      "lon": "-8.283085475651664",
      "lat": "37.255043718510464"
    },
    {
      "id": "pt.ine.add.PTCONT.1702883",
      "street": "R ANTÓNIO ALEIXO",
      "house": "41",
      "postcode": "8375-128",
      "city": "S BARTOLOMEU DE MESSINES",
      "lon": "-8.282803652722478",
      "lat": "37.25503506471809"
    },
    {
      "id": "pt.ine.add.PTCONT.1725737",
      "street": "R ANTÓNIO ALEIXO",
      "house": "37",
      "postcode": "8375-128",
      "city": "S BARTOLOMEU DE MESSINES",
      "lon": "-8.282961481407924",
      "lat": "37.25504387550246"
    },
    {
      "id": "pt.ine.add.PTCONT.1737186",
      "street": "R ANTÓNIO ALEIXO",
      "house": "35",
      "postcode": "8375-128",
      "city": "S BARTOLOMEU DE MESSINES",
      "lon": "-8.283029150342397",
      "lat": "37.25506181069547"
    },
    {
      "id": "pt.ine.add.PTCONT.1812434",
      "street": "R REVOLUCAO",
      "house": "2",
      "postcode": "8375-111",
      "city": "S BARTOLOMEU DE MESSINES",
      "lon": "-8.282815352840927",
      "lat": "37.255251300172134"
    },
    {
      "id": "pt.ine.add.PTCONT.1844087",
      "street": "R ANTÓNIO ALEIXO",
      "house": "25",
      "postcode": "8375-128",
      "city": "S BARTOLOMEU DE MESSINES",
      "lon": "-8.28335608012051",
      "lat": "37.25507941714903"
    }
  ]
}