{
  "data": {
    "distrito": "Portalegre",
    "concelho": "Nisa",
    "freguesia": "União das freguesias de Arez e Amieira do Tejo",
    "OBJECTID": 4,
    "BGRI2021": "12121100109",
    "DT21": "12",
    "DTMN21": "1212",
    "DTMNFR21": "121211",
    "DTMNFRSEC21": "121211001",
    "SECNUM21": "001",
    "SSNUM21": "09",
    "SECSSNUM21": "00109",
    "OBJECTID_1": 123326,
    "DT": "12",
    "CC": "12",
    "fr": "11",
    "SEC": "001",
    "SS": "09"
  },
  "addresses": [
    {
      "id": "pt.ine.add.PTCONT.3535901",
      "street": "R SACADURA CABRAL",
      "house": "1",
      "postcode": "6050-201",
      "city": "AREZ",
      "lon": "-7.725578733267854",
      "lat": "39.48377432354814"
    },
    {
      "id": "pt.ine.add.PTCONT.3485423",
      "street": "R ANTÓNIO ALMEIDA BASTOS",
      "house": "7",
      "postcode": "6050-201",
      "city": "AREZ",
      "lon": "-7.725405965121915",
      "lat": "39.48386908989441"
    },
    {
      "id": "pt.ine.add.PTCONT.3491095",
      "street": "R ANTÓNIO ALMEIDA BASTOS",
      "house": "11",
      "postcode": "6050-201",
      "city": "AREZ",
      "lon": "-7.725580200940045",
      "lat": "39.483861212512586"
    },
    {
      "id": "pt.ine.add.PTCONT.3492179",
      "street": "CAM CAMINHO TOLOSA",
      "house": "3",
      "postcode": "6050-101",
      "city": "AMIEIRA DO TEJO",
      "lon": "-7.725696868912941",
      "lat": "39.48189526514171"
    },
    {
      "id": "pt.ine.add.PTCONT.3496017",
      "street": "CAM CAMINHO TOLOSA",
      "house": "5",
      "postcode": "6050-101",
      "city": "AMIEIRA DO TEJO",
      "lon": "-7.72573242035201",
      "lat": "39.48177829919964"
    },
    {
      "id": "pt.ine.add.PTCONT.3504716",
      "street": "R SACADURA CABRAL",
      "house": "3",
      "postcode": "6050-201",
      "city": "AREZ",
      "lon": "-7.725568534946221",
      "lat": "39.48371458248037"
    },
    {
      "id": "pt.ine.add.PTCONT.3510546",
      "street": "R ANTÓNIO ALMEIDA BASTOS",
      "house": "3",
      "postcode": "6050-201",
      "city": "AREZ",
      "lon": "-7.724164104005619",
      "lat": "39.483628227946376"
    },
    {
      "id": "pt.ine.add.PTCONT.3511835",
      "street": "R ANTÓNIO ALMEIDA BASTOS",
      "house": "9",
      "postcode": "6050-201",
      "city": "AREZ",
      "lon": "-7.7252900769445265",
      "lat": "39.48384817646714"
    }
  ]
}