{
  "data": {
    "distrito": "Guarda",
    "concelho": "Sabugal",
    "freguesia": "União das freguesias do Sabugal e Aldeia de Santo António",
    "OBJECTID": 63,
    "BGRI2021": "09114500310",
    "DT21": "09",
    "DTMN21": "0911",
    "DTMNFR21": "091145",
    "DTMNFRSEC21": "091145003",
    "SECNUM21": "003",
    "SSNUM21": "10",
    "SECSSNUM21": "00310",
    "OBJECTID_1": 81387,
    "DT": "09",
    "CC": "11",
    "fr": "45",
    "SEC": "003",
    "SS": "10"
  },
  "addresses": [
    {
      "id": "pt.ine.add.PTCONT.1901691",
      "street": "R STA ISABEL",
      "house": "2",
      "postcode": "6320-444",
      "city": "SABUGAL",
      "lon": "-7.092561509194038",
      "lat": "40.35136147657468"
    },
    {
      "id": "pt.ine.add.PTCONT.1912769",
      "street": "R STO CONDESTÁVEL",
      "house": "4",
      "postcode": "6320-444",
      "city": "SABUGAL",
      "lon": "-7.092974947900814",
      "lat": "40.351266136168455"
    },
    {
      "id": "pt.ine.add.PTCONT.1916394",
      "street": "LG STA MARIA DE FÁTIMA",
      "house": "1",
      "postcode": "6320-328",
      "city": "SABUGAL",
      "lon": "-7.093244252636625",
      "lat": "40.35135861197744"
    },
    {
      "id": "pt.ine.add.PTCONT.1924688",
      "street": "R STO CONDESTÁVEL",
      "house": "8",
      "postcode": "6320-444",
      "city": "SABUGAL",
      "lon": "-7.0930454237848455",
      "lat": "40.35127577539308"
    },
    {
      "id": "pt.ine.add.PTCONT.1927517",
      "street": "LG STO CONDESTÁVEL",
      "house": "6",
      "postcode": "6320-444",
      "city": "SABUGAL",
      "lon": "-7.092867504570658",
      "lat": "40.35136422929248"
    },
    {
      "id": "pt.ine.add.PTCONT.1931615",
      "street": "LG STO CONDESTÁVEL",
      "house": "2",
      "postcode": "6320-444",
      "city": "SABUGAL",
      "lon": "-7.092678092605333",
      "lat": "40.35143456870886"
    },
    {
      "id": "pt.ine.add.PTCONT.1950010",
      "street": "R D SANCHO I",
      "house": "",
      "postcode": "6320-368",
      "city": "SABUGAL",
      "lon": "-7.092996549125543",
      "lat": "40.35139240615078"
    },
    {
      "id": "pt.ine.add.PTCONT.1960759",
      "street": "R D SANCHO I",
      "house": "",
      "postcode": "6320-368",
      "city": "SABUGAL",
      "lon": "-7.0930555327609985",
      "lat": "40.351383931197766"
    },
    {
      "id": "pt.ine.add.PTCONT.1851837",
      "street": "R STO CONDESTÁVEL",
      "house": "12",
      "postcode": "6320-444",
      "city": "SABUGAL",
      "lon": "-7.0931748832181345",
      "lat": "40.35127693955954"
    },
    {
      "id": "pt.ine.add.PTCONT.1867978",
      "street": "R D SANCHO I",
      "house": "5",
      "postcode": "6320-368",
      "city": "SABUGAL",
      "lon": "-7.093114378051211",
      "lat": "40.35138446037831"
    },
    {
      "id": "pt.ine.add.PTCONT.1877189",
      "street": "LG SANTO CONDESTÁVEL",
      "house": "1",
      "postcode": "6320-344",
      "city": "SABUGAL",
      "lon": "-7.092667569056218",
      "lat": "40.35135342536751"
    },
    {
      "id": "pt.ine.add.PTCONT.1880599",
      "street": "R STO CONDESTÁVEL",
      "house": "8",
      "postcode": "6320-444",
      "city": "SABUGAL",
      "lon": "-7.0931160380202485",
      "lat": "40.35127641041091"
    },
    {
      "id": "pt.ine.add.PTCONT.1888384",
      "street": "LG STO CONDESTÁVEL",
      "house": "5",
      "postcode": "6320-444",
      "city": "SABUGAL",
      "lon": "-7.092902119935594",
      "lat": "40.35140956767794"
    },
    {
      "id": "pt.ine.add.PTCONT.1888400",
      "street": "TV D DINIS",
      "house": "6",
      "postcode": "6320-444",
      "city": "SABUGAL",
      "lon": "-7.093245497457656",
      "lat": "40.351277574498376"
    },
    {
      "id": "pt.ine.add.PTCONT.1890963",
      "street": "R STA ISABEL",
      "house": "3",
      "postcode": "6320-444",
      "city": "SABUGAL",
      "lon": "-7.092513325697562",
      "lat": "40.351433086304816"
    }
  ]
}