{
  "data": {
    "distrito": "Viseu",
    "concelho": "Cinfães",
    "freguesia": "Santiago de Piães",
    "OBJECTID": 620,
    "BGRI2021": "18041200102",
    "DT21": "18",
    "DTMN21": "1804",
    "DTMNFR21": "180412",
    "DTMNFRSEC21": "180412001",
    "SECNUM21": "001",
    "SSNUM21": "02",
    "SECSSNUM21": "00102",
    "OBJECTID_1": 190171,
    "DT": "18",
    "CC": "04",
    "fr": "12",
    "SEC": "001",
    "SS": "02"
  },
  "addresses": [
    {
      "id": "pt.ine.add.PTCONT.5430938",
      "street": "R RAIZ",
      "house": "",
      "postcode": "4690-497",
      "city": "SANTIAGO DE PIÃES",
      "lon": "-8.175703091200988",
      "lat": "41.03170624458062"
    },
    {
      "id": "pt.ine.add.PTCONT.5432644",
      "street": "R RAIZ",
      "house": "",
      "postcode": "4690-497",
      "city": "SANTIAGO DE PIÃES",
      "lon": "-8.175869628091801",
      "lat": "41.03179622877213"
    },
    {
      "id": "pt.ine.add.PTCONT.5458394",
      "street": "R RAMADA",
      "house": "35",
      "postcode": "4690-497",
      "city": "SANTIAGO DE PIÃES",
      "lon": "-8.176939813468662",
      "lat": "41.03174179924442"
    },
    {
      "id": "pt.ine.add.PTCONT.5465971",
      "street": "R RAIZ",
      "house": "22",
      "postcode": "4690-497",
      "city": "SANTIAGO DE PIÃES",
      "lon": "-8.177248988227621",
      "lat": "41.03174168125336"
    },
    {
      "id": "pt.ine.add.PTCONT.5474654",
      "street": "R RAMADA",
      "house": "53",
      "postcode": "4690-497",
      "city": "SANTIAGO DE PIÃES",
      "lon": "-8.177022909229592",
      "lat": "41.03152565755228"
    },
    {
      "id": "pt.ine.add.PTCONT.5499807",
      "street": "R RAIZ",
      "house": "22",
      "postcode": "4690-497",
      "city": "SANTIAGO DE PIÃES",
      "lon": "-8.175417635853432",
      "lat": "41.03160729927548"
    },
    {
      "id": "pt.ine.add.PTCONT.5532142",
      "street": "R RAIZ",
      "house": "188",
      "postcode": "4690-497",
      "city": "SANTIAGO DE PIÃES",
      "lon": "-8.175144107018607",
      "lat": "41.031562376428916"
    },
    {
      "id": "pt.ine.add.PTCONT.5547663",
      "street": "R RAMADA",
      "house": "12",
      "postcode": "4690-497",
      "city": "SANTIAGO DE PIÃES",
      "lon": "-8.176916102419142",
      "lat": "41.03184986328685"
    },
    {
      "id": "pt.ine.add.PTCONT.5553620",
      "street": "R FRANCISCO CARDOSO SILVA",
      "house": "42",
      "postcode": "4690-497",
      "city": "SANTIAGO DE PIÃES",
      "lon": "-8.177629304766784",
      "lat": "41.031435379052056"
    },
    {
      "id": "pt.ine.add.PTCONT.5578621",
      "street": "R QUELHOS",
      "house": "43",
      "postcode": "4690-497",
      "city": "SANTIAGO DE PIÃES",
      "lon": "-8.177997347372456",
      "lat": "41.030570795959925"
    },
    {
      "id": "pt.ine.add.PTCONT.5597158",
      "street": "R FRANCISCO CARDOSO DA SILVA",
      "house": "72",
      "postcode": "4690-497",
      "city": "SANTIAGO DE PIÃES",
      "lon": "-8.177344022490617",
      "lat": "41.03159757144515"
    },
    {
      "id": "pt.ine.add.PTCONT.5600813",
      "street": "R QUELHOS",
      "house": "11",
      "postcode": "4690-497",
      "city": "SANTIAGO DE PIÃES",
      "lon": "-8.177926232647238",
      "lat": "41.03091299795139"
    }
  ]
}