{
  "data": {
    "distrito": "Guarda",
    "concelho": "Guarda",
    "freguesia": "Arrifana",
    "OBJECTID": 358,
    "BGRI2021": "09070600113",
    "DT21": "09",
    "DTMN21": "0907",
    "DTMNFR21": "090706",
    "DTMNFRSEC21": "090706001",
    "SECNUM21": "001",
    "SSNUM21": "13",
    "SECSSNUM21": "00113",
    "OBJECTID_1": 79118,
    "DT": "09",
    "CC": "07",
    "fr": "06",
    "SEC": "001",
    "SS": "13"
  },
  "addresses": [
    {
      "id": "pt.ine.add.PTCONT.1903351",
      "street": "R DO PEDRAGAL",
      "house": "6",
      "postcode": "6300-035",
      "city": "ARRIFANA GRD",
      "lon": "-7.206780226058454",
      "lat": "40.570530911771506"
    },
    {
      "id": "pt.ine.add.PTCONT.1923399",
      "street": "R DO CARRASCAL",
      "house": "5",
      "postcode": "6300-035",
      "city": "ARRIFANA GRD",
      "lon": "-7.207099035796494",
      "lat": "40.570533467887934"
    },
    {
      "id": "pt.ine.add.PTCONT.1923938",
      "street": "TV DO PEDRAGAL",
      "house": "1",
      "postcode": "6300-035",
      "city": "ARRIFANA GRD",
      "lon": "-7.206300947100008",
      "lat": "40.5693203806376"
    },
    {
      "id": "pt.ine.add.PTCONT.1938100",
      "street": "TV DAS HORTAS",
      "house": "2",
      "postcode": "6300-035",
      "city": "ARRIFANA GRD",
      "lon": "-7.206524553928629",
      "lat": "40.57023169212691"
    },
    {
      "id": "pt.ine.add.PTCONT.1955087",
      "street": "TV DO PEDRAGAL",
      "house": "3",
      "postcode": "6300-035",
      "city": "ARRIFANA GRD",
      "lon": "-7.206442637739456",
      "lat": "40.569321517357984"
    },
    {
      "id": "pt.ine.add.PTCONT.1956004",
      "street": "R DO CIMO",
      "house": "11",
      "postcode": "6300-035",
      "city": "ARRIFANA GRD",
      "lon": "-7.2064574262846595",
      "lat": "40.56910551295882"
    },
    {
      "id": "pt.ine.add.PTCONT.1962899",
      "street": "R DO CIMO",
      "house": "9",
      "postcode": "6300-035",
      "city": "ARRIFANA GRD",
      "lon": "-7.206610923993615",
      "lat": "40.56910674418482"
    },
    {
      "id": "pt.ine.add.PTCONT.1855366",
      "street": "LG DA IGREJA",
      "house": "3",
      "postcode": "6300-035",
      "city": "ARRIFANA GRD",
      "lon": "-7.207227290462196",
      "lat": "40.56979607568331"
    },
    {
      "id": "pt.ine.add.PTCONT.1861351",
      "street": "TV DE STO ANTÃ“NIO",
      "house": "2",
      "postcode": "6300-035",
      "city": "ARRIFANA GRD",
      "lon": "-7.206863501226413",
      "lat": "40.57048655390818"
    },
    {
      "id": "pt.ine.add.PTCONT.1864111",
      "street": "LG DA IGREJA",
      "house": "5",
      "postcode": "6300-035",
      "city": "ARRIFANA GRD",
      "lon": "-7.207322372052962",
      "lat": "40.56975181210982"
    },
    {
      "id": "pt.ine.add.PTCONT.1865114",
      "street": "TV DA PONTE",
      "house": "2",
      "postcode": "6300-035",
      "city": "ARRIFANA GRD",
      "lon": "-7.207065210855366",
      "lat": "40.56956064320348"
    },
    {
      "id": "pt.ine.add.PTCONT.1870574",
      "street": "LG DA IGREJA",
      "house": "1",
      "postcode": "6300-035",
      "city": "ARRIFANA GRD",
      "lon": "-7.207347476405974",
      "lat": "40.56964395179101"
    },
    {
      "id": "pt.ine.add.PTCONT.1877902",
      "street": "R DO PEDRAGAL",
      "house": "8",
      "postcode": "6300-035",
      "city": "ARRIFANA GRD",
      "lon": "-7.20671024871264",
      "lat": "40.57046731472629"
    },
    {
      "id": "pt.ine.add.PTCONT.1881217",
      "street": "R DA IGREJA",
      "house": "1",
      "postcode": "6300-035",
      "city": "ARRIFANA GRD",
      "lon": "-7.207120525221597",
      "lat": "40.5698312403956"
    },
    {
      "id": "pt.ine.add.PTCONT.1884453",
      "street": "R DO CARRASCAL",
      "house": "3",
      "postcode": "6300-035",
      "city": "ARRIFANA GRD",
      "lon": "-7.2070615022328255",
      "lat": "40.570686254116154"
    },
    {
      "id": "pt.ine.add.PTCONT.1885845",
      "street": "TV DA PONTE",
      "house": "1",
      "postcode": "6300-035",
      "city": "ARRIFANA GRD",
      "lon": "-7.207219330166277",
      "lat": "40.56951685297646"
    },
    {
      "id": "pt.ine.add.PTCONT.1891076",
      "street": "R DO CARRASCAL",
      "house": "1",
      "postcode": "6300-035",
      "city": "ARRIFANA GRD",
      "lon": "-7.207083876520244",
      "lat": "40.57077648472283"
    },
    {
      "id": "pt.ine.add.PTCONT.1891643",
      "street": "R DO PEDRAGAL",
      "house": "4",
      "postcode": "6300-035",
      "city": "ARRIFANA GRD",
      "lon": "-7.207050563379857",
      "lat": "40.57062313055251"
    },
    {
      "id": "pt.ine.add.PTCONT.1894887",
      "street": "R DO CIMO",
      "house": "7",
      "postcode": "6300-035",
      "city": "ARRIFANA GRD",
      "lon": "-7.206775980899948",
      "lat": "40.56912607815417"
    }
  ]
}