{
  "data": {
    "distrito": "Coimbra",
    "concelho": "Soure",
    "freguesia": "União das freguesias de Gesteira e Brunhós",
    "OBJECTID": 108,
    "BGRI2021": "06151400121",
    "DT21": "06",
    "DTMN21": "0615",
    "DTMNFR21": "061514",
    "DTMNFRSEC21": "061514001",
    "SECNUM21": "001",
    "SSNUM21": "21",
    "SECSSNUM21": "00121",
    "OBJECTID_1": 57219,
    "DT": "06",
    "CC": "15",
    "fr": "14",
    "SEC": "001",
    "SS": "21"
  },
  "addresses": [
    {
      "id": "pt.ine.add.PTCONT.1103513",
      "street": "R CANIÇO",
      "house": "",
      "postcode": "3130-062",
      "city": "GESTEIRA",
      "lon": "-8.657881143958468",
      "lat": "40.083273102535024"
    },
    {
      "id": "pt.ine.add.PTCONT.1139652",
      "street": "R FONTE VELHA",
      "house": "",
      "postcode": "3130-062",
      "city": "GESTEIRA",
      "lon": "-8.658572110467647",
      "lat": "40.083170904247346"
    },
    {
      "id": "pt.ine.add.PTCONT.1154707",
      "street": "R LAVADOURO",
      "house": "",
      "postcode": "3130-062",
      "city": "GESTEIRA",
      "lon": "-8.657917146378843",
      "lat": "40.08338101147763"
    },
    {
      "id": "pt.ine.add.PTCONT.1235736",
      "street": "R CANIÇO",
      "house": "",
      "postcode": "3130-062",
      "city": "GESTEIRA",
      "lon": "-8.658211912528296",
      "lat": "40.08359581975535"
    },
    {
      "id": "pt.ine.add.PTCONT.1260162",
      "street": "R MARIA LUIZA RUAS",
      "house": "",
      "postcode": "3130-062",
      "city": "GESTEIRA",
      "lon": "-8.658172311963604",
      "lat": "40.083019615022216"
    },
    {
      "id": "pt.ine.add.PTCONT.1330154",
      "street": "R CANIÇO",
      "house": "",
      "postcode": "3130-062",
      "city": "GESTEIRA",
      "lon": "-8.657941562979294",
      "lat": "40.08350698490598"
    },
    {
      "id": "pt.ine.add.PTCONT.1367338",
      "street": "R MARIA LUIZA RUAS",
      "house": "",
      "postcode": "3130-062",
      "city": "GESTEIRA",
      "lon": "-8.658067624535816",
      "lat": "40.083128161536685"
    }
  ]
}