{
  "data": {
    "distrito": "Viseu",
    "concelho": "Resende",
    "freguesia": "União das freguesias de Anreade e São Romão de Aregos",
    "OBJECTID": 278,
    "BGRI2021": "18131600124",
    "DT21": "18",
    "DTMN21": "1813",
    "DTMNFR21": "181316",
    "DTMNFRSEC21": "181316001",
    "SECNUM21": "001",
    "SSNUM21": "24",
    "SECSSNUM21": "00124",
    "OBJECTID_1": 195413,
    "DT": "18",
    "CC": "13",
    "fr": "16",
    "SEC": "001",
    "SS": "24"
  },
  "addresses": [
    {
      "id": "pt.ine.add.PTCONT.5489930",
      "street": "R VINHA",
      "house": "",
      "postcode": "4660-014",
      "city": "ANREADE",
      "lon": "-7.999542005865375",
      "lat": "41.09781102187323"
    },
    {
      "id": "pt.ine.add.PTCONT.5510218",
      "street": "R POUSADA",
      "house": "",
      "postcode": "4660-014",
      "city": "ANREADE",
      "lon": "-7.996969368401741",
      "lat": "41.09855538263102"
    },
    {
      "id": "pt.ine.add.PTCONT.5521852",
      "street": "R BAIRRAL",
      "house": "",
      "postcode": "4660-011",
      "city": "ANREADE",
      "lon": "-7.993243678022463",
      "lat": "41.0985239068969"
    },
    {
      "id": "pt.ine.add.PTCONT.5550840",
      "street": "R S MIGUEL",
      "house": "",
      "postcode": "4660-011",
      "city": "ANREADE",
      "lon": "-7.9929583614990625",
      "lat": "41.0983524751254"
    },
    {
      "id": "pt.ine.add.PTCONT.5573894",
      "street": "R GRANJA",
      "house": "",
      "postcode": "4660-011",
      "city": "ANREADE",
      "lon": "-8.000419817661744",
      "lat": "41.099315783926535"
    },
    {
      "id": "pt.ine.add.PTCONT.5585232",
      "street": "R GRANJA",
      "house": "",
      "postcode": "4660-011",
      "city": "ANREADE",
      "lon": "-7.9929339040095515",
      "lat": "41.0986585976161"
    },
    {
      "id": "pt.ine.add.PTCONT.5598054",
      "street": "R GRANJA",
      "house": "",
      "postcode": "4660-011",
      "city": "ANREADE",
      "lon": "-8.000443479690903",
      "lat": "41.099387846987504"
    },
    {
      "id": "pt.ine.add.PTCONT.5603469",
      "street": "R GRANJA",
      "house": "",
      "postcode": "4660-011",
      "city": "ANREADE",
      "lon": "-8.000336384452103",
      "lat": "41.0993697146752"
    },
    {
      "id": "pt.ine.add.PTCONT.5608611",
      "street": "R POUSADA",
      "house": "",
      "postcode": "4660-014",
      "city": "ANREADE",
      "lon": "-7.997637676505603",
      "lat": "41.09771875382417"
    },
    {
      "id": "pt.ine.add.PTCONT.5620541",
      "street": "R GRANJA",
      "house": "",
      "postcode": "4660-011",
      "city": "ANREADE",
      "lon": "-7.993446530724843",
      "lat": "41.098290036531615"
    },
    {
      "id": "pt.ine.add.PTCONT.5669721",
      "street": "R BAIRRAL",
      "house": "",
      "postcode": "4660-011",
      "city": "ANREADE",
      "lon": "-7.993398555015001",
      "lat": "41.09846106345038"
    }
  ]
}