{
  "data": {
    "distrito": "Setúbal",
    "concelho": "Setúbal",
    "freguesia": "União das freguesias de Azeitão (São Lourenço e São Simão)",
    "OBJECTID": 973,
    "BGRI2021": "15120901108",
    "DT21": "15",
    "DTMN21": "1512",
    "DTMNFR21": "151209",
    "DTMNFRSEC21": "151209011",
    "SECNUM21": "011",
    "SSNUM21": "08",
    "SECSSNUM21": "01108",
    "OBJECTID_1": 169906,
    "DT": "15",
    "CC": "12",
    "fr": "09",
    "SEC": "011",
    "SS": "08"
  },
  "addresses": [
    {
      "id": "pt.ine.add.PTCONT.4702126",
      "street": "R QUINTAS",
      "house": "",
      "postcode": "2925-217",
      "city": "AZEITÃO",
      "lon": "-8.998063252771509",
      "lat": "38.542213553988375"
    },
    {
      "id": "pt.ine.add.PTCONT.4821070",
      "street": "R PINHEIROS O SOLAR",
      "house": "",
      "postcode": "2925-317",
      "city": "AZEITÃO",
      "lon": "-8.998593416272472",
      "lat": "38.54242583336087"
    },
    {
      "id": "pt.ine.add.PTCONT.4847130",
      "street": "R QUINTAS",
      "house": "",
      "postcode": "2925-217",
      "city": "AZEITÃO",
      "lon": "-8.998393910119109",
      "lat": "38.54204896248684"
    },
    {
      "id": "pt.ine.add.PTCONT.4909746",
      "street": "R CRAVOS",
      "house": "N 09",
      "postcode": "2925-780",
      "city": "AZEITÃO",
      "lon": "-8.99954900508092",
      "lat": "38.54367991681847"
    },
    {
      "id": "pt.ine.add.PTCONT.5030611",
      "street": "R VINHA QT DE S LOURENÇO",
      "house": "1",
      "postcode": "2925-310",
      "city": "AZEITÃO",
      "lon": "-8.99764688091411",
      "lat": "38.54288323831342"
    },
    {
      "id": "pt.ine.add.PTCONT.5065953",
      "street": "R QUINTAS",
      "house": "39",
      "postcode": "2925-217",
      "city": "AZEITÃO",
      "lon": "-8.997801192170833",
      "lat": "38.54235962147546"
    },
    {
      "id": "pt.ine.add.PTCONT.5128476",
      "street": "R VINHA",
      "house": "3",
      "postcode": "2925-310",
      "city": "AZEITÃO",
      "lon": "-8.998636759485192",
      "lat": "38.544128067719406"
    }
  ]
}