{
  "data": {
    "distrito": "Lisboa",
    "concelho": "Lourinhã",
    "freguesia": "União das freguesias de Miragaia e Marteleira",
    "OBJECTID": 101,
    "BGRI2021": "11081300231",
    "DT21": "11",
    "DTMN21": "1108",
    "DTMNFR21": "110813",
    "DTMNFRSEC21": "110813002",
    "SECNUM21": "002",
    "SSNUM21": "31",
    "SECSSNUM21": "00231",
    "OBJECTID_1": 107362,
    "DT": "11",
    "CC": "08",
    "fr": "13",
    "SEC": "002",
    "SS": "31"
  },
  "addresses": [
    {
      "id": "pt.ine.add.PTCONT.2589093",
      "street": "R LIBERDADE",
      "house": "35",
      "postcode": "2530-439",
      "city": "MIRAGAIA",
      "lon": "-9.246141822174977",
      "lat": "39.22998422412812"
    },
    {
      "id": "pt.ine.add.PTCONT.2660449",
      "street": "R STA MARIA",
      "house": "2",
      "postcode": "2530-439",
      "city": "MIRAGAIA",
      "lon": "-9.245746321471131",
      "lat": "39.233100550461955"
    },
    {
      "id": "pt.ine.add.PTCONT.2997077",
      "street": "R STA MARIA",
      "house": "4",
      "postcode": "2530-439",
      "city": "MIRAGAIA",
      "lon": "-9.245174080707264",
      "lat": "39.232799776142315"
    },
    {
      "id": "pt.ine.add.PTCONT.3030238",
      "street": "ESTR PRINCIPAL",
      "house": "",
      "postcode": "2530-439",
      "city": "MIRAGAIA",
      "lon": "-9.241741714091575",
      "lat": "39.2332648371586"
    },
    {
      "id": "pt.ine.add.PTCONT.3154278",
      "street": "R STA MARIA",
      "house": "6",
      "postcode": "2530-439",
      "city": "MIRAGAIA",
      "lon": "-9.245113558730568",
      "lat": "39.233367798053266"
    },
    {
      "id": "pt.ine.add.PTCONT.3336220",
      "street": "CAM VALE DE GROU",
      "house": "",
      "postcode": "2530-438",
      "city": "MIRAGAIA",
      "lon": "-9.241362274739824",
      "lat": "39.22666913835438"
    },
    {
      "id": "pt.ine.add.PTCONT.3372234",
      "street": "R STA MARIA",
      "house": "2A",
      "postcode": "2530-439",
      "city": "MIRAGAIA",
      "lon": "-9.245503573687527",
      "lat": "39.23312989037351"
    }
  ]
}