{
  "data": {
    "distrito": "Lisboa",
    "concelho": "Loures",
    "freguesia": "União das freguesias de Santa Iria de Azoia, São João da Talha e Bobadela",
    "OBJECTID": 258,
    "BGRI2021": "11072802902",
    "DT21": "11",
    "DTMN21": "1107",
    "DTMNFR21": "110728",
    "DTMNFRSEC21": "110728029",
    "SECNUM21": "029",
    "SSNUM21": "02",
    "SECSSNUM21": "02902",
    "OBJECTID_1": 106929,
    "DT": "11",
    "CC": "07",
    "fr": "28",
    "SEC": "029",
    "SS": "02"
  },
  "addresses": [
    {
      "id": "pt.ine.add.PTCONT.2944963",
      "street": "R INCANSÁVEIS",
      "house": "",
      "postcode": "2690-281",
      "city": "SANTA IRIA DE AZÓIA",
      "lon": "-9.094735845130602",
      "lat": "38.84296445345348"
    },
    {
      "id": "pt.ine.add.PTCONT.3034374",
      "street": "R AMORES",
      "house": "7",
      "postcode": "2690-250",
      "city": "SANTA IRIA DE AZÓIA",
      "lon": "-9.09410314908145",
      "lat": "38.84302370706923"
    },
    {
      "id": "pt.ine.add.PTCONT.3108775",
      "street": "R INCANSAVEIS",
      "house": "12",
      "postcode": "2690-281",
      "city": "SANTA IRIA DE AZÓIA",
      "lon": "-9.094860953362911",
      "lat": "38.842846322981686"
    },
    {
      "id": "pt.ine.add.PTCONT.3413468",
      "street": "R INCANSAVEIS",
      "house": "",
      "postcode": "2690-281",
      "city": "SANTA IRIA DE AZÓIA",
      "lon": "-9.094193223462282",
      "lat": "38.84286983465785"
    },
    {
      "id": "pt.ine.add.PTCONT.2440041",
      "street": "AV INF SANTO",
      "house": "",
      "postcode": "2690-283",
      "city": "SANTA IRIA DE AZÓIA",
      "lon": "-9.09484749651061",
      "lat": "38.842702310229186"
    },
    {
      "id": "pt.ine.add.PTCONT.2440042",
      "street": "AV INF SANTO",
      "house": "",
      "postcode": "2690-283",
      "city": "SANTA IRIA DE AZÓIA",
      "lon": "-9.09484749651061",
      "lat": "38.842702310229186"
    },
    {
      "id": "pt.ine.add.PTCONT.2638243",
      "street": "R INCANSAVEIS",
      "house": "",
      "postcode": "2690-281",
      "city": "SANTA IRIA DE AZÓIA",
      "lon": "-9.095057829839845",
      "lat": "38.84292577121741"
    },
    {
      "id": "pt.ine.add.PTCONT.2655843",
      "street": "R AMORES",
      "house": "8",
      "postcode": "2690-250",
      "city": "SANTA IRIA DE AZÓIA",
      "lon": "-9.094502479189089",
      "lat": "38.84274118146642"
    },
    {
      "id": "pt.ine.add.PTCONT.2655854",
      "street": "R AMORES",
      "house": "8",
      "postcode": "2690-250",
      "city": "SANTA IRIA DE AZÓIA",
      "lon": "-9.094502479189089",
      "lat": "38.84274118146642"
    },
    {
      "id": "pt.ine.add.PTCONT.2699426",
      "street": "R AMORES",
      "house": "",
      "postcode": "2690-250",
      "city": "SANTA IRIA DE AZÓIA",
      "lon": "-9.094721054866401",
      "lat": "38.84272136672028"
    },
    {
      "id": "pt.ine.add.PTCONT.2699427",
      "street": "R AMORES",
      "house": "",
      "postcode": "2690-250",
      "city": "SANTA IRIA DE AZÓIA",
      "lon": "-9.094721054866401",
      "lat": "38.84272136672028"
    },
    {
      "id": "pt.ine.add.PTCONT.2833273",
      "street": "AV REPUBLICA",
      "house": "",
      "postcode": "2690-309",
      "city": "SANTA IRIA DE AZÓIA",
      "lon": "-9.094517268715535",
      "lat": "38.842984268235924"
    }
  ]
}