{
  "data": {
    "distrito": "Viseu",
    "concelho": "Santa Comba Dão",
    "freguesia": "União das freguesias de Santa Comba Dão e Couto do Mosteiro",
    "OBJECTID": 324,
    "BGRI2021": "18141100218",
    "DT21": "18",
    "DTMN21": "1814",
    "DTMNFR21": "181411",
    "DTMNFRSEC21": "181411002",
    "SECNUM21": "002",
    "SSNUM21": "18",
    "SECSSNUM21": "00218",
    "OBJECTID_1": 195647,
    "DT": "18",
    "CC": "14",
    "fr": "11",
    "SEC": "002",
    "SS": "18"
  },
  "addresses": [
    {
      "id": "pt.ine.add.PTCONT.5430514",
      "street": "R DOS ESCUTEIROS",
      "house": "8",
      "postcode": "3440-354",
      "city": "SANTA COMBA DÃO",
      "lon": "-8.13369736863528",
      "lat": "40.407122100474325"
    },
    {
      "id": "pt.ine.add.PTCONT.5437301",
      "street": "R FONTE DO POMAR",
      "house": "14",
      "postcode": "3440-368",
      "city": "SANTA COMBA DÃO",
      "lon": "-8.134451348141585",
      "lat": "40.407842539223616"
    },
    {
      "id": "pt.ine.add.PTCONT.5446475",
      "street": "R FONTE DO POMAR",
      "house": "18",
      "postcode": "3440-355",
      "city": "SANTA COMBA DÃO",
      "lon": "-8.133532441407446",
      "lat": "40.40754536267377"
    },
    {
      "id": "pt.ine.add.PTCONT.5523862",
      "street": "R DO SERRADO",
      "house": "52",
      "postcode": "3440-327",
      "city": "SANTA COMBA DÃO",
      "lon": "-8.133379289319441",
      "lat": "40.407059062711156"
    },
    {
      "id": "pt.ine.add.PTCONT.5547328",
      "street": "R DO SERRADO",
      "house": "24",
      "postcode": "3440-368",
      "city": "SANTA COMBA DÃO",
      "lon": "-8.133391067225972",
      "lat": "40.40639265092564"
    },
    {
      "id": "pt.ine.add.PTCONT.5551545",
      "street": "R SERRADO",
      "house": "22",
      "postcode": "3440-368",
      "city": "SANTA COMBA DÃO",
      "lon": "-8.133391065643343",
      "lat": "40.406014417191294"
    },
    {
      "id": "pt.ine.add.PTCONT.5565107",
      "street": "R FONTE DO POMAR",
      "house": "12",
      "postcode": "3440-368",
      "city": "SANTA COMBA DÃO",
      "lon": "-8.134710527719111",
      "lat": "40.40789656929775"
    },
    {
      "id": "pt.ine.add.PTCONT.5592509",
      "street": "R FONTE DO POMAR",
      "house": "16",
      "postcode": "3440-355",
      "city": "SANTA COMBA DÃO",
      "lon": "-8.133756277260652",
      "lat": "40.407653428391185"
    },
    {
      "id": "pt.ine.add.PTCONT.5604877",
      "street": "R ESCUTEIROS",
      "house": "12",
      "postcode": "3440-354",
      "city": "SANTA COMBA DÃO",
      "lon": "-8.13409792121366",
      "lat": "40.407707459348764"
    },
    {
      "id": "pt.ine.add.PTCONT.5643655",
      "street": "R DO SERRADO",
      "house": "54",
      "postcode": "3440-368",
      "city": "SANTA COMBA DÃO",
      "lon": "-8.133343946072404",
      "lat": "40.40672585691956"
    },
    {
      "id": "pt.ine.add.PTCONT.5665761",
      "street": "R DOS ESCUTEIROS",
      "house": "10",
      "postcode": "3440-354",
      "city": "SANTA COMBA DÃO",
      "lon": "-8.133956547559647",
      "lat": "40.407392265767264"
    }
  ]
}