{
  "data": {
    "distrito": "Braga",
    "concelho": "Fafe",
    "freguesia": "Fafe",
    "OBJECTID": 468,
    "BGRI2021": "03070900303",
    "DT21": "03",
    "DTMN21": "0307",
    "DTMNFR21": "030709",
    "DTMNFRSEC21": "030709003",
    "SECNUM21": "003",
    "SSNUM21": "03",
    "SECSSNUM21": "00303",
    "OBJECTID_1": 25007,
    "DT": "03",
    "CC": "07",
    "fr": "09",
    "SEC": "003",
    "SS": "03"
  },
  "addresses": [
    {
      "id": "pt.ine.add.PTCONT.494081",
      "street": "TV BELGICA",
      "house": "",
      "postcode": "4820-294",
      "city": "FAFE",
      "lon": "-8.17688320049426",
      "lat": "41.44721638111895"
    },
    {
      "id": "pt.ine.add.PTCONT.501468",
      "street": "R BELGICA",
      "house": "51",
      "postcode": "4820-175",
      "city": "FAFE",
      "lon": "-8.177122781540357",
      "lat": "41.447576447050054"
    },
    {
      "id": "pt.ine.add.PTCONT.501470",
      "street": "R BELGICA",
      "house": "51",
      "postcode": "4820-175",
      "city": "FAFE",
      "lon": "-8.177122781540357",
      "lat": "41.447576447050054"
    },
    {
      "id": "pt.ine.add.PTCONT.501471",
      "street": "R BELGICA",
      "house": "51",
      "postcode": "4820-175",
      "city": "FAFE",
      "lon": "-8.177122781540357",
      "lat": "41.447576447050054"
    },
    {
      "id": "pt.ine.add.PTCONT.501472",
      "street": "R BELGICA",
      "house": "51",
      "postcode": "4820-175",
      "city": "FAFE",
      "lon": "-8.177122781540357",
      "lat": "41.447576447050054"
    },
    {
      "id": "pt.ine.add.PTCONT.504441",
      "street": "TV BELGICA",
      "house": "139",
      "postcode": "4820-294",
      "city": "FAFE",
      "lon": "-8.176499858336836",
      "lat": "41.446613262744066"
    },
    {
      "id": "pt.ine.add.PTCONT.571938",
      "street": "TV BELGICA",
      "house": "165",
      "postcode": "4820-294",
      "city": "FAFE",
      "lon": "-8.176200540115511",
      "lat": "41.44638827687527"
    },
    {
      "id": "pt.ine.add.PTCONT.584679",
      "street": "TV BELGICA",
      "house": "125",
      "postcode": "4820-294",
      "city": "FAFE",
      "lon": "-8.176559746257716",
      "lat": "41.44669427555301"
    },
    {
      "id": "pt.ine.add.PTCONT.601222",
      "street": "R BELGICA",
      "house": "33",
      "postcode": "4820-175",
      "city": "FAFE",
      "lon": "-8.17691937976155",
      "lat": "41.447630548289816"
    },
    {
      "id": "pt.ine.add.PTCONT.601223",
      "street": "R BELGICA",
      "house": "33",
      "postcode": "4820-175",
      "city": "FAFE",
      "lon": "-8.17691937976155",
      "lat": "41.447630548289816"
    },
    {
      "id": "pt.ine.add.PTCONT.601224",
      "street": "R BELGICA",
      "house": "33",
      "postcode": "4820-175",
      "city": "FAFE",
      "lon": "-8.17691937976155",
      "lat": "41.447630548289816"
    },
    {
      "id": "pt.ine.add.PTCONT.603047",
      "street": "R BELGICA",
      "house": "33",
      "postcode": "4820-175",
      "city": "FAFE",
      "lon": "-8.17691937976155",
      "lat": "41.447630548289816"
    },
    {
      "id": "pt.ine.add.PTCONT.607862",
      "street": "R FRANCA",
      "house": "386",
      "postcode": "4820-183",
      "city": "FAFE",
      "lon": "-8.176451757557286",
      "lat": "41.44626212740754"
    },
    {
      "id": "pt.ine.add.PTCONT.636961",
      "street": "R INGLATERRA",
      "house": "296",
      "postcode": "4820-191",
      "city": "FAFE",
      "lon": "-8.176595995321945",
      "lat": "41.44721649004471"
    },
    {
      "id": "pt.ine.add.PTCONT.636962",
      "street": "R INGLATERRA",
      "house": "296",
      "postcode": "4820-191",
      "city": "FAFE",
      "lon": "-8.176595995321945",
      "lat": "41.44721649004471"
    },
    {
      "id": "pt.ine.add.PTCONT.636963",
      "street": "R INGLATERRA",
      "house": "296",
      "postcode": "4820-191",
      "city": "FAFE",
      "lon": "-8.176595995321945",
      "lat": "41.44721649004471"
    },
    {
      "id": "pt.ine.add.PTCONT.636964",
      "street": "R INGLATERRA",
      "house": "296",
      "postcode": "4820-191",
      "city": "FAFE",
      "lon": "-8.176595995321945",
      "lat": "41.44721649004471"
    },
    {
      "id": "pt.ine.add.PTCONT.636965",
      "street": "R INGLATERRA",
      "house": "296",
      "postcode": "4820-191",
      "city": "FAFE",
      "lon": "-8.176595995321945",
      "lat": "41.44721649004471"
    },
    {
      "id": "pt.ine.add.PTCONT.636966",
      "street": "R INGLATERRA",
      "house": "296",
      "postcode": "4820-191",
      "city": "FAFE",
      "lon": "-8.176595995321945",
      "lat": "41.44721649004471"
    },
    {
      "id": "pt.ine.add.PTCONT.636967",
      "street": "R INGLATERRA",
      "house": "296",
      "postcode": "4820-191",
      "city": "FAFE",
      "lon": "-8.176595995321945",
      "lat": "41.44721649004471"
    },
    {
      "id": "pt.ine.add.PTCONT.638421",
      "street": "R INGLATERRA",
      "house": "296",
      "postcode": "4820-191",
      "city": "FAFE",
      "lon": "-8.176595995321945",
      "lat": "41.44721649004471"
    },
    {
      "id": "pt.ine.add.PTCONT.720171",
      "street": "R BELGICA",
      "house": "55",
      "postcode": "4820-175",
      "city": "FAFE",
      "lon": "-8.177278339654325",
      "lat": "41.447558379562885"
    },
    {
      "id": "pt.ine.add.PTCONT.720172",
      "street": "R BELGICA",
      "house": "55",
      "postcode": "4820-175",
      "city": "FAFE",
      "lon": "-8.177278339654325",
      "lat": "41.447558379562885"
    },
    {
      "id": "pt.ine.add.PTCONT.779973",
      "street": "GAV R DA INGLATERRA R DA BELGICA",
      "house": "3",
      "postcode": "4820-191",
      "city": "FAFE",
      "lon": "-8.17668005264403",
      "lat": "41.44764864704892"
    },
    {
      "id": "pt.ine.add.PTCONT.779974",
      "street": "R BELGICA",
      "house": "3",
      "postcode": "4820-175",
      "city": "FAFE",
      "lon": "-8.17668005264403",
      "lat": "41.44764864704892"
    },
    {
      "id": "pt.ine.add.PTCONT.779975",
      "street": "GAV R DA INGLATERRA R DA BELGICA",
      "house": "3",
      "postcode": "4820-191",
      "city": "FAFE",
      "lon": "-8.17668005264403",
      "lat": "41.44764864704892"
    },
    {
      "id": "pt.ine.add.PTCONT.779976",
      "street": "GAV R DA INGLATERRA R DA BELGICA",
      "house": "3",
      "postcode": "4820-191",
      "city": "FAFE",
      "lon": "-8.17668005264403",
      "lat": "41.44764864704892"
    },
    {
      "id": "pt.ine.add.PTCONT.779977",
      "street": "R INGLATERRA",
      "house": "3",
      "postcode": "4820-191",
      "city": "FAFE",
      "lon": "-8.17668005264403",
      "lat": "41.44764864704892"
    },
    {
      "id": "pt.ine.add.PTCONT.779978",
      "street": "GAV R DA INGLATERRA R DA BELGICA",
      "house": "3",
      "postcode": "4820-191",
      "city": "FAFE",
      "lon": "-8.17668005264403",
      "lat": "41.44764864704892"
    },
    {
      "id": "pt.ine.add.PTCONT.779979",
      "street": "GAV R DA INGLATERRA R DA BELGICA",
      "house": "3",
      "postcode": "4820-191",
      "city": "FAFE",
      "lon": "-8.17668005264403",
      "lat": "41.44764864704892"
    }
  ]
}