{
  "data": {
    "distrito": "Guarda",
    "concelho": "Fornos de Algodres",
    "freguesia": "Matança",
    "OBJECTID": 145,
    "BGRI2021": "09051000104",
    "DT21": "09",
    "DTMN21": "0905",
    "DTMNFR21": "090510",
    "DTMNFRSEC21": "090510001",
    "SECNUM21": "001",
    "SSNUM21": "04",
    "SECSSNUM21": "00104",
    "OBJECTID_1": 76879,
    "DT": "09",
    "CC": "05",
    "fr": "10",
    "SEC": "001",
    "SS": "04"
  },
  "addresses": [
    {
      "id": "pt.ine.add.PTCONT.1900930",
      "street": "LG DAS LAGINHAS",
      "house": "",
      "postcode": "6370-353",
      "city": "MATANÇA",
      "lon": "-7.525246508773612",
      "lat": "40.68033818113538"
    },
    {
      "id": "pt.ine.add.PTCONT.1923805",
      "street": "LG DAS CORTES",
      "house": "21",
      "postcode": "6370-353",
      "city": "MATANÇA",
      "lon": "-7.52499165580091",
      "lat": "40.68104823870021"
    },
    {
      "id": "pt.ine.add.PTCONT.1926899",
      "street": "LG DA PATEIRA",
      "house": "27",
      "postcode": "6370-353",
      "city": "MATANÇA",
      "lon": "-7.525817418321544",
      "lat": "40.6812957217377"
    },
    {
      "id": "pt.ine.add.PTCONT.1927643",
      "street": "LG DAS CORTES",
      "house": "15",
      "postcode": "6370-353",
      "city": "MATANÇA",
      "lon": "-7.524886266692523",
      "lat": "40.68093061779531"
    },
    {
      "id": "pt.ine.add.PTCONT.1934869",
      "street": "LG DAS CORTES",
      "house": "19",
      "postcode": "6370-353",
      "city": "MATANÇA",
      "lon": "-7.525122419761727",
      "lat": "40.68097688691564"
    },
    {
      "id": "pt.ine.add.PTCONT.1946017",
      "street": "LG DAS CORTES",
      "house": "",
      "postcode": "6370-353",
      "city": "MATANÇA",
      "lon": "-7.525311669626288",
      "lat": "40.68097788335499"
    },
    {
      "id": "pt.ine.add.PTCONT.1870247",
      "street": "LG DAS LAGINHAS",
      "house": "11",
      "postcode": "6370-353",
      "city": "MATANÇA",
      "lon": "-7.5249592813267405",
      "lat": "40.68070587595831"
    },
    {
      "id": "pt.ine.add.PTCONT.1888492",
      "street": "LG DAS CORTES",
      "house": "25",
      "postcode": "6370-353",
      "city": "MATANÇA",
      "lon": "-7.525371464485536",
      "lat": "40.68090615765618"
    },
    {
      "id": "pt.ine.add.PTCONT.1895395",
      "street": "R DA LAGE DOS PEDRÕES",
      "house": "13",
      "postcode": "6370-353",
      "city": "MATANÇA",
      "lon": "-7.524697835724808",
      "lat": "40.680839574391854"
    }
  ]
}