{
  "data": {
    "distrito": "Braga",
    "concelho": "Barcelos",
    "freguesia": "União das freguesias de Tamel (Santa Leocádia) e Vilar do Monte",
    "OBJECTID": 1479,
    "BGRI2021": "0302FF00113",
    "DT21": "03",
    "DTMN21": "0302",
    "DTMNFR21": "0302FF",
    "DTMNFRSEC21": "0302FF001",
    "SECNUM21": "001",
    "SSNUM21": "13",
    "SECSSNUM21": "00113",
    "OBJECTID_1": 20337,
    "DT": "03",
    "CC": "02",
    "fr": "FF",
    "SEC": "001",
    "SS": "13"
  },
  "addresses": [
    {
      "id": "pt.ine.add.PTCONT.497858",
      "street": "R ESTRADA NACIONAL 103",
      "house": "649",
      "postcode": "4750-799",
      "city": "VILAR DO MONTE BCL",
      "lon": "-8.665617707418951",
      "lat": "41.56512146116896"
    },
    {
      "id": "pt.ine.add.PTCONT.512269",
      "street": "R PRINCIPAL",
      "house": "106",
      "postcode": "4750-860",
      "city": "VILAR DO MONTE BCL",
      "lon": "-8.662568033522602",
      "lat": "41.56309170361482"
    },
    {
      "id": "pt.ine.add.PTCONT.555676",
      "street": "R ESCOLA",
      "house": "165",
      "postcode": "4750-860",
      "city": "VILAR DO MONTE BCL",
      "lon": "-8.667138468577075",
      "lat": "41.56344872316562"
    },
    {
      "id": "pt.ine.add.PTCONT.645124",
      "street": "R ESTRADA VELHA",
      "house": "98",
      "postcode": "4750-860",
      "city": "VILAR DO MONTE BCL",
      "lon": "-8.668607519547246",
      "lat": "41.56423421680446"
    },
    {
      "id": "pt.ine.add.PTCONT.798034",
      "street": "R ESTRADA NACIONAL 103",
      "house": "649",
      "postcode": "4750-799",
      "city": "VILAR DO MONTE BCL",
      "lon": "-8.665243047651098",
      "lat": "41.56475404390001"
    },
    {
      "id": "pt.ine.add.PTCONT.824103",
      "street": "R ESCOLA",
      "house": "377",
      "postcode": "4750-860",
      "city": "VILAR DO MONTE BCL",
      "lon": "-8.666829305195089",
      "lat": "41.56375628455595"
    },
    {
      "id": "pt.ine.add.PTCONT.836095",
      "street": "TV POCA DA REGEDOURA",
      "house": "153",
      "postcode": "4750-790",
      "city": "VILAR DO MONTE BCL",
      "lon": "-8.665684164924901",
      "lat": "41.56445487941153"
    }
  ]
}