{
  "data": {
    "distrito": "Santarém",
    "concelho": "Rio Maior",
    "freguesia": "União das freguesias de Marmeleira e Assentiz",
    "OBJECTID": 230,
    "BGRI2021": "14141600128",
    "DT21": "14",
    "DTMN21": "1414",
    "DTMNFR21": "141416",
    "DTMNFRSEC21": "141416001",
    "SECNUM21": "001",
    "SSNUM21": "28",
    "SECSSNUM21": "00128",
    "OBJECTID_1": 153185,
    "DT": "14",
    "CC": "14",
    "fr": "16",
    "SEC": "001",
    "SS": "28"
  },
  "addresses": [
    {
      "id": "pt.ine.add.PTCONT.4401030",
      "street": "R VALBOM",
      "house": "",
      "postcode": "2040-158",
      "city": "MARMELEIRA RMR",
      "lon": "-8.85776728953915",
      "lat": "39.27186528986206"
    },
    {
      "id": "pt.ine.add.PTCONT.4407375",
      "street": "R LAGOA DA MO",
      "house": "",
      "postcode": "2040-158",
      "city": "MARMELEIRA RMR",
      "lon": "-8.854590584339777",
      "lat": "39.26945307464795"
    },
    {
      "id": "pt.ine.add.PTCONT.4428031",
      "street": "R VALEBOM QTA DOS DESSEQUEIROS",
      "house": "",
      "postcode": "2040-158",
      "city": "MARMELEIRA RMR",
      "lon": "-8.84977653390037",
      "lat": "39.26667255716511"
    },
    {
      "id": "pt.ine.add.PTCONT.4523141",
      "street": "R VALEBOM QTA DO SOBRAL",
      "house": "",
      "postcode": "2040-158",
      "city": "MARMELEIRA RMR",
      "lon": "-8.852100660606268",
      "lat": "39.26845966952524"
    },
    {
      "id": "pt.ine.add.PTCONT.4564843",
      "street": "R VALBOM",
      "house": "",
      "postcode": "2040-158",
      "city": "MARMELEIRA RMR",
      "lon": "-8.85723352812163",
      "lat": "39.270670654390116"
    },
    {
      "id": "pt.ine.add.PTCONT.4628555",
      "street": "R VALBOM",
      "house": "",
      "postcode": "2040-158",
      "city": "MARMELEIRA RMR",
      "lon": "-8.858148280472118",
      "lat": "39.271727810451544"
    },
    {
      "id": "pt.ine.add.PTCONT.4649403",
      "street": "R LAGOA DA MO",
      "house": "",
      "postcode": "2040-158",
      "city": "MARMELEIRA RMR",
      "lon": "-8.853873483043591",
      "lat": "39.26958361616094"
    },
    {
      "id": "pt.ine.add.PTCONT.4657119",
      "street": "R VALEBOM QTA DO VALE BOM",
      "house": "",
      "postcode": "2040-158",
      "city": "MARMELEIRA RMR",
      "lon": "-8.850440162940195",
      "lat": "39.2681186296635"
    }
  ]
}