{
  "data": {
    "distrito": "Lisboa",
    "concelho": "Torres Vedras",
    "freguesia": "Santa Maria, São Pedro e Matacães",
    "OBJECTID": 775,
    "BGRI2021": "11132601716",
    "DT21": "11",
    "DTMN21": "1113",
    "DTMNFR21": "111326",
    "DTMNFRSEC21": "111326017",
    "SECNUM21": "017",
    "SSNUM21": "16",
    "SECSSNUM21": "01716",
    "OBJECTID_1": 116424,
    "DT": "11",
    "CC": "13",
    "fr": "26",
    "SEC": "017",
    "SS": "16"
  },
  "addresses": [
    {
      "id": "pt.ine.add.PTCONT.2300612",
      "street": "R ROQUE FERREIRA LOBO",
      "house": "3",
      "postcode": "2560-361",
      "city": "TORRES VEDRAS",
      "lon": "-9.260003550514893",
      "lat": "39.09319062330125"
    },
    {
      "id": "pt.ine.add.PTCONT.2300613",
      "street": "R ROQUE FERREIRA LOBO",
      "house": "3",
      "postcode": "2560-361",
      "city": "TORRES VEDRAS",
      "lon": "-9.260003550514893",
      "lat": "39.09319062330125"
    },
    {
      "id": "pt.ine.add.PTCONT.2301929",
      "street": "R ROQUE FERREIRA LOBO",
      "house": "3",
      "postcode": "2560-361",
      "city": "TORRES VEDRAS",
      "lon": "-9.260003550514893",
      "lat": "39.09319062330125"
    },
    {
      "id": "pt.ine.add.PTCONT.2491163",
      "street": "R DETRAS DO ACOUGUE",
      "house": "2",
      "postcode": "2560-663",
      "city": "TORRES VEDRAS",
      "lon": "-9.260336832475321",
      "lat": "39.093070307087125"
    },
    {
      "id": "pt.ine.add.PTCONT.2559237",
      "street": "LG D FR EUGÉNIO TRIGUEIROS",
      "house": "5",
      "postcode": "2560-637",
      "city": "TORRES VEDRAS",
      "lon": "-9.2601351192516",
      "lat": "39.093468576142875"
    },
    {
      "id": "pt.ine.add.PTCONT.2650511",
      "street": "R DETRAS ACOUGUE",
      "house": "12",
      "postcode": "2560-663",
      "city": "TORRES VEDRAS",
      "lon": "-9.260238270220766",
      "lat": "39.09341353543384"
    },
    {
      "id": "pt.ine.add.PTCONT.2650512",
      "street": "R DETRAS DO ACOUGUE",
      "house": "10",
      "postcode": "2560-663",
      "city": "TORRES VEDRAS",
      "lon": "-9.260238270220766",
      "lat": "39.09341353543384"
    },
    {
      "id": "pt.ine.add.PTCONT.2840406",
      "street": "LG D FR EUGENIO TRIGUEIROS",
      "house": "3",
      "postcode": "2560-637",
      "city": "TORRES VEDRAS",
      "lon": "-9.259997010973157",
      "lat": "39.09350594016995"
    },
    {
      "id": "pt.ine.add.PTCONT.2913340",
      "street": "TV LUIS CARDOSO",
      "house": "4",
      "postcode": "2560-707",
      "city": "TORRES VEDRAS",
      "lon": "-9.2601857346131",
      "lat": "39.09301772445364"
    },
    {
      "id": "pt.ine.add.PTCONT.2951358",
      "street": "TV LUIS CARDOSO",
      "house": "4A",
      "postcode": "2560-707",
      "city": "TORRES VEDRAS",
      "lon": "-9.260278188470291",
      "lat": "39.093016830609805"
    },
    {
      "id": "pt.ine.add.PTCONT.3254474",
      "street": "R ROQUE FERREIRA LOBO",
      "house": "7",
      "postcode": "2560-361",
      "city": "TORRES VEDRAS",
      "lon": "-9.26000469731278",
      "lat": "39.09326267019648"
    },
    {
      "id": "pt.ine.add.PTCONT.3254479",
      "street": "R DETRAS DO ACOUGUE",
      "house": "6",
      "postcode": "2560-663",
      "city": "TORRES VEDRAS",
      "lon": "-9.260246959391575",
      "lat": "39.09323330648132"
    },
    {
      "id": "pt.ine.add.PTCONT.3254480",
      "street": "R DETRAS DO ACOUGUE",
      "house": "8",
      "postcode": "2560-663",
      "city": "TORRES VEDRAS",
      "lon": "-9.260236693039474",
      "lat": "39.09331447096319"
    },
    {
      "id": "pt.ine.add.PTCONT.3291652",
      "street": "R ROQUE FERREIRA LOBO",
      "house": "9",
      "postcode": "2560-361",
      "city": "TORRES VEDRAS",
      "lon": "-9.259994860726541",
      "lat": "39.093370852245954"
    },
    {
      "id": "pt.ine.add.PTCONT.3291653",
      "street": "R ROQUE FERREIRA LOBO",
      "house": "9",
      "postcode": "2560-361",
      "city": "TORRES VEDRAS",
      "lon": "-9.259994860726541",
      "lat": "39.093370852245954"
    },
    {
      "id": "pt.ine.add.PTCONT.3291654",
      "street": "R ROQUE FERREIRA LOBO",
      "house": "9",
      "postcode": "2560-361",
      "city": "TORRES VEDRAS",
      "lon": "-9.259994860726541",
      "lat": "39.093370852245954"
    },
    {
      "id": "pt.ine.add.PTCONT.3291655",
      "street": "R ROQUE FERREIRA LOBO",
      "house": "9",
      "postcode": "2560-361",
      "city": "TORRES VEDRAS",
      "lon": "-9.259994860726541",
      "lat": "39.093370852245954"
    },
    {
      "id": "pt.ine.add.PTCONT.3347146",
      "street": "R ROQUE FERREIRA LOBO",
      "house": "11",
      "postcode": "2560-361",
      "city": "TORRES VEDRAS",
      "lon": "-9.259996294222677",
      "lat": "39.09346091086232"
    },
    {
      "id": "pt.ine.add.PTCONT.3347147",
      "street": "R ROQUE FERREIRA LOBO",
      "house": "11",
      "postcode": "2560-361",
      "city": "TORRES VEDRAS",
      "lon": "-9.259996294222677",
      "lat": "39.09346091086232"
    },
    {
      "id": "pt.ine.add.PTCONT.3384635",
      "street": "R DETRAS DO ACOUGUE",
      "house": "2C",
      "postcode": "2560-663",
      "city": "TORRES VEDRAS",
      "lon": "-9.260303452738095",
      "lat": "39.09315169505538"
    }
  ]
}