{
  "data": {
    "distrito": "Porto",
    "concelho": "Marco de Canaveses",
    "freguesia": "Alpendorada, Várzea e Torrão",
    "OBJECTID": 1057,
    "BGRI2021": "13073200401",
    "DT21": "13",
    "DTMN21": "1307",
    "DTMNFR21": "130732",
    "DTMNFRSEC21": "130732004",
    "SECNUM21": "004",
    "SSNUM21": "01",
    "SECSSNUM21": "00401",
    "OBJECTID_1": 131023,
    "DT": "13",
    "CC": "07",
    "fr": "32",
    "SEC": "004",
    "SS": "01"
  },
  "addresses": [
    {
      "id": "pt.ine.add.PTCONT.3604285",
      "street": "R S JOSE",
      "house": "336",
      "postcode": "4575-458",
      "city": "VÁRZEA DO DOURO",
      "lon": "-8.26821995154279",
      "lat": "41.0793410039429"
    },
    {
      "id": "pt.ine.add.PTCONT.3610560",
      "street": "R BICO",
      "house": "64",
      "postcode": "4575-452",
      "city": "VÁRZEA DO DOURO",
      "lon": "-8.267661097800932",
      "lat": "41.07955776604478"
    },
    {
      "id": "pt.ine.add.PTCONT.3705082",
      "street": "R S JOSE",
      "house": "282",
      "postcode": "4575-458",
      "city": "VÁRZEA DO DOURO",
      "lon": "-8.267600937413686",
      "lat": "41.07923367399035"
    },
    {
      "id": "pt.ine.add.PTCONT.3732811",
      "street": "R BICO",
      "house": "115",
      "postcode": "4575-452",
      "city": "VÁRZEA DO DOURO",
      "lon": "-8.267245827102265",
      "lat": "41.080161552182474"
    },
    {
      "id": "pt.ine.add.PTCONT.3808683",
      "street": "TV S JOSE",
      "house": "130",
      "postcode": "4575-452",
      "city": "VÁRZEA DO DOURO",
      "lon": "-8.267614838184064",
      "lat": "41.080215149076174"
    },
    {
      "id": "pt.ine.add.PTCONT.3832208",
      "street": "R BICO",
      "house": "55",
      "postcode": "4575-452",
      "city": "VÁRZEA DO DOURO",
      "lon": "-8.26801853732595",
      "lat": "41.07977345629814"
    },
    {
      "id": "pt.ine.add.PTCONT.3845927",
      "street": "R S JOSE",
      "house": "246",
      "postcode": "4575-458",
      "city": "VÁRZEA DO DOURO",
      "lon": "-8.267243666933275",
      "lat": "41.07909902279951"
    },
    {
      "id": "pt.ine.add.PTCONT.4273294",
      "street": "R NSA SRA DO CARMO",
      "house": "41",
      "postcode": "4575-452",
      "city": "VÁRZEA DO DOURO",
      "lon": "-8.267125345273328",
      "lat": "41.079432327273665"
    }
  ]
}