{
  "data": {
    "distrito": "Porto",
    "concelho": "Marco de Canaveses",
    "freguesia": "Alpendorada, Várzea e Torrão",
    "OBJECTID": 255,
    "BGRI2021": "13073200420",
    "DT21": "13",
    "DTMN21": "1307",
    "DTMNFR21": "130732",
    "DTMNFRSEC21": "130732004",
    "SECNUM21": "004",
    "SSNUM21": "20",
    "SECSSNUM21": "00420",
    "OBJECTID_1": 131922,
    "DT": "13",
    "CC": "07",
    "fr": "32",
    "SEC": "004",
    "SS": "20"
  },
  "addresses": [
    {
      "id": "pt.ine.add.PTCONT.3567238",
      "street": "R S SALVADOR",
      "house": "588",
      "postcode": "4575-333",
      "city": "TORRÃO MCN",
      "lon": "-8.280183507578101",
      "lat": "41.086538961265106"
    },
    {
      "id": "pt.ine.add.PTCONT.3577177",
      "street": "CC VILA DO MONTE",
      "house": "35",
      "postcode": "4575-336",
      "city": "TORRÃO MCN",
      "lon": "-8.279647714680237",
      "lat": "41.08643158994414"
    },
    {
      "id": "pt.ine.add.PTCONT.3612191",
      "street": "R S SALVADOR",
      "house": "554",
      "postcode": "4575-333",
      "city": "TORRÃO MCN",
      "lon": "-8.279837892801707",
      "lat": "41.08632329397437"
    },
    {
      "id": "pt.ine.add.PTCONT.3685020",
      "street": "TV VILA DO MONTE",
      "house": "51TORRAO",
      "postcode": "4575-336",
      "city": "TORRÃO MCN",
      "lon": "-8.279803471015565",
      "lat": "41.086899625545286"
    },
    {
      "id": "pt.ine.add.PTCONT.3838727",
      "street": "TV VILA DO MONTE",
      "house": "51 C2",
      "postcode": "4575-336",
      "city": "TORRÃO MCN",
      "lon": "-8.27960086997189",
      "lat": "41.08677382035757"
    },
    {
      "id": "pt.ine.add.PTCONT.3889646",
      "street": "TV VILA",
      "house": "35",
      "postcode": "4575-336",
      "city": "TORRÃO MCN",
      "lon": "-8.279743684574074",
      "lat": "41.08677363870429"
    },
    {
      "id": "pt.ine.add.PTCONT.3999345",
      "street": "TV VILA DO MONTE",
      "house": "60",
      "postcode": "4575-336",
      "city": "TORRÃO MCN",
      "lon": "-8.279850254664698",
      "lat": "41.086530381646796"
    },
    {
      "id": "pt.ine.add.PTCONT.4377696",
      "street": "TV VILA DO MONTE",
      "house": "4",
      "postcode": "4575-336",
      "city": "TORRÃO MCN",
      "lon": "-8.279385010669797",
      "lat": "41.08603572588406"
    }
  ]
}