{
  "data": {
    "distrito": "Beja",
    "concelho": "Serpa",
    "freguesia": "Pias",
    "OBJECTID": 145,
    "BGRI2021": "02130300111",
    "DT21": "02",
    "DTMN21": "0213",
    "DTMNFR21": "021303",
    "DTMNFRSEC21": "021303001",
    "SECNUM21": "001",
    "SSNUM21": "11",
    "SECSSNUM21": "00111",
    "OBJECTID_1": 18824,
    "DT": "02",
    "CC": "13",
    "fr": "03",
    "SEC": "001",
    "SS": "11"
  },
  "addresses": [
    {
      "id": "pt.ine.add.PTCONT.396901",
      "street": "R 25 DE ABRIL",
      "house": "",
      "postcode": "7830-211",
      "city": "PIAS SRP",
      "lon": "-7.4716997037200334",
      "lat": "38.02086349551186"
    },
    {
      "id": "pt.ine.add.PTCONT.407061",
      "street": "MTE JOSE RAMALHO",
      "house": "",
      "postcode": "7830-282",
      "city": "PIAS SRP",
      "lon": "-7.467251951159091",
      "lat": "38.02155912134798"
    },
    {
      "id": "pt.ine.add.PTCONT.408382",
      "street": "MTE FERNANDO RAMALHO",
      "house": "",
      "postcode": "7830-282",
      "city": "PIAS SRP",
      "lon": "-7.465643371722614",
      "lat": "38.02061305316275"
    },
    {
      "id": "pt.ine.add.PTCONT.411838",
      "street": "MTE MANUEL CAEIRO",
      "house": "",
      "postcode": "7830-210",
      "city": "PIAS SRP",
      "lon": "-7.470834881282738",
      "lat": "38.020786554666294"
    },
    {
      "id": "pt.ine.add.PTCONT.414303",
      "street": "R 25 DE ABRIL",
      "house": "",
      "postcode": "7830-211",
      "city": "PIAS SRP",
      "lon": "-7.472000052432873",
      "lat": "38.02158394633171"
    },
    {
      "id": "pt.ine.add.PTCONT.417573",
      "street": "R 25 DE ABRIL",
      "house": "",
      "postcode": "7830-470",
      "city": "PIAS SRP",
      "lon": "-7.471907814604964",
      "lat": "38.021783595809445"
    },
    {
      "id": "pt.ine.add.PTCONT.437859",
      "street": "MTE FRANCISCO CAVAQUEIRA",
      "house": "",
      "postcode": "7830-282",
      "city": "PIAS SRP",
      "lon": "-7.466436960193318",
      "lat": "38.019752680320764"
    },
    {
      "id": "pt.ine.add.PTCONT.454805",
      "street": "MTE FRANCISCO GONÃ‡ALVES",
      "house": "",
      "postcode": "7830-282",
      "city": "PIAS SRP",
      "lon": "-7.466561489331345",
      "lat": "38.01983446835784"
    }
  ]
}