{
  "data": {
    "distrito": "Castelo Branco",
    "concelho": "Castelo Branco",
    "freguesia": "Louriçal do Campo",
    "OBJECTID": 238,
    "BGRI2021": "05021200128",
    "DT21": "05",
    "DTMN21": "0502",
    "DTMNFR21": "050212",
    "DTMNFRSEC21": "050212001",
    "SECNUM21": "001",
    "SSNUM21": "28",
    "SECSSNUM21": "00128",
    "OBJECTID_1": 40693,
    "DT": "05",
    "CC": "02",
    "fr": "12",
    "SEC": "001",
    "SS": "28"
  },
  "addresses": [
    {
      "id": "pt.ine.add.PTCONT.954176",
      "street": "R FONTAINHA",
      "house": "",
      "postcode": "6005-210",
      "city": "LOURIÇAL DO CAMPO",
      "lon": "-7.508338151071696",
      "lat": "40.04459146745605"
    },
    {
      "id": "pt.ine.add.PTCONT.956489",
      "street": "R CASALINHO",
      "house": "27",
      "postcode": "6005-210",
      "city": "LOURIÇAL DO CAMPO",
      "lon": "-7.508716115475486",
      "lat": "40.045548144668594"
    },
    {
      "id": "pt.ine.add.PTCONT.980889",
      "street": "R TRAS DA IGREJA",
      "house": "25",
      "postcode": "6005-210",
      "city": "LOURIÇAL DO CAMPO",
      "lon": "-7.508483490780091",
      "lat": "40.04535776409283"
    },
    {
      "id": "pt.ine.add.PTCONT.988366",
      "street": "R FONTAINHA",
      "house": "",
      "postcode": "6005-210",
      "city": "LOURIÇAL DO CAMPO",
      "lon": "-7.507865671776008",
      "lat": "40.04500319642474"
    },
    {
      "id": "pt.ine.add.PTCONT.1013108",
      "street": "R CASALINHO",
      "house": "1",
      "postcode": "6005-210",
      "city": "LOURIÇAL DO CAMPO",
      "lon": "-7.5086913657684775",
      "lat": "40.045692107844765"
    },
    {
      "id": "pt.ine.add.PTCONT.1027157",
      "street": "LG EGAS MONIZ",
      "house": "",
      "postcode": "6005-210",
      "city": "LOURIÇAL DO CAMPO",
      "lon": "-7.508852894061038",
      "lat": "40.04468430227888"
    },
    {
      "id": "pt.ine.add.PTCONT.1046874",
      "street": "R TRAS DA IGREJA",
      "house": "28",
      "postcode": "6005-210",
      "city": "LOURIÇAL DO CAMPO",
      "lon": "-7.508993831218535",
      "lat": "40.04464903738576"
    },
    {
      "id": "pt.ine.add.PTCONT.1049133",
      "street": "R TRAS DA IGREJA",
      "house": "23",
      "postcode": "6005-210",
      "city": "LOURIÇAL DO CAMPO",
      "lon": "-7.508623443438822",
      "lat": "40.04543056677067"
    },
    {
      "id": "pt.ine.add.PTCONT.1049134",
      "street": "R TRAS DA IGREJA",
      "house": "30",
      "postcode": "6005-210",
      "city": "LOURIÇAL DO CAMPO",
      "lon": "-7.509040043822615",
      "lat": "40.04472133459295"
    },
    {
      "id": "pt.ine.add.PTCONT.1052461",
      "street": "R FONTAINHA",
      "house": "",
      "postcode": "6005-210",
      "city": "LOURIÇAL DO CAMPO",
      "lon": "-7.50811675457251",
      "lat": "40.044455182884654"
    }
  ]
}