{
  "data": {
    "distrito": "Braga",
    "concelho": "Guimarães",
    "freguesia": "União das freguesias de Sande Vila Nova e Sande São Clemente",
    "OBJECTID": 108,
    "BGRI2021": "03088700223",
    "DT21": "03",
    "DTMN21": "0308",
    "DTMNFR21": "030887",
    "DTMNFRSEC21": "030887002",
    "SECNUM21": "002",
    "SSNUM21": "23",
    "SECSSNUM21": "00223",
    "OBJECTID_1": 27115,
    "DT": "03",
    "CC": "08",
    "fr": "87",
    "SEC": "002",
    "SS": "23"
  },
  "addresses": [
    {
      "id": "pt.ine.add.PTCONT.469191",
      "street": "R NSA SRA DA SAÚDE",
      "house": "104",
      "postcode": "4805-491",
      "city": "SÃO CLEMENTE SANDE",
      "lon": "-8.353575104945746",
      "lat": "41.482821961599875"
    },
    {
      "id": "pt.ine.add.PTCONT.477392",
      "street": "R BOAVISTA",
      "house": "80",
      "postcode": "4805-491",
      "city": "SÃO CLEMENTE SANDE",
      "lon": "-8.35278419515196",
      "lat": "41.482625389662125"
    },
    {
      "id": "pt.ine.add.PTCONT.477393",
      "street": "R BOAVISTA",
      "house": "80",
      "postcode": "4805-491",
      "city": "SÃO CLEMENTE SANDE",
      "lon": "-8.35278419515196",
      "lat": "41.482625389662125"
    },
    {
      "id": "pt.ine.add.PTCONT.528941",
      "street": "R PINHEIRAL",
      "house": "59",
      "postcode": "4805-640",
      "city": "SÃO CLEMENTE SANDE",
      "lon": "-8.353036761053312",
      "lat": "41.48295805022476"
    },
    {
      "id": "pt.ine.add.PTCONT.528942",
      "street": "R PINHEIRAL",
      "house": "59",
      "postcode": "4805-640",
      "city": "SÃO CLEMENTE SANDE",
      "lon": "-8.353036761053312",
      "lat": "41.48295805022476"
    },
    {
      "id": "pt.ine.add.PTCONT.528943",
      "street": "R PINHEIRAL",
      "house": "18",
      "postcode": "4805-640",
      "city": "SÃO CLEMENTE SANDE",
      "lon": "-8.353036761053312",
      "lat": "41.48295805022476"
    },
    {
      "id": "pt.ine.add.PTCONT.528944",
      "street": "R PINHEIRAL",
      "house": "59",
      "postcode": "4805-640",
      "city": "SÃO CLEMENTE SANDE",
      "lon": "-8.353036761053312",
      "lat": "41.48295805022476"
    },
    {
      "id": "pt.ine.add.PTCONT.528945",
      "street": "R PINHEIRAL E",
      "house": "E 1 59",
      "postcode": "4805-640",
      "city": "SÃO CLEMENTE SANDE",
      "lon": "-8.353036761053312",
      "lat": "41.48295805022476"
    },
    {
      "id": "pt.ine.add.PTCONT.528946",
      "street": "R PINHEIRAL",
      "house": "59",
      "postcode": "4805-640",
      "city": "SÃO CLEMENTE SANDE",
      "lon": "-8.353036761053312",
      "lat": "41.48295805022476"
    },
    {
      "id": "pt.ine.add.PTCONT.528947",
      "street": "R PINHEIRAL",
      "house": "59",
      "postcode": "4805-640",
      "city": "SÃO CLEMENTE SANDE",
      "lon": "-8.353036761053312",
      "lat": "41.48295805022476"
    },
    {
      "id": "pt.ine.add.PTCONT.528948",
      "street": "R PINHEIRAL",
      "house": "59",
      "postcode": "4805-640",
      "city": "SÃO CLEMENTE SANDE",
      "lon": "-8.353036761053312",
      "lat": "41.48295805022476"
    },
    {
      "id": "pt.ine.add.PTCONT.528949",
      "street": "R PINHEIRAL",
      "house": "59",
      "postcode": "4805-640",
      "city": "SÃO CLEMENTE SANDE",
      "lon": "-8.353036761053312",
      "lat": "41.48295805022476"
    },
    {
      "id": "pt.ine.add.PTCONT.529985",
      "street": "R PINHEIRAL",
      "house": "59",
      "postcode": "4805-640",
      "city": "SÃO CLEMENTE SANDE",
      "lon": "-8.353036761053312",
      "lat": "41.48295805022476"
    },
    {
      "id": "pt.ine.add.PTCONT.534396",
      "street": "R NSA SRA DA SAÚDE",
      "house": "240",
      "postcode": "4805-491",
      "city": "SÃO CLEMENTE SANDE",
      "lon": "-8.353673059457952",
      "lat": "41.48346104854228"
    },
    {
      "id": "pt.ine.add.PTCONT.590276",
      "street": "R NSA SRA DA SAÚDE",
      "house": "90",
      "postcode": "4805-491",
      "city": "SÃO CLEMENTE SANDE",
      "lon": "-8.353215447563686",
      "lat": "41.48268759233619"
    },
    {
      "id": "pt.ine.add.PTCONT.590277",
      "street": "R NSA SRA DA SAÚDE",
      "house": "90",
      "postcode": "4805-491",
      "city": "SÃO CLEMENTE SANDE",
      "lon": "-8.353215447563686",
      "lat": "41.48268759233619"
    },
    {
      "id": "pt.ine.add.PTCONT.590278",
      "street": "R NSA SRA SAUDE",
      "house": "200",
      "postcode": "4805-491",
      "city": "SÃO CLEMENTE SANDE",
      "lon": "-8.353624432997249",
      "lat": "41.48324504891599"
    },
    {
      "id": "pt.ine.add.PTCONT.640492",
      "street": "R NSA SRA DA SAÚDE",
      "house": "146",
      "postcode": "4805-491",
      "city": "SÃO CLEMENTE SANDE",
      "lon": "-8.353564047095986",
      "lat": "41.483092098886665"
    },
    {
      "id": "pt.ine.add.PTCONT.646238",
      "street": "R NSA SRA DA SAÚDE",
      "house": "128",
      "postcode": "4805-491",
      "city": "SÃO CLEMENTE SANDE",
      "lon": "-8.353563650379792",
      "lat": "41.48297504934165"
    },
    {
      "id": "pt.ine.add.PTCONT.647163",
      "street": "R NSA SRA DA SAÚDE",
      "house": "128",
      "postcode": "4805-491",
      "city": "SÃO CLEMENTE SANDE",
      "lon": "-8.353563650379792",
      "lat": "41.48297504934165"
    },
    {
      "id": "pt.ine.add.PTCONT.729215",
      "street": "R NSA SRA DA SAÚDE",
      "house": "230",
      "postcode": "4805-491",
      "city": "SÃO CLEMENTE SANDE",
      "lon": "-8.353636772744016",
      "lat": "41.48335307168921"
    },
    {
      "id": "pt.ine.add.PTCONT.731397",
      "street": "R NSA SRA DA SAÚDE",
      "house": "148",
      "postcode": "4805-491",
      "city": "SÃO CLEMENTE SANDE",
      "lon": "-8.353624005645205",
      "lat": "41.48311899556356"
    },
    {
      "id": "pt.ine.add.PTCONT.780411",
      "street": "R PINHEIRAL",
      "house": "37",
      "postcode": "4805-640",
      "city": "SÃO CLEMENTE SANDE",
      "lon": "-8.352761039066312",
      "lat": "41.48285953450766"
    },
    {
      "id": "pt.ine.add.PTCONT.780412",
      "street": "R PINHEIRAL",
      "house": "37",
      "postcode": "4805-640",
      "city": "SÃO CLEMENTE SANDE",
      "lon": "-8.352761039066312",
      "lat": "41.48285953450766"
    },
    {
      "id": "pt.ine.add.PTCONT.780413",
      "street": "R PINHEIRAL",
      "house": "37",
      "postcode": "4805-640",
      "city": "SÃO CLEMENTE SANDE",
      "lon": "-8.352761039066312",
      "lat": "41.48285953450766"
    },
    {
      "id": "pt.ine.add.PTCONT.780414",
      "street": "R PINHEIRAL",
      "house": "37",
      "postcode": "4805-640",
      "city": "SÃO CLEMENTE SANDE",
      "lon": "-8.352761039066312",
      "lat": "41.48285953450766"
    },
    {
      "id": "pt.ine.add.PTCONT.780415",
      "street": "R PINHEIRAL",
      "house": "3",
      "postcode": "4805-640",
      "city": "SÃO CLEMENTE SANDE",
      "lon": "-8.352761039066312",
      "lat": "41.48285953450766"
    },
    {
      "id": "pt.ine.add.PTCONT.780416",
      "street": "R PINHEIRAL",
      "house": "37",
      "postcode": "4805-640",
      "city": "SÃO CLEMENTE SANDE",
      "lon": "-8.352761039066312",
      "lat": "41.48285953450766"
    },
    {
      "id": "pt.ine.add.PTCONT.780417",
      "street": "R PINHEIRAL",
      "house": "37",
      "postcode": "4805-640",
      "city": "SÃO CLEMENTE SANDE",
      "lon": "-8.352761039066312",
      "lat": "41.48285953450766"
    },
    {
      "id": "pt.ine.add.PTCONT.780421",
      "street": "R PINHEIRAL",
      "house": "37",
      "postcode": "4805-640",
      "city": "SÃO CLEMENTE SANDE",
      "lon": "-8.352761039066312",
      "lat": "41.48285953450766"
    },
    {
      "id": "pt.ine.add.PTCONT.780422",
      "street": "R PINHEIRAL",
      "house": "37",
      "postcode": "4805-640",
      "city": "SÃO CLEMENTE SANDE",
      "lon": "-8.352761039066312",
      "lat": "41.48285953450766"
    },
    {
      "id": "pt.ine.add.PTCONT.843022",
      "street": "R PINHEIRAL",
      "house": "37",
      "postcode": "4805-640",
      "city": "SÃO CLEMENTE SANDE",
      "lon": "-8.352761039066312",
      "lat": "41.48285953450766"
    }
  ]
}