{
  "data": {
    "distrito": "Castelo Branco",
    "concelho": "Fundão",
    "freguesia": "Alpedrinha",
    "OBJECTID": 414,
    "BGRI2021": "05040600121",
    "DT21": "05",
    "DTMN21": "0504",
    "DTMNFR21": "050406",
    "DTMNFRSEC21": "050406001",
    "SECNUM21": "001",
    "SSNUM21": "21",
    "SECSSNUM21": "00121",
    "OBJECTID_1": 43652,
    "DT": "05",
    "CC": "04",
    "fr": "06",
    "SEC": "001",
    "SS": "21"
  },
  "addresses": [
    {
      "id": "pt.ine.add.PTCONT.958290",
      "street": "ESTR ESTAÇÃO",
      "house": "",
      "postcode": "6230-063",
      "city": "ALPEDRINHA",
      "lon": "-7.465783973482831",
      "lat": "40.09929067594836"
    },
    {
      "id": "pt.ine.add.PTCONT.971292",
      "street": "R MISERICÓRDIA",
      "house": "",
      "postcode": "6230-094",
      "city": "ALPEDRINHA",
      "lon": "-7.4663109695341445",
      "lat": "40.099365758492574"
    },
    {
      "id": "pt.ine.add.PTCONT.978859",
      "street": "TV MISERICÓRDIA",
      "house": "",
      "postcode": "6230-105",
      "city": "ALPEDRINHA",
      "lon": "-7.466620168311129",
      "lat": "40.09892624706248"
    },
    {
      "id": "pt.ine.add.PTCONT.984609",
      "street": "R DEAO BOAVIDA",
      "house": "",
      "postcode": "6230-079",
      "city": "ALPEDRINHA",
      "lon": "-7.4665903884543",
      "lat": "40.09957450331997"
    },
    {
      "id": "pt.ine.add.PTCONT.1000331",
      "street": "R ADEGAS",
      "house": "",
      "postcode": "6230-073",
      "city": "ALPEDRINHA",
      "lon": "-7.4662482041223015",
      "lat": "40.09978867625651"
    },
    {
      "id": "pt.ine.add.PTCONT.1008950",
      "street": "R DEAO BOAVIDA",
      "house": "7",
      "postcode": "6230-079",
      "city": "ALPEDRINHA",
      "lon": "-7.46662451414764",
      "lat": "40.09968277095225"
    },
    {
      "id": "pt.ine.add.PTCONT.1038020",
      "street": "R MISERICÓRDIA",
      "house": "",
      "postcode": "6230-094",
      "city": "ALPEDRINHA",
      "lon": "-7.466823824445514",
      "lat": "40.09848612769026"
    },
    {
      "id": "pt.ine.add.PTCONT.1042570",
      "street": "R MISERICÓRDIA",
      "house": "13",
      "postcode": "6230-094",
      "city": "ALPEDRINHA",
      "lon": "-7.466822682551006",
      "lat": "40.09860319834577"
    },
    {
      "id": "pt.ine.add.PTCONT.1058382",
      "street": "R DEAO BOAVIDA",
      "house": "",
      "postcode": "6230-079",
      "city": "ALPEDRINHA",
      "lon": "-7.46684490592438",
      "lat": "40.09872940934332"
    },
    {
      "id": "pt.ine.add.PTCONT.1065341",
      "street": "R MISERICÓRDIA",
      "house": "9",
      "postcode": "6230-094",
      "city": "ALPEDRINHA",
      "lon": "-7.466843764056171",
      "lat": "40.098846479994386"
    },
    {
      "id": "pt.ine.add.PTCONT.1066702",
      "street": "R ÁLVARO GAMBOA",
      "house": "",
      "postcode": "6230-073",
      "city": "ALPEDRINHA",
      "lon": "-7.466704053319386",
      "lat": "40.09994440081667"
    },
    {
      "id": "pt.ine.add.PTCONT.1067851",
      "street": "TV MISERICÓRDIA",
      "house": "",
      "postcode": "6230-105",
      "city": "ALPEDRINHA",
      "lon": "-7.466620871237841",
      "lat": "40.09885420358945"
    },
    {
      "id": "pt.ine.add.PTCONT.1069450",
      "street": "ESTR ESTAÇÃO",
      "house": "",
      "postcode": "6230-063",
      "city": "ALPEDRINHA",
      "lon": "-7.466648893194313",
      "lat": "40.098386055941084"
    },
    {
      "id": "pt.ine.add.PTCONT.1072172",
      "street": "TV MISERICÓRDIA",
      "house": "3",
      "postcode": "6230-105",
      "city": "ALPEDRINHA",
      "lon": "-7.466657193161119",
      "lat": "40.09873733536722"
    }
  ]
}