{
  "data": {
    "distrito": "Santarém",
    "concelho": "Vila Nova da Barquinha",
    "freguesia": "Praia do Ribatejo",
    "OBJECTID": 216,
    "BGRI2021": "14200200220",
    "DT21": "14",
    "DTMN21": "1420",
    "DTMNFR21": "142002",
    "DTMNFRSEC21": "142002002",
    "SECNUM21": "002",
    "SSNUM21": "20",
    "SECSSNUM21": "00220",
    "OBJECTID_1": 158082,
    "DT": "14",
    "CC": "20",
    "fr": "02",
    "SEC": "002",
    "SS": "20"
  },
  "addresses": [
    {
      "id": "pt.ine.add.PTCONT.4410881",
      "street": "R LIMAS",
      "house": "",
      "postcode": "2260-111",
      "city": "PRAIA DO RIBATEJO",
      "lon": "-8.345481036240836",
      "lat": "39.492016488730236"
    },
    {
      "id": "pt.ine.add.PTCONT.4430751",
      "street": "R STO ANTONIO",
      "house": "236",
      "postcode": "2260-245",
      "city": "PRAIA DO RIBATEJO",
      "lon": "-8.345592512545085",
      "lat": "39.490449070755325"
    },
    {
      "id": "pt.ine.add.PTCONT.4460244",
      "street": "R CANEIROS",
      "house": "",
      "postcode": "2260-111",
      "city": "PRAIA DO RIBATEJO",
      "lon": "-8.345807021371275",
      "lat": "39.49217801846785"
    },
    {
      "id": "pt.ine.add.PTCONT.4501045",
      "street": "R SANTO ANTÓNIO",
      "house": "",
      "postcode": "2260-245",
      "city": "PRAIA DO RIBATEJO",
      "lon": "-8.34608431059589",
      "lat": "39.49161907828174"
    },
    {
      "id": "pt.ine.add.PTCONT.4554282",
      "street": "R SANTO ANTÓNIO",
      "house": "52",
      "postcode": "2260-245",
      "city": "PRAIA DO RIBATEJO",
      "lon": "-8.345567646370696",
      "lat": "39.48991770434673"
    },
    {
      "id": "pt.ine.add.PTCONT.4576018",
      "street": "R CANEIROS",
      "house": "125",
      "postcode": "2260-111",
      "city": "PRAIA DO RIBATEJO",
      "lon": "-8.346389109970117",
      "lat": "39.49245616850327"
    }
  ]
}