{
  "data": {
    "distrito": "Coimbra",
    "concelho": "Coimbra",
    "freguesia": "Cernache",
    "OBJECTID": 796,
    "BGRI2021": "06031200106",
    "DT21": "06",
    "DTMN21": "0603",
    "DTMNFR21": "060312",
    "DTMNFRSEC21": "060312001",
    "SECNUM21": "001",
    "SSNUM21": "06",
    "SECSSNUM21": "00106",
    "OBJECTID_1": 49272,
    "DT": "06",
    "CC": "03",
    "fr": "12",
    "SEC": "001",
    "SS": "06"
  },
  "addresses": [
    {
      "id": "pt.ine.add.PTCONT.1106298",
      "street": "R CANTO",
      "house": "",
      "postcode": "3040-787",
      "city": "CERNACHE",
      "lon": "-8.430752492585523",
      "lat": "40.13198232336679"
    },
    {
      "id": "pt.ine.add.PTCONT.1108244",
      "street": "R FUNDO DO LUGAR",
      "house": "",
      "postcode": "3040-787",
      "city": "CERNACHE",
      "lon": "-8.431421976952683",
      "lat": "40.13214270826631"
    },
    {
      "id": "pt.ine.add.PTCONT.1118707",
      "street": "R COMAREIRO",
      "house": "S N",
      "postcode": "3040-787",
      "city": "CERNACHE",
      "lon": "-8.429537278427212",
      "lat": "40.133138204627194"
    },
    {
      "id": "pt.ine.add.PTCONT.1118710",
      "street": "BC PORTARIAS",
      "house": "",
      "postcode": "3040-787",
      "city": "CERNACHE",
      "lon": "-8.430064053084173",
      "lat": "40.132857669967876"
    },
    {
      "id": "pt.ine.add.PTCONT.1120741",
      "street": "R CANTO DA RUA",
      "house": "",
      "postcode": "3040-787",
      "city": "CERNACHE",
      "lon": "-8.430623980388342",
      "lat": "40.13210873720147"
    },
    {
      "id": "pt.ine.add.PTCONT.1141265",
      "street": "QTA BAIXO",
      "house": "",
      "postcode": "3040-787",
      "city": "CERNACHE",
      "lon": "-8.427400532063189",
      "lat": "40.13283745123032"
    },
    {
      "id": "pt.ine.add.PTCONT.1150547",
      "street": "LG RUA",
      "house": "",
      "postcode": "3040-787",
      "city": "CERNACHE",
      "lon": "-8.43033320722189",
      "lat": "40.132694872007434"
    },
    {
      "id": "pt.ine.add.PTCONT.1150863",
      "street": "R QUELHA VIDIGUEIRA",
      "house": "",
      "postcode": "3040-787",
      "city": "CERNACHE",
      "lon": "-8.43156052674811",
      "lat": "40.13162901086189"
    },
    {
      "id": "pt.ine.add.PTCONT.1153420",
      "street": "R FUNDO DO LUGAR",
      "house": "",
      "postcode": "3040-787",
      "city": "CERNACHE",
      "lon": "-8.431654901768459",
      "lat": "40.131745845254486"
    },
    {
      "id": "pt.ine.add.PTCONT.1157455",
      "street": "LG PASSADICO",
      "house": "",
      "postcode": "3040-787",
      "city": "CERNACHE",
      "lon": "-8.430391636929443",
      "lat": "40.13264068620316"
    },
    {
      "id": "pt.ine.add.PTCONT.1165613",
      "street": "LG SOALHEIRO",
      "house": "",
      "postcode": "3040-787",
      "city": "CERNACHE",
      "lon": "-8.430929783400163",
      "lat": "40.13227906465059"
    },
    {
      "id": "pt.ine.add.PTCONT.1171385",
      "street": "R FUNDO DO LUGAR",
      "house": "",
      "postcode": "3040-787",
      "city": "CERNACHE",
      "lon": "-8.431176175493052",
      "lat": "40.13227843074945"
    },
    {
      "id": "pt.ine.add.PTCONT.1187791",
      "street": "R FUNDO DO LUGAR",
      "house": "",
      "postcode": "3040-787",
      "city": "CERNACHE",
      "lon": "-8.431433158617205",
      "lat": "40.13201659585265"
    },
    {
      "id": "pt.ine.add.PTCONT.1189710",
      "street": "R EIRA DE BAIXO",
      "house": "",
      "postcode": "3040-787",
      "city": "CERNACHE",
      "lon": "-8.429944332490788",
      "lat": "40.13230861262779"
    },
    {
      "id": "pt.ine.add.PTCONT.1189711",
      "street": "BC PORTARIAS",
      "house": "",
      "postcode": "3040-787",
      "city": "CERNACHE",
      "lon": "-8.43013433381056",
      "lat": "40.1328304718191"
    },
    {
      "id": "pt.ine.add.PTCONT.1207274",
      "street": "R CANTO DA RUA",
      "house": "",
      "postcode": "3040-787",
      "city": "CERNACHE",
      "lon": "-8.430646700067806",
      "lat": "40.13193756535718"
    },
    {
      "id": "pt.ine.add.PTCONT.1223450",
      "street": "LG CASARIAS",
      "house": "",
      "postcode": "3040-787",
      "city": "CERNACHE",
      "lon": "-8.43069555632853",
      "lat": "40.132378732458825"
    },
    {
      "id": "pt.ine.add.PTCONT.1225687",
      "street": "R CARVALHAL",
      "house": "",
      "postcode": "3040-787",
      "city": "CERNACHE",
      "lon": "-8.43057677383324",
      "lat": "40.13204581666081"
    },
    {
      "id": "pt.ine.add.PTCONT.1241767",
      "street": "R COMAREIRO",
      "house": "",
      "postcode": "3040-787",
      "city": "CERNACHE",
      "lon": "-8.428105411015052",
      "lat": "40.13304279518447"
    },
    {
      "id": "pt.ine.add.PTCONT.1241768",
      "street": "R COMAREIRO",
      "house": "",
      "postcode": "3040-787",
      "city": "CERNACHE",
      "lon": "-8.428105411015052",
      "lat": "40.13304279518447"
    },
    {
      "id": "pt.ine.add.PTCONT.1243898",
      "street": "BC SOALHEIRO",
      "house": "",
      "postcode": "3040-787",
      "city": "CERNACHE",
      "lon": "-8.43115223750652",
      "lat": "40.13217042069495"
    },
    {
      "id": "pt.ine.add.PTCONT.1243899",
      "street": "BC SOALHEIRO",
      "house": "",
      "postcode": "3040-787",
      "city": "CERNACHE",
      "lon": "-8.431034278945667",
      "lat": "40.132026628656874"
    },
    {
      "id": "pt.ine.add.PTCONT.1262463",
      "street": "R FUNDO DO LUGAR",
      "house": "",
      "postcode": "3040-787",
      "city": "CERNACHE",
      "lon": "-8.431363863429262",
      "lat": "40.13226894155487"
    },
    {
      "id": "pt.ine.add.PTCONT.1262967",
      "street": "R CAMAREIRO",
      "house": "",
      "postcode": "3040-787",
      "city": "CERNACHE",
      "lon": "-8.428913081078946",
      "lat": "40.1325994424003"
    },
    {
      "id": "pt.ine.add.PTCONT.1272982",
      "street": "LG CAPELA",
      "house": "",
      "postcode": "3040-787",
      "city": "CERNACHE",
      "lon": "-8.430379001439357",
      "lat": "40.13243358129165"
    },
    {
      "id": "pt.ine.add.PTCONT.1285190",
      "street": "BC DP PASSADICO",
      "house": "",
      "postcode": "3040-787",
      "city": "CERNACHE",
      "lon": "-8.43030801511096",
      "lat": "40.13229867390789"
    },
    {
      "id": "pt.ine.add.PTCONT.1285191",
      "street": "R BECO DO PASSADICO",
      "house": "",
      "postcode": "3040-787",
      "city": "CERNACHE",
      "lon": "-8.430202300818673",
      "lat": "40.1322719272383"
    },
    {
      "id": "pt.ine.add.PTCONT.1305271",
      "street": "LG CAPELA",
      "house": "",
      "postcode": "3040-787",
      "city": "CERNACHE",
      "lon": "-8.430135039519493",
      "lat": "40.13299257748778"
    },
    {
      "id": "pt.ine.add.PTCONT.1313426",
      "street": "BC SOALHEIRO",
      "house": "",
      "postcode": "3040-787",
      "city": "CERNACHE",
      "lon": "-8.430800131477898",
      "lat": "40.13214430841939"
    },
    {
      "id": "pt.ine.add.PTCONT.1325443",
      "street": "R FUNDO DO LUGAR",
      "house": "",
      "postcode": "3040-787",
      "city": "CERNACHE",
      "lon": "-8.431585962237582",
      "lat": "40.1320792439331"
    },
    {
      "id": "pt.ine.add.PTCONT.1333647",
      "street": "BC SOALHEIRO",
      "house": "",
      "postcode": "3040-787",
      "city": "CERNACHE",
      "lon": "-8.430964274608119",
      "lat": "40.132116868448904"
    },
    {
      "id": "pt.ine.add.PTCONT.1336471",
      "street": "LG CAPELA",
      "house": "",
      "postcode": "3040-787",
      "city": "CERNACHE",
      "lon": "-8.430287020397872",
      "lat": "40.132866103991"
    },
    {
      "id": "pt.ine.add.PTCONT.1349537",
      "street": "LG CAPELA",
      "house": "",
      "postcode": "3040-787",
      "city": "CERNACHE",
      "lon": "-8.430240401923013",
      "lat": "40.132938271378904"
    },
    {
      "id": "pt.ine.add.PTCONT.1350630",
      "street": "LG CAPELA",
      "house": "",
      "postcode": "3040-787",
      "city": "CERNACHE",
      "lon": "-8.43049684157205",
      "lat": "40.132550356377315"
    },
    {
      "id": "pt.ine.add.PTCONT.1352156",
      "street": "R FUNDO DO LUGAR",
      "house": "",
      "postcode": "3040-787",
      "city": "CERNACHE",
      "lon": "-8.431703724988374",
      "lat": "40.132178006051866"
    },
    {
      "id": "pt.ine.add.PTCONT.1358510",
      "street": "R COMAREIRO SN",
      "house": "SN",
      "postcode": "3040-787",
      "city": "CERNACHE",
      "lon": "-8.42779941708502",
      "lat": "40.132827430924344"
    },
    {
      "id": "pt.ine.add.PTCONT.1360741",
      "street": "R CAMAREIRO",
      "house": "",
      "postcode": "3040-787",
      "city": "CERNACHE",
      "lon": "-8.429675138811433",
      "lat": "40.133142149318964"
    },
    {
      "id": "pt.ine.add.PTCONT.1366318",
      "street": "R FUNDO DO LUGAR",
      "house": "",
      "postcode": "3040-787",
      "city": "CERNACHE",
      "lon": "-8.431443985845068",
      "lat": "40.13180943059569"
    }
  ]
}