{
  "data": {
    "distrito": "Faro",
    "concelho": "Loulé",
    "freguesia": "Loulé (São Sebastião)",
    "OBJECTID": 1768,
    "BGRI2021": "08080900702",
    "DT21": "08",
    "DTMN21": "0808",
    "DTMNFR21": "080809",
    "DTMNFRSEC21": "080809007",
    "SECNUM21": "007",
    "SSNUM21": "02",
    "SECSSNUM21": "00702",
    "OBJECTID_1": 68247,
    "DT": "08",
    "CC": "08",
    "fr": "09",
    "SEC": "007",
    "SS": "02"
  },
  "addresses": [
    {
      "id": "pt.ine.add.PTCONT.1563075",
      "street": "",
      "house": "",
      "postcode": "8100-280",
      "city": "LOULÉ",
      "lon": "-8.053586672206325",
      "lat": "37.154599764483024"
    },
    {
      "id": "pt.ine.add.PTCONT.1586547",
      "street": "",
      "house": "",
      "postcode": "8100-280",
      "city": "LOULÉ",
      "lon": "-8.054690455594185",
      "lat": "37.15405085414883"
    },
    {
      "id": "pt.ine.add.PTCONT.1595585",
      "street": "",
      "house": "",
      "postcode": "8100-280",
      "city": "LOULÉ",
      "lon": "-8.05289824436114",
      "lat": "37.156239227027676"
    },
    {
      "id": "pt.ine.add.PTCONT.1628230",
      "street": "CASA DO MONTE",
      "house": "",
      "postcode": "8100-280",
      "city": "LOULÉ",
      "lon": "-8.053430469283697",
      "lat": "37.15326609267076"
    },
    {
      "id": "pt.ine.add.PTCONT.1642220",
      "street": "MTE DA AVO",
      "house": "",
      "postcode": "8100-280",
      "city": "LOULÉ",
      "lon": "-8.052054351631497",
      "lat": "37.155842187204655"
    },
    {
      "id": "pt.ine.add.PTCONT.1659753",
      "street": "CASA CAMO",
      "house": "",
      "postcode": "8100-280",
      "city": "LOULÉ",
      "lon": "-8.054273629661134",
      "lat": "37.154347926992095"
    },
    {
      "id": "pt.ine.add.PTCONT.1760977",
      "street": "CASA INJA",
      "house": "",
      "postcode": "8100-280",
      "city": "LOULÉ",
      "lon": "-8.054125026362305",
      "lat": "37.15651937902495"
    },
    {
      "id": "pt.ine.add.PTCONT.1773274",
      "street": "CASA ALGARVIA",
      "house": "",
      "postcode": "8100-280",
      "city": "LOULÉ",
      "lon": "-8.052661664046559",
      "lat": "37.156401257182466"
    },
    {
      "id": "pt.ine.add.PTCONT.1773275",
      "street": "CASA ALGARVIA",
      "house": "",
      "postcode": "8100-280",
      "city": "LOULÉ",
      "lon": "-8.052661664046559",
      "lat": "37.156401257182466"
    },
    {
      "id": "pt.ine.add.PTCONT.1824927",
      "street": "CASA ALFARROBEIRA",
      "house": "",
      "postcode": "8100-280",
      "city": "LOULÉ",
      "lon": "-8.051885711015679",
      "lat": "37.15563482831232"
    },
    {
      "id": "pt.ine.add.PTCONT.1847601",
      "street": "ALFEICAO",
      "house": "95",
      "postcode": "8100-280",
      "city": "LOULÉ",
      "lon": "-8.051650648071401",
      "lat": "37.15438219561042"
    }
  ]
}