{
  "data": {
    "distrito": "Viseu",
    "concelho": "Lamego",
    "freguesia": "Penajóia",
    "OBJECTID": 443,
    "BGRI2021": "18051600115",
    "DT21": "18",
    "DTMN21": "1805",
    "DTMNFR21": "180516",
    "DTMNFRSEC21": "180516001",
    "SECNUM21": "001",
    "SSNUM21": "15",
    "SECSSNUM21": "00115",
    "OBJECTID_1": 191530,
    "DT": "18",
    "CC": "05",
    "fr": "16",
    "SEC": "001",
    "SS": "15"
  },
  "addresses": [
    {
      "id": "pt.ine.add.PTCONT.5454744",
      "street": "FIEIS DE DEUS",
      "house": "",
      "postcode": "5100-693",
      "city": "PENAJÓIA",
      "lon": "-7.854599102643194",
      "lat": "41.142213825639665"
    },
    {
      "id": "pt.ine.add.PTCONT.5474566",
      "street": "R ROSMANIAL",
      "house": "",
      "postcode": "5100-666",
      "city": "PENAJÓIA",
      "lon": "-7.855608702213959",
      "lat": "41.1428915919429"
    },
    {
      "id": "pt.ine.add.PTCONT.5502209",
      "street": "R MOINHOS",
      "house": "",
      "postcode": "5100-693",
      "city": "PENAJÓIA",
      "lon": "-7.8567363364314335",
      "lat": "41.1409943746069"
    },
    {
      "id": "pt.ine.add.PTCONT.5572966",
      "street": "FIEIS DE DEUS",
      "house": "",
      "postcode": "5100-693",
      "city": "PENAJÓIA",
      "lon": "-7.854978699149062",
      "lat": "41.14258392307743"
    },
    {
      "id": "pt.ine.add.PTCONT.5616285",
      "street": "VL CHA",
      "house": "",
      "postcode": "5100-693",
      "city": "PENAJÓIA",
      "lon": "-7.855614022188323",
      "lat": "41.13880360687738"
    },
    {
      "id": "pt.ine.add.PTCONT.5655052",
      "street": "FIEIS DE DEUS",
      "house": "",
      "postcode": "5100-693",
      "city": "PENAJÓIA",
      "lon": "-7.8547887290570175",
      "lat": "41.14243939389365"
    }
  ]
}