{
  "data": {
    "distrito": "Castelo Branco",
    "concelho": "Covilhã",
    "freguesia": "Unhais da Serra",
    "OBJECTID": 422,
    "BGRI2021": "05032500110",
    "DT21": "05",
    "DTMN21": "0503",
    "DTMNFR21": "050325",
    "DTMNFRSEC21": "050325001",
    "SECNUM21": "001",
    "SSNUM21": "10",
    "SECSSNUM21": "00110",
    "OBJECTID_1": 42128,
    "DT": "05",
    "CC": "03",
    "fr": "25",
    "SEC": "001",
    "SS": "10"
  },
  "addresses": [
    {
      "id": "pt.ine.add.PTCONT.955730",
      "street": "R AMOREIRA",
      "house": "1O",
      "postcode": "6215-608",
      "city": "UNHAIS DA SERRA",
      "lon": "-7.624026192880229",
      "lat": "40.258831538013794"
    },
    {
      "id": "pt.ine.add.PTCONT.966737",
      "street": "R AMOREIRA",
      "house": "11",
      "postcode": "6215-608",
      "city": "UNHAIS DA SERRA",
      "lon": "-7.6240963148566525",
      "lat": "40.25888588088792"
    },
    {
      "id": "pt.ine.add.PTCONT.982438",
      "street": "LG 11 DE JULHO",
      "house": "3",
      "postcode": "6215-601",
      "city": "UNHAIS DA SERRA",
      "lon": "-7.62386027977789",
      "lat": "40.259010922725494"
    },
    {
      "id": "pt.ine.add.PTCONT.989247",
      "street": "R AMOREIRA",
      "house": "17",
      "postcode": "6215-608",
      "city": "UNHAIS DA SERRA",
      "lon": "-7.624367275229938",
      "lat": "40.258806020790296"
    },
    {
      "id": "pt.ine.add.PTCONT.1016140",
      "street": "R 25 DE ABRIL",
      "house": "2",
      "postcode": "6215-602",
      "city": "UNHAIS DA SERRA",
      "lon": "-7.624979181842977",
      "lat": "40.25871865190157"
    },
    {
      "id": "pt.ine.add.PTCONT.1016720",
      "street": "AV NSA SRA DA SAÚDE",
      "house": "12",
      "postcode": "6215-615",
      "city": "UNHAIS DA SERRA",
      "lon": "-7.624627963644983",
      "lat": "40.258527988721696"
    },
    {
      "id": "pt.ine.add.PTCONT.1017344",
      "street": "R AMOREIRA",
      "house": "15",
      "postcode": "6215-608",
      "city": "UNHAIS DA SERRA",
      "lon": "-7.624225951614214",
      "lat": "40.258841422354585"
    },
    {
      "id": "pt.ine.add.PTCONT.1027744",
      "street": "R PADRE ALFREDO SANTOS MARQUES",
      "house": "8",
      "postcode": "6215-604",
      "city": "UNHAIS DA SERRA",
      "lon": "-7.623966812937902",
      "lat": "40.25891232839713"
    },
    {
      "id": "pt.ine.add.PTCONT.1034229",
      "street": "R 25 ABRIL",
      "house": "4",
      "postcode": "6215-602",
      "city": "UNHAIS DA SERRA",
      "lon": "-7.625131383744414",
      "lat": "40.25880037173954"
    },
    {
      "id": "pt.ine.add.PTCONT.1035106",
      "street": "R 25 ABRIL",
      "house": "4",
      "postcode": "6215-602",
      "city": "UNHAIS DA SERRA",
      "lon": "-7.625131383744414",
      "lat": "40.25880037173954"
    },
    {
      "id": "pt.ine.add.PTCONT.1077904",
      "street": "AV NSA SRA DA SAÚDE",
      "house": "14",
      "postcode": "6215-615",
      "city": "UNHAIS DA SERRA",
      "lon": "-7.624699029475212",
      "lat": "40.25845625506944"
    }
  ]
}