{
  "data": {
    "distrito": "Aveiro",
    "concelho": "Ovar",
    "freguesia": "Válega",
    "OBJECTID": 582,
    "BGRI2021": "01150700402",
    "DT21": "01",
    "DTMN21": "0115",
    "DTMNFR21": "011507",
    "DTMNFRSEC21": "011507004",
    "SECNUM21": "004",
    "SSNUM21": "02",
    "SECSSNUM21": "00402",
    "OBJECTID_1": 10136,
    "DT": "01",
    "CC": "15",
    "fr": "07",
    "SEC": "004",
    "SS": "02"
  },
  "addresses": [
    {
      "id": "pt.ine.add.PTCONT.345099",
      "street": "R OUTEIRO DA MARINHA",
      "house": "368",
      "postcode": "3880-597",
      "city": "VÁLEGA",
      "lon": "-8.589996552180692",
      "lat": "40.81796413861501"
    },
    {
      "id": "pt.ine.add.PTCONT.961",
      "street": "R ERVIDEIRA QTA JUSA",
      "house": "273",
      "postcode": "3880-542",
      "city": "VÁLEGA",
      "lon": "-8.589636402957643",
      "lat": "40.81902813984878"
    },
    {
      "id": "pt.ine.add.PTCONT.15104",
      "street": "R ERVIDEIRA",
      "house": "",
      "postcode": "3880-542",
      "city": "VÁLEGA",
      "lon": "-8.591283955121005",
      "lat": "40.819021608878856"
    },
    {
      "id": "pt.ine.add.PTCONT.109234",
      "street": "R ALMEIDA DOS VINHOS",
      "house": "67",
      "postcode": "3880-542",
      "city": "VÁLEGA",
      "lon": "-8.589348108271851",
      "lat": "40.81847097782854"
    },
    {
      "id": "pt.ine.add.PTCONT.175367",
      "street": "R ERVIDEIRA",
      "house": "",
      "postcode": "3880-542",
      "city": "VÁLEGA",
      "lon": "-8.591509531986764",
      "lat": "40.81907474211168"
    },
    {
      "id": "pt.ine.add.PTCONT.210301",
      "street": "R ERVIDEIRA",
      "house": "473",
      "postcode": "3880-542",
      "city": "VÁLEGA",
      "lon": "-8.591877220042184",
      "lat": "40.81910930015592"
    },
    {
      "id": "pt.ine.add.PTCONT.215847",
      "street": "R OUTEIRO DA MARINHA",
      "house": "300",
      "postcode": "3880-597",
      "city": "VÁLEGA",
      "lon": "-8.589073089267677",
      "lat": "40.818120874776326"
    },
    {
      "id": "pt.ine.add.PTCONT.253702",
      "street": "R ERVIDEIRA",
      "house": "363",
      "postcode": "3880-542",
      "city": "VÁLEGA",
      "lon": "-8.590440853651362",
      "lat": "40.81879983197991"
    },
    {
      "id": "pt.ine.add.PTCONT.265305",
      "street": "R OUTEIRO DA MARINHA",
      "house": "361",
      "postcode": "3880-597",
      "city": "VÁLEGA",
      "lon": "-8.590765368920332",
      "lat": "40.817726964686656"
    },
    {
      "id": "pt.ine.add.PTCONT.276995",
      "street": "R ERVIDEIRA",
      "house": "379",
      "postcode": "3880-542",
      "city": "VÁLEGA",
      "lon": "-8.590737855702985",
      "lat": "40.81889770796906"
    }
  ]
}