{
  "data": {
    "distrito": "Beja",
    "concelho": "Beja",
    "freguesia": "União das freguesias de Beja (Santiago Maior e São João Baptista)",
    "OBJECTID": 473,
    "BGRI2021": "02052101108",
    "DT21": "02",
    "DTMN21": "0205",
    "DTMNFR21": "020521",
    "DTMNFRSEC21": "020521011",
    "SECNUM21": "011",
    "SSNUM21": "08",
    "SECSSNUM21": "01108",
    "OBJECTID_1": 13383,
    "DT": "02",
    "CC": "05",
    "fr": "21",
    "SEC": "011",
    "SS": "08"
  },
  "addresses": [
    {
      "id": "pt.ine.add.PTCONT.456237",
      "street": "R ANTÓNIO VILAR E DAVID ABREU",
      "house": "6",
      "postcode": "7800-279",
      "city": "BEJA",
      "lon": "-7.871141408800114",
      "lat": "38.01666905108531"
    },
    {
      "id": "pt.ine.add.PTCONT.373123",
      "street": "R PROF BARBOSA SOEIRO",
      "house": "27",
      "postcode": "7800-329",
      "city": "BEJA",
      "lon": "-7.870492271079584",
      "lat": "38.0167095862301"
    },
    {
      "id": "pt.ine.add.PTCONT.373557",
      "street": "R PABLO NERUDA",
      "house": "16",
      "postcode": "7800-327",
      "city": "BEJA",
      "lon": "-7.871003482115512",
      "lat": "38.01696396321384"
    },
    {
      "id": "pt.ine.add.PTCONT.373558",
      "street": "R PABLO NERUDA",
      "house": "16",
      "postcode": "7800-327",
      "city": "BEJA",
      "lon": "-7.871003482115512",
      "lat": "38.01696396321384"
    },
    {
      "id": "pt.ine.add.PTCONT.373559",
      "street": "R PABLO NERUDA",
      "house": "16",
      "postcode": "7800-327",
      "city": "BEJA",
      "lon": "-7.871003482115512",
      "lat": "38.01696396321384"
    },
    {
      "id": "pt.ine.add.PTCONT.383706",
      "street": "R EZEQUIEL SOVERAL RODRIGUES",
      "house": "7",
      "postcode": "7800-314",
      "city": "BEJA",
      "lon": "-7.870764485847425",
      "lat": "38.01701650822458"
    },
    {
      "id": "pt.ine.add.PTCONT.384892",
      "street": "R ANTÓNIO VILAR E DAVID ABREU",
      "house": "2",
      "postcode": "7800-279",
      "city": "BEJA",
      "lon": "-7.870640569212299",
      "lat": "38.01663784336385"
    },
    {
      "id": "pt.ine.add.PTCONT.389248",
      "street": "R PROF BARBOSA SOEIRO",
      "house": "31",
      "postcode": "7800-329",
      "city": "BEJA",
      "lon": "-7.870536954354722",
      "lat": "38.01695293565744"
    },
    {
      "id": "pt.ine.add.PTCONT.394001",
      "street": "R PABLO NERUDA",
      "house": "14",
      "postcode": "7800-327",
      "city": "BEJA",
      "lon": "-7.870992755722736",
      "lat": "38.01687286934116"
    },
    {
      "id": "pt.ine.add.PTCONT.394002",
      "street": "R PABLO NERUDA",
      "house": "14",
      "postcode": "7800-327",
      "city": "BEJA",
      "lon": "-7.870992755722736",
      "lat": "38.01687286934116"
    },
    {
      "id": "pt.ine.add.PTCONT.394117",
      "street": "R PABLO NERUDA",
      "house": "14",
      "postcode": "7800-327",
      "city": "BEJA",
      "lon": "-7.870992755722736",
      "lat": "38.01687286934116"
    },
    {
      "id": "pt.ine.add.PTCONT.397072",
      "street": "R ANTÓNIO VILAR E DAVID ABREU",
      "house": "6",
      "postcode": "7800-279",
      "city": "BEJA",
      "lon": "-7.871141408800114",
      "lat": "38.01666905108531"
    },
    {
      "id": "pt.ine.add.PTCONT.397073",
      "street": "R ANTÓNIO VILAR E DAVID ABREU",
      "house": "6",
      "postcode": "7800-279",
      "city": "BEJA",
      "lon": "-7.871141408800114",
      "lat": "38.01666905108531"
    },
    {
      "id": "pt.ine.add.PTCONT.397074",
      "street": "R ANTÓNIO VILAR E DAVID ABREU",
      "house": "6",
      "postcode": "7800-279",
      "city": "BEJA",
      "lon": "-7.871141408800114",
      "lat": "38.01666905108531"
    },
    {
      "id": "pt.ine.add.PTCONT.397075",
      "street": "R ANTÓNIO VILAR E DAVID ABREU",
      "house": "6",
      "postcode": "7800-279",
      "city": "BEJA",
      "lon": "-7.871141408800114",
      "lat": "38.01666905108531"
    },
    {
      "id": "pt.ine.add.PTCONT.397076",
      "street": "R ANTÓNIO VILAR E DAVID ABREU",
      "house": "6",
      "postcode": "7800-279",
      "city": "BEJA",
      "lon": "-7.871141408800114",
      "lat": "38.01666905108531"
    },
    {
      "id": "pt.ine.add.PTCONT.397077",
      "street": "R ANTÓNIO VILAR E DAVID ABREU",
      "house": "6",
      "postcode": "7800-279",
      "city": "BEJA",
      "lon": "-7.871141408800114",
      "lat": "38.01666905108531"
    },
    {
      "id": "pt.ine.add.PTCONT.397078",
      "street": "R ANTÓNIO VILAR E DAVID ABREU",
      "house": "6",
      "postcode": "7800-279",
      "city": "BEJA",
      "lon": "-7.871141408800114",
      "lat": "38.01666905108531"
    },
    {
      "id": "pt.ine.add.PTCONT.397514",
      "street": "R ANTÓNIO VILAR E DAVID ABREU",
      "house": "6",
      "postcode": "7800-279",
      "city": "BEJA",
      "lon": "-7.871141408800114",
      "lat": "38.01666905108531"
    },
    {
      "id": "pt.ine.add.PTCONT.404501",
      "street": "R EZEQUIEL SOVERAL RODRIGUES",
      "house": "5",
      "postcode": "7800-314",
      "city": "BEJA",
      "lon": "-7.870627960478158",
      "lat": "38.01698016657188"
    },
    {
      "id": "pt.ine.add.PTCONT.435603",
      "street": "R ANTÓNIO VILAR E DAVID ABREU",
      "house": "4",
      "postcode": "7800-279",
      "city": "BEJA",
      "lon": "-7.870924382869356",
      "lat": "38.01661743992055"
    },
    {
      "id": "pt.ine.add.PTCONT.435604",
      "street": "R ANTÓNIO VILAR E DAVID ABREU",
      "house": "4",
      "postcode": "7800-279",
      "city": "BEJA",
      "lon": "-7.870924382869356",
      "lat": "38.01661743992055"
    },
    {
      "id": "pt.ine.add.PTCONT.435605",
      "street": "R ANTÓNIO VILAR E DAVID ABREU",
      "house": "4",
      "postcode": "7800-279",
      "city": "BEJA",
      "lon": "-7.870924382869356",
      "lat": "38.01661743992055"
    },
    {
      "id": "pt.ine.add.PTCONT.435606",
      "street": "R ANTÓNIO VILAR E DAVID ABREU",
      "house": "4",
      "postcode": "7800-279",
      "city": "BEJA",
      "lon": "-7.870924382869356",
      "lat": "38.01661743992055"
    },
    {
      "id": "pt.ine.add.PTCONT.435651",
      "street": "R ANTÓNIO VILAR E DAVID ABREU",
      "house": "4",
      "postcode": "7800-279",
      "city": "BEJA",
      "lon": "-7.870924382869356",
      "lat": "38.01661743992055"
    },
    {
      "id": "pt.ine.add.PTCONT.436242",
      "street": "R ANTÓNIO VILAR E DAVID ABREU",
      "house": "4",
      "postcode": "7800-279",
      "city": "BEJA",
      "lon": "-7.870924382869356",
      "lat": "38.01661743992055"
    },
    {
      "id": "pt.ine.add.PTCONT.446783",
      "street": "R PROF BARBOSA SOEIRO",
      "house": "29",
      "postcode": "7800-329",
      "city": "BEJA",
      "lon": "-7.870548792138071",
      "lat": "38.01682683264641"
    }
  ]
}