{
  "data": {
    "distrito": "Porto",
    "concelho": "Penafiel",
    "freguesia": "Luzim e Vila Cova",
    "OBJECTID": 267,
    "BGRI2021": "13114000118",
    "DT21": "13",
    "DTMN21": "1311",
    "DTMNFR21": "131140",
    "DTMNFRSEC21": "131140001",
    "SECNUM21": "001",
    "SSNUM21": "18",
    "SECSSNUM21": "00118",
    "OBJECTID_1": 137643,
    "DT": "13",
    "CC": "11",
    "fr": "40",
    "SEC": "001",
    "SS": "18"
  },
  "addresses": [
    {
      "id": "pt.ine.add.PTCONT.3542399",
      "street": "R CENTRAL LUZIM",
      "house": "801",
      "postcode": "4560-210",
      "city": "LUZIM",
      "lon": "-8.244773677496527",
      "lat": "41.15458928614556"
    },
    {
      "id": "pt.ine.add.PTCONT.3587236",
      "street": "R FONTENARIO",
      "house": "8",
      "postcode": "4560-210",
      "city": "LUZIM",
      "lon": "-8.245261393939556",
      "lat": "41.154156601535384"
    },
    {
      "id": "pt.ine.add.PTCONT.3617970",
      "street": "R CONDESSA",
      "house": "555",
      "postcode": "4560-210",
      "city": "LUZIM",
      "lon": "-8.245059555295935",
      "lat": "41.15456199549047"
    },
    {
      "id": "pt.ine.add.PTCONT.3730071",
      "street": "R CONDESSA",
      "house": "555",
      "postcode": "4560-210",
      "city": "LUZIM",
      "lon": "-8.244904634098196",
      "lat": "41.15453513277607"
    },
    {
      "id": "pt.ine.add.PTCONT.3820101",
      "street": "R PRESA",
      "house": "46",
      "postcode": "4560-210",
      "city": "LUZIM",
      "lon": "-8.245130469042191",
      "lat": "41.154228764066296"
    },
    {
      "id": "pt.ine.add.PTCONT.4242676",
      "street": "R PRESA",
      "house": "54",
      "postcode": "4560-210",
      "city": "LUZIM",
      "lon": "-8.245344173509356",
      "lat": "41.153796345226134"
    },
    {
      "id": "pt.ine.add.PTCONT.4242677",
      "street": "R PRESA",
      "house": "54",
      "postcode": "4560-210",
      "city": "LUZIM",
      "lon": "-8.245344173509356",
      "lat": "41.153796345226134"
    }
  ]
}