{
  "data": {
    "distrito": "Porto",
    "concelho": "Penafiel",
    "freguesia": "Luzim e Vila Cova",
    "OBJECTID": 1763,
    "BGRI2021": "13114000121",
    "DT21": "13",
    "DTMN21": "1311",
    "DTMNFR21": "131140",
    "DTMNFRSEC21": "131140001",
    "SECNUM21": "001",
    "SSNUM21": "21",
    "SECSSNUM21": "00121",
    "OBJECTID_1": 136103,
    "DT": "13",
    "CC": "11",
    "fr": "40",
    "SEC": "001",
    "SS": "21"
  },
  "addresses": [
    {
      "id": "pt.ine.add.PTCONT.3632423",
      "street": "R PACOS",
      "house": "3",
      "postcode": "4560-210",
      "city": "LUZIM",
      "lon": "-8.24448038183917",
      "lat": "41.15727287802975"
    },
    {
      "id": "pt.ine.add.PTCONT.3651546",
      "street": "R CASAL MENINO",
      "house": "358",
      "postcode": "4560-210",
      "city": "LUZIM",
      "lon": "-8.24438531368396",
      "lat": "41.15741704009721"
    },
    {
      "id": "pt.ine.add.PTCONT.3656685",
      "street": "R CENTRAL LUZIM",
      "house": "",
      "postcode": "4560-210",
      "city": "LUZIM",
      "lon": "-8.244432817343968",
      "lat": "41.1573269503294"
    },
    {
      "id": "pt.ine.add.PTCONT.3754660",
      "street": "R CENTRAL DE PACOS",
      "house": "1",
      "postcode": "4560-210",
      "city": "LUZIM",
      "lon": "-8.244539829723626",
      "lat": "41.15720078544083"
    },
    {
      "id": "pt.ine.add.PTCONT.4085519",
      "street": "R CASAL MENINO",
      "house": "30",
      "postcode": "4560-210",
      "city": "LUZIM",
      "lon": "-8.244631615992889",
      "lat": "41.15512068282457"
    },
    {
      "id": "pt.ine.add.PTCONT.4085520",
      "street": "R CASAL MENINO",
      "house": "30",
      "postcode": "4560-210",
      "city": "LUZIM",
      "lon": "-8.244631615992889",
      "lat": "41.15512068282457"
    },
    {
      "id": "pt.ine.add.PTCONT.4268922",
      "street": "R CONDESSA",
      "house": "556",
      "postcode": "4560-210",
      "city": "LUZIM",
      "lon": "-8.244798008826834",
      "lat": "41.15488640745674"
    }
  ]
}