{
  "data": {
    "distrito": "Viseu",
    "concelho": "Tarouca",
    "freguesia": "União das freguesias de Tarouca e Dálvares",
    "OBJECTID": 304,
    "BGRI2021": "18201300511",
    "DT21": "18",
    "DTMN21": "1820",
    "DTMNFR21": "182013",
    "DTMNFRSEC21": "182013005",
    "SECNUM21": "005",
    "SSNUM21": "11",
    "SECSSNUM21": "00511",
    "OBJECTID_1": 198739,
    "DT": "18",
    "CC": "20",
    "fr": "13",
    "SEC": "005",
    "SS": "11"
  },
  "addresses": [
    {
      "id": "pt.ine.add.PTCONT.5460182",
      "street": "ESTR NOSSA SENHORA DOS CAMINHOS",
      "house": "",
      "postcode": "3610-116",
      "city": "TAROUCA",
      "lon": "-7.79237687156087",
      "lat": "41.026600129251605"
    },
    {
      "id": "pt.ine.add.PTCONT.5470101",
      "street": "R LAGES",
      "house": "",
      "postcode": "3610-167",
      "city": "TAROUCA",
      "lon": "-7.790171927354576",
      "lat": "41.025314940564414"
    },
    {
      "id": "pt.ine.add.PTCONT.5471695",
      "street": "R PEREIRA",
      "house": "",
      "postcode": "3610-116",
      "city": "TAROUCA",
      "lon": "-7.7913629920503205",
      "lat": "41.027218442954144"
    },
    {
      "id": "pt.ine.add.PTCONT.5521186",
      "street": "LG OUTEIRO",
      "house": "",
      "postcode": "3610-167",
      "city": "TAROUCA",
      "lon": "-7.790896702851071",
      "lat": "41.025416145042"
    },
    {
      "id": "pt.ine.add.PTCONT.5534743",
      "street": "R NSA SRA DAS NECESSIDADES",
      "house": "",
      "postcode": "3610-167",
      "city": "TAROUCA",
      "lon": "-7.790635356330153",
      "lat": "41.02537034592887"
    },
    {
      "id": "pt.ine.add.PTCONT.5539485",
      "street": "R MOITA",
      "house": "",
      "postcode": "3610-116",
      "city": "TAROUCA",
      "lon": "-7.7915765524662834",
      "lat": "41.027309121674776"
    },
    {
      "id": "pt.ine.add.PTCONT.5550986",
      "street": "R S LUIS",
      "house": "",
      "postcode": "3610-116",
      "city": "TAROUCA",
      "lon": "-7.792337208756794",
      "lat": "41.02737440511533"
    },
    {
      "id": "pt.ine.add.PTCONT.5557264",
      "street": "R S LUIS",
      "house": "",
      "postcode": "3610-116",
      "city": "TAROUCA",
      "lon": "-7.7918263889003825",
      "lat": "41.02728284800063"
    },
    {
      "id": "pt.ine.add.PTCONT.5568931",
      "street": "R EIRA",
      "house": "",
      "postcode": "3610-167",
      "city": "TAROUCA",
      "lon": "-7.789506276239516",
      "lat": "41.025276939815484"
    },
    {
      "id": "pt.ine.add.PTCONT.5570918",
      "street": "LG OUTEIRO",
      "house": "",
      "postcode": "3610-167",
      "city": "TAROUCA",
      "lon": "-7.791027026770857",
      "lat": "41.0255065776399"
    },
    {
      "id": "pt.ine.add.PTCONT.5594283",
      "street": "R PEREIRA",
      "house": "",
      "postcode": "3610-116",
      "city": "TAROUCA",
      "lon": "-7.791196341339628",
      "lat": "41.02725396699282"
    },
    {
      "id": "pt.ine.add.PTCONT.5612817",
      "street": "R PEREIRA",
      "house": "",
      "postcode": "3610-116",
      "city": "TAROUCA",
      "lon": "-7.791505163944306",
      "lat": "41.0273179146867"
    },
    {
      "id": "pt.ine.add.PTCONT.5639291",
      "street": "R S LUIS",
      "house": "",
      "postcode": "3610-116",
      "city": "TAROUCA",
      "lon": "-7.791671768141329",
      "lat": "41.02729139463472"
    },
    {
      "id": "pt.ine.add.PTCONT.5662025",
      "street": "R NSA SRA DAS NECESSIDADES",
      "house": "",
      "postcode": "3610-167",
      "city": "TAROUCA",
      "lon": "-7.790468103150658",
      "lat": "41.025522926593176"
    }
  ]
}