{
  "data": {
    "distrito": "Vila Real",
    "concelho": "Valpaços",
    "freguesia": "Friões",
    "OBJECTID": 405,
    "BGRI2021": "17121200104",
    "DT21": "17",
    "DTMN21": "1712",
    "DTMNFR21": "171212",
    "DTMNFRSEC21": "171212001",
    "SECNUM21": "001",
    "SSNUM21": "04",
    "SECSSNUM21": "00104",
    "OBJECTID_1": 186336,
    "DT": "17",
    "CC": "12",
    "fr": "12",
    "SEC": "001",
    "SS": "04"
  },
  "addresses": [
    {
      "id": "pt.ine.add.PTCONT.5319287",
      "street": "AV DE NSA SRA DA ASSUNÇÃO",
      "house": "25",
      "postcode": "5430-121",
      "city": "FRIÕES",
      "lon": "-7.396743028092361",
      "lat": "41.6434624045087"
    },
    {
      "id": "pt.ine.add.PTCONT.5323832",
      "street": "LG DO CRUZEIRO",
      "house": "",
      "postcode": "5430-121",
      "city": "FRIÕES",
      "lon": "-7.39836546842923",
      "lat": "41.64962219998583"
    },
    {
      "id": "pt.ine.add.PTCONT.5327018",
      "street": "AV DE NSA SRA DA ASSUNÇÃO",
      "house": "",
      "postcode": "5430-121",
      "city": "FRIÕES",
      "lon": "-7.397783656955076",
      "lat": "41.644837603958706"
    },
    {
      "id": "pt.ine.add.PTCONT.5329299",
      "street": "AV DE NSA SRA DA ASSUNÇÃO",
      "house": "",
      "postcode": "5430-121",
      "city": "FRIÕES",
      "lon": "-7.396966047372594",
      "lat": "41.64390500634361"
    },
    {
      "id": "pt.ine.add.PTCONT.5360267",
      "street": "LG DO CRUZEIRO",
      "house": "",
      "postcode": "5430-121",
      "city": "FRIÕES",
      "lon": "-7.398304531247521",
      "lat": "41.64970284219126"
    },
    {
      "id": "pt.ine.add.PTCONT.5401154",
      "street": "AV NSA SRA ASSUNCAO",
      "house": "27",
      "postcode": "5430-121",
      "city": "FRIÕES",
      "lon": "-7.396726925669052",
      "lat": "41.64382244283557"
    },
    {
      "id": "pt.ine.add.PTCONT.5401155",
      "street": "AV DE NSA SRA DA ASSUNÇÃO",
      "house": "",
      "postcode": "5430-121",
      "city": "FRIÕES",
      "lon": "-7.398830914545388",
      "lat": "41.64669002334813"
    },
    {
      "id": "pt.ine.add.PTCONT.5406046",
      "street": "R DA CRUZ",
      "house": "",
      "postcode": "5430-121",
      "city": "FRIÕES",
      "lon": "-7.39794484188388",
      "lat": "41.64966452806152"
    },
    {
      "id": "pt.ine.add.PTCONT.5424579",
      "street": "LG DO CRUZEIRO",
      "house": "",
      "postcode": "5430-121",
      "city": "FRIÕES",
      "lon": "-7.39823404627476",
      "lat": "41.64956733864354"
    }
  ]
}