{
  "data": {
    "distrito": "Porto",
    "concelho": "Santo Tirso",
    "freguesia": "Negrelos (São Tomé)",
    "OBJECTID": 248,
    "BGRI2021": "13143000101",
    "DT21": "13",
    "DTMN21": "1314",
    "DTMNFR21": "131430",
    "DTMNFRSEC21": "131430001",
    "SECNUM21": "001",
    "SSNUM21": "01",
    "SECSSNUM21": "00101",
    "OBJECTID_1": 140790,
    "DT": "13",
    "CC": "14",
    "fr": "30",
    "SEC": "001",
    "SS": "01"
  },
  "addresses": [
    {
      "id": "pt.ine.add.PTCONT.3540628",
      "street": "R ESCADINHAS",
      "house": "147",
      "postcode": "4795-616",
      "city": "SÃO TOMÉ NEGRELOS",
      "lon": "-8.401209051314426",
      "lat": "41.33826095461362"
    },
    {
      "id": "pt.ine.add.PTCONT.3780181",
      "street": "R ESCADINHAS",
      "house": "147",
      "postcode": "4795-616",
      "city": "SÃO TOMÉ NEGRELOS",
      "lon": "-8.400875020611556",
      "lat": "41.338378785410946"
    },
    {
      "id": "pt.ine.add.PTCONT.3785286",
      "street": "R ESCADINHAS",
      "house": "147",
      "postcode": "4795-616",
      "city": "SÃO TOMÉ NEGRELOS",
      "lon": "-8.400875020611556",
      "lat": "41.338378785410946"
    },
    {
      "id": "pt.ine.add.PTCONT.3970033",
      "street": "R MOINHOS",
      "house": "",
      "postcode": "4795-654",
      "city": "SÃO TOMÉ NEGRELOS",
      "lon": "-8.400800427228697",
      "lat": "41.33766763558575"
    },
    {
      "id": "pt.ine.add.PTCONT.4008082",
      "street": "R MOINHOS",
      "house": "127",
      "postcode": "4795-654",
      "city": "SÃO TOMÉ NEGRELOS",
      "lon": "-8.401109121676477",
      "lat": "41.33719870432875"
    },
    {
      "id": "pt.ine.add.PTCONT.4080300",
      "street": "R ESTREITA",
      "house": "37",
      "postcode": "4795-829",
      "city": "SÃO TOMÉ NEGRELOS",
      "lon": "-8.40068280294166",
      "lat": "41.33811811375391"
    },
    {
      "id": "pt.ine.add.PTCONT.4203480",
      "street": "R FOJO",
      "house": "",
      "postcode": "4795-625",
      "city": "SÃO TOMÉ NEGRELOS",
      "lon": "-8.400373070475968",
      "lat": "41.338334931624516"
    }
  ]
}