{
  "data": {
    "distrito": "Beja",
    "concelho": "Serpa",
    "freguesia": "Vila Verde de Ficalho",
    "OBJECTID": 162,
    "BGRI2021": "02130700212",
    "DT21": "02",
    "DTMN21": "0213",
    "DTMNFR21": "021307",
    "DTMNFRSEC21": "021307002",
    "SECNUM21": "002",
    "SSNUM21": "12",
    "SECSSNUM21": "00212",
    "OBJECTID_1": 18755,
    "DT": "02",
    "CC": "13",
    "fr": "07",
    "SEC": "002",
    "SS": "12"
  },
  "addresses": [
    {
      "id": "pt.ine.add.PTCONT.360140",
      "street": "BECOS DO CARRIL",
      "house": "",
      "postcode": "7830-629",
      "city": "VILA VERDE DE FICALHO",
      "lon": "-7.297145799840898",
      "lat": "37.94308468920563"
    },
    {
      "id": "pt.ine.add.PTCONT.386416",
      "street": "R CALVÁRIO",
      "house": "29",
      "postcode": "7830-643",
      "city": "VILA VERDE DE FICALHO",
      "lon": "-7.298911895965946",
      "lat": "37.94384498338946"
    },
    {
      "id": "pt.ine.add.PTCONT.391665",
      "street": "CM 1071 MONTE DO CALVÁRIO",
      "house": "",
      "postcode": "7830-625",
      "city": "VILA VERDE DE FICALHO",
      "lon": "-7.297133663310362",
      "lat": "37.94214765170742"
    },
    {
      "id": "pt.ine.add.PTCONT.393228",
      "street": "R CALVÁRIO",
      "house": "35",
      "postcode": "7830-643",
      "city": "VILA VERDE DE FICALHO",
      "lon": "-7.298698615123893",
      "lat": "37.943591214919"
    },
    {
      "id": "pt.ine.add.PTCONT.406664",
      "street": "R CALVÁRIO",
      "house": "33",
      "postcode": "7830-643",
      "city": "VILA VERDE DE FICALHO",
      "lon": "-7.298788803401035",
      "lat": "37.94366392766263"
    },
    {
      "id": "pt.ine.add.PTCONT.406665",
      "street": "R CALVÁRIO",
      "house": "33",
      "postcode": "7830-643",
      "city": "VILA VERDE DE FICALHO",
      "lon": "-7.298788803401035",
      "lat": "37.94366392766263"
    },
    {
      "id": "pt.ine.add.PTCONT.412307",
      "street": "LOTEAM CALVARIO",
      "house": "3",
      "postcode": "7830-483",
      "city": "VILA VERDE DE FICALHO",
      "lon": "-7.298856037318517",
      "lat": "37.94375449587135"
    },
    {
      "id": "pt.ine.add.PTCONT.416289",
      "street": "BECOS DO CARRIL",
      "house": "22",
      "postcode": "7830-629",
      "city": "VILA VERDE DE FICALHO",
      "lon": "-7.298273342896365",
      "lat": "37.94397559141568"
    },
    {
      "id": "pt.ine.add.PTCONT.420710",
      "street": "BECOS DO CARRIL",
      "house": "1",
      "postcode": "7830-629",
      "city": "VILA VERDE DE FICALHO",
      "lon": "-7.298945003853211",
      "lat": "37.943935309582976"
    },
    {
      "id": "pt.ine.add.PTCONT.429601",
      "street": "BECOS DO CARRIL",
      "house": "18",
      "postcode": "7830-629",
      "city": "VILA VERDE DE FICALHO",
      "lon": "-7.2984651970793815",
      "lat": "37.944112089753936"
    }
  ]
}