{
  "data": {
    "distrito": "Beja",
    "concelho": "Serpa",
    "freguesia": "Vila Verde de Ficalho",
    "OBJECTID": 496,
    "BGRI2021": "02130700223",
    "DT21": "02",
    "DTMN21": "0213",
    "DTMNFR21": "021307",
    "DTMNFRSEC21": "021307002",
    "SECNUM21": "002",
    "SSNUM21": "23",
    "SECSSNUM21": "00223",
    "OBJECTID_1": 18670,
    "DT": "02",
    "CC": "13",
    "fr": "07",
    "SEC": "002",
    "SS": "23"
  },
  "addresses": [
    {
      "id": "pt.ine.add.PTCONT.355229",
      "street": "BC HORTA BAIXO MONTE FERNANDES",
      "house": "",
      "postcode": "7830-621",
      "city": "VILA VERDE DE FICALHO",
      "lon": "-7.304889465140447",
      "lat": "37.943400719182904"
    },
    {
      "id": "pt.ine.add.PTCONT.355232",
      "street": "EN 260 HERDADE DAS BERNARDAS",
      "house": "",
      "postcode": "7830-644",
      "city": "VILA VERDE DE FICALHO",
      "lon": "-7.347626254874423",
      "lat": "37.934153071752334"
    },
    {
      "id": "pt.ine.add.PTCONT.355233",
      "street": "EN 260 HERDADE DAS BERNARDAS",
      "house": "",
      "postcode": "7830-644",
      "city": "VILA VERDE DE FICALHO",
      "lon": "-7.347626254874423",
      "lat": "37.934153071752334"
    },
    {
      "id": "pt.ine.add.PTCONT.355234",
      "street": "EN 260 HERDADE DAS BERNARDAS",
      "house": "",
      "postcode": "7830-644",
      "city": "VILA VERDE DE FICALHO",
      "lon": "-7.347626254874423",
      "lat": "37.934153071752334"
    },
    {
      "id": "pt.ine.add.PTCONT.355235",
      "street": "EN 260 HERDADE DAS BERNARDAS",
      "house": "",
      "postcode": "7830-644",
      "city": "VILA VERDE DE FICALHO",
      "lon": "-7.347626254874423",
      "lat": "37.934153071752334"
    },
    {
      "id": "pt.ine.add.PTCONT.355288",
      "street": "EN 260 HERDADE DAS BERNARDAS",
      "house": "",
      "postcode": "7830-644",
      "city": "VILA VERDE DE FICALHO",
      "lon": "-7.347626254874423",
      "lat": "37.934153071752334"
    },
    {
      "id": "pt.ine.add.PTCONT.358557",
      "street": "ZN CHARNECA MONTE DO FIM DO MUNDO",
      "house": "",
      "postcode": "7830-621",
      "city": "VILA VERDE DE FICALHO",
      "lon": "-7.326639040683852",
      "lat": "37.92066849565228"
    },
    {
      "id": "pt.ine.add.PTCONT.364974",
      "street": "ZN AREIAS MONTE MONTAREZES",
      "house": "",
      "postcode": "7830-621",
      "city": "VILA VERDE DE FICALHO",
      "lon": "-7.314900138414191",
      "lat": "37.918812652097856"
    },
    {
      "id": "pt.ine.add.PTCONT.377743",
      "street": "EN 260 HERDADE DAS BERUARDAS",
      "house": "",
      "postcode": "7830-644",
      "city": "VILA VERDE DE FICALHO",
      "lon": "-7.34741235290558",
      "lat": "37.933944432353954"
    },
    {
      "id": "pt.ine.add.PTCONT.415061",
      "street": "ZN CHARNECA MONTE LUIS COELHO",
      "house": "",
      "postcode": "7830-621",
      "city": "VILA VERDE DE FICALHO",
      "lon": "-7.318438000356879",
      "lat": "37.94139617705315"
    },
    {
      "id": "pt.ine.add.PTCONT.423846",
      "street": "ZN CHARNECA MONTE DA CHARNECA",
      "house": "",
      "postcode": "7830-621",
      "city": "VILA VERDE DE FICALHO",
      "lon": "-7.3241665982043775",
      "lat": "37.93042649434965"
    },
    {
      "id": "pt.ine.add.PTCONT.425477",
      "street": "ZN CHARNECA MONTE DO BLE",
      "house": "",
      "postcode": "7830-621",
      "city": "VILA VERDE DE FICALHO",
      "lon": "-7.32875371908977",
      "lat": "37.938476106952635"
    },
    {
      "id": "pt.ine.add.PTCONT.439581",
      "street": "ZN CHARNECA MONTE DO SALES",
      "house": "",
      "postcode": "7830-621",
      "city": "VILA VERDE DE FICALHO",
      "lon": "-7.327041355990639",
      "lat": "37.93798690252745"
    },
    {
      "id": "pt.ine.add.PTCONT.448388",
      "street": "BC HORTA BAIXO MONTE DO PILOTO",
      "house": "",
      "postcode": "7830-621",
      "city": "VILA VERDE DE FICALHO",
      "lon": "-7.305054988276261",
      "lat": "37.942843316901374"
    }
  ]
}