{
  "data": {
    "distrito": "Lisboa",
    "concelho": "Mafra",
    "freguesia": "Encarnação",
    "OBJECTID": 1150,
    "BGRI2021": "11090400333",
    "DT21": "11",
    "DTMN21": "1109",
    "DTMNFR21": "110904",
    "DTMNFRSEC21": "110904003",
    "SECNUM21": "003",
    "SSNUM21": "33",
    "SECSSNUM21": "00333",
    "OBJECTID_1": 109770,
    "DT": "11",
    "CC": "09",
    "fr": "04",
    "SEC": "003",
    "SS": "33"
  },
  "addresses": [
    {
      "id": "pt.ine.add.PTCONT.2320401",
      "street": "R PALHAIS",
      "house": "",
      "postcode": "2640-213",
      "city": "ENCARNAÇÃO",
      "lon": "-9.369100099089154",
      "lat": "39.05454300952502"
    },
    {
      "id": "pt.ine.add.PTCONT.2501354",
      "street": "CAM ALTO DA SERRA",
      "house": "",
      "postcode": "2640-213",
      "city": "ENCARNAÇÃO",
      "lon": "-9.367785157434623",
      "lat": "39.05134135658476"
    },
    {
      "id": "pt.ine.add.PTCONT.2580644",
      "street": "R PALHAIS",
      "house": "",
      "postcode": "2640-213",
      "city": "ENCARNAÇÃO",
      "lon": "-9.368658595222765",
      "lat": "39.055061100450004"
    },
    {
      "id": "pt.ine.add.PTCONT.2767122",
      "street": "R CASAL SERRA NOVA",
      "house": "205",
      "postcode": "2640-205",
      "city": "ENCARNAÇÃO",
      "lon": "-9.366069923456992",
      "lat": "39.046369492179295"
    },
    {
      "id": "pt.ine.add.PTCONT.2957177",
      "street": "R PALHAIS",
      "house": "",
      "postcode": "2640-213",
      "city": "ENCARNAÇÃO",
      "lon": "-9.367925606024253",
      "lat": "39.05476261859164"
    },
    {
      "id": "pt.ine.add.PTCONT.3002561",
      "street": "R PALHAIS",
      "house": "",
      "postcode": "2640-213",
      "city": "ENCARNAÇÃO",
      "lon": "-9.364725900258732",
      "lat": "39.054111906868485"
    },
    {
      "id": "pt.ine.add.PTCONT.3129393",
      "street": "R PALHAIS",
      "house": "31",
      "postcode": "2640-213",
      "city": "ENCARNAÇÃO",
      "lon": "-9.369364806924747",
      "lat": "39.054486160155015"
    },
    {
      "id": "pt.ine.add.PTCONT.3400750",
      "street": "R CASAL DA SERRA NOVA",
      "house": "",
      "postcode": "2640-205",
      "city": "ENCARNAÇÃO",
      "lon": "-9.364672087710355",
      "lat": "39.04702377695858"
    }
  ]
}