{
  "data": {
    "distrito": "Leiria",
    "concelho": "Alcobaça",
    "freguesia": "Alfeizerão",
    "OBJECTID": 781,
    "BGRI2021": "10010200326",
    "DT21": "10",
    "DTMN21": "1001",
    "DTMNFR21": "100102",
    "DTMNFRSEC21": "100102003",
    "SECNUM21": "003",
    "SSNUM21": "26",
    "SECSSNUM21": "00326",
    "OBJECTID_1": 84845,
    "DT": "10",
    "CC": "01",
    "fr": "02",
    "SEC": "003",
    "SS": "26"
  },
  "addresses": [
    {
      "id": "pt.ine.add.PTCONT.1984049",
      "street": "R ADELINO ANTÓNIO FERREIRA SALAO REINO TESTEMUNHAS JEOVA",
      "house": "59",
      "postcode": "2460-115",
      "city": "ALFEIZERÃO",
      "lon": "-9.104151394088202",
      "lat": "39.5037642730876"
    },
    {
      "id": "pt.ine.add.PTCONT.2001812",
      "street": "R QUINTA CASAIS NORTE",
      "house": "",
      "postcode": "2460-112",
      "city": "ALFEIZERÃO",
      "lon": "-9.103711199181644",
      "lat": "39.50555127971753"
    },
    {
      "id": "pt.ine.add.PTCONT.2007780",
      "street": "R JOÃO PAULO II",
      "house": "",
      "postcode": "2460-115",
      "city": "ALFEIZERÃO",
      "lon": "-9.103783958528274",
      "lat": "39.505766833485524"
    },
    {
      "id": "pt.ine.add.PTCONT.2012616",
      "street": "R JOÃO PAULO II",
      "house": "21",
      "postcode": "2460-115",
      "city": "ALFEIZERÃO",
      "lon": "-9.104626378592306",
      "lat": "39.506147085438876"
    },
    {
      "id": "pt.ine.add.PTCONT.2036854",
      "street": "R MOINHO DAS SOUSAS QTA DAS SOUSAS",
      "house": "",
      "postcode": "2460-116",
      "city": "ALFEIZERÃO",
      "lon": "-9.104803525434269",
      "lat": "39.503839884723"
    },
    {
      "id": "pt.ine.add.PTCONT.2047969",
      "street": "R ADELINO ANTÓNIO FERREIRA QTA DOS INDIOS",
      "house": "55",
      "postcode": "2460-115",
      "city": "ALFEIZERÃO",
      "lon": "-9.103963919135309",
      "lat": "39.504495383268036"
    },
    {
      "id": "pt.ine.add.PTCONT.2047970",
      "street": "R ADELINO ANTÓNIO FERREIRA QTA DOS INDIOS",
      "house": "55",
      "postcode": "2460-115",
      "city": "ALFEIZERÃO",
      "lon": "-9.103963919135309",
      "lat": "39.504495383268036"
    },
    {
      "id": "pt.ine.add.PTCONT.2075908",
      "street": "R QUINTA CASAIS NORTE",
      "house": "",
      "postcode": "2460-112",
      "city": "ALFEIZERÃO",
      "lon": "-9.103724328070165",
      "lat": "39.50565925073351"
    },
    {
      "id": "pt.ine.add.PTCONT.2124472",
      "street": "R JOÃO PAULO II",
      "house": "19",
      "postcode": "2460-115",
      "city": "ALFEIZERÃO",
      "lon": "-9.10453885578575",
      "lat": "39.50570648763064"
    },
    {
      "id": "pt.ine.add.PTCONT.2126444",
      "street": "R QUINTA CASAIS NORTE",
      "house": "",
      "postcode": "2460-112",
      "city": "ALFEIZERÃO",
      "lon": "-9.10367870364394",
      "lat": "39.50572267867977"
    },
    {
      "id": "pt.ine.add.PTCONT.2150528",
      "street": "R JOÃO PAULO II",
      "house": "17",
      "postcode": "2460-115",
      "city": "ALFEIZERÃO",
      "lon": "-9.103982843297239",
      "lat": "39.50585523989316"
    },
    {
      "id": "pt.ine.add.PTCONT.2240734",
      "street": "R QUINTA CASAIS NORTE",
      "house": "",
      "postcode": "2460-112",
      "city": "ALFEIZERÃO",
      "lon": "-9.103815075449418",
      "lat": "39.50549637209664"
    },
    {
      "id": "pt.ine.add.PTCONT.2240735",
      "street": "R QUINTA CASAIS NORTE",
      "house": "",
      "postcode": "2460-112",
      "city": "ALFEIZERÃO",
      "lon": "-9.103815075449418",
      "lat": "39.50549637209664"
    }
  ]
}