{
  "data": {
    "distrito": "Viseu",
    "concelho": "Mangualde",
    "freguesia": "Cunha Baixa",
    "OBJECTID": 434,
    "BGRI2021": "18060500111",
    "DT21": "18",
    "DTMN21": "1806",
    "DTMNFR21": "180605",
    "DTMNFRSEC21": "180605001",
    "SECNUM21": "001",
    "SSNUM21": "11",
    "SECSSNUM21": "00111",
    "OBJECTID_1": 192094,
    "DT": "18",
    "CC": "06",
    "fr": "05",
    "SEC": "001",
    "SS": "11"
  },
  "addresses": [
    {
      "id": "pt.ine.add.PTCONT.5440304",
      "street": "SIT CARREIROS",
      "house": "",
      "postcode": "3530-050",
      "city": "CUNHA BAIXA",
      "lon": "-7.747586514094859",
      "lat": "40.54091242071214"
    },
    {
      "id": "pt.ine.add.PTCONT.5494854",
      "street": "R CARREIROS",
      "house": "3",
      "postcode": "3530-050",
      "city": "CUNHA BAIXA",
      "lon": "-7.7475449067767626",
      "lat": "40.541992920473746"
    },
    {
      "id": "pt.ine.add.PTCONT.5515939",
      "street": "ESTR BARRAGEM",
      "house": "2",
      "postcode": "3530-050",
      "city": "CUNHA BAIXA",
      "lon": "-7.745918197609913",
      "lat": "40.53954703830187"
    },
    {
      "id": "pt.ine.add.PTCONT.5526569",
      "street": "R EMIGRANTES",
      "house": "2",
      "postcode": "3530-050",
      "city": "CUNHA BAIXA",
      "lon": "-7.746640033087299",
      "lat": "40.54128748230696"
    },
    {
      "id": "pt.ine.add.PTCONT.5580689",
      "street": "R CARREIROS",
      "house": "8",
      "postcode": "3530-050",
      "city": "CUNHA BAIXA",
      "lon": "-7.748131963629992",
      "lat": "40.54254420254361"
    },
    {
      "id": "pt.ine.add.PTCONT.5581848",
      "street": "R CARREIROS",
      "house": "8",
      "postcode": "3530-050",
      "city": "CUNHA BAIXA",
      "lon": "-7.748131963629992",
      "lat": "40.54254420254361"
    },
    {
      "id": "pt.ine.add.PTCONT.5605292",
      "street": "R EMIGRANTES",
      "house": "8",
      "postcode": "3530-050",
      "city": "CUNHA BAIXA",
      "lon": "-7.746197546548548",
      "lat": "40.54023237868691"
    },
    {
      "id": "pt.ine.add.PTCONT.5616376",
      "street": "R CARREIROS",
      "house": "",
      "postcode": "3530-050",
      "city": "CUNHA BAIXA",
      "lon": "-7.746744457394613",
      "lat": "40.54160301779414"
    },
    {
      "id": "pt.ine.add.PTCONT.5627942",
      "street": "",
      "house": "",
      "postcode": "3530-050",
      "city": "CUNHA BAIXA",
      "lon": "-7.7475939479140115",
      "lat": "40.539615678931526"
    }
  ]
}