{
  "data": {
    "distrito": "Beja",
    "concelho": "Beja",
    "freguesia": "União das freguesias de Beja (Santiago Maior e São João Baptista)",
    "OBJECTID": 731,
    "BGRI2021": "02052100706",
    "DT21": "02",
    "DTMN21": "0205",
    "DTMNFR21": "020521",
    "DTMNFRSEC21": "020521007",
    "SECNUM21": "007",
    "SSNUM21": "06",
    "SECSSNUM21": "00706",
    "OBJECTID_1": 14050,
    "DT": "02",
    "CC": "05",
    "fr": "21",
    "SEC": "007",
    "SS": "06"
  },
  "addresses": [
    {
      "id": "pt.ine.add.PTCONT.455935",
      "street": "R MANUEL FONSECA",
      "house": "",
      "postcode": "7800-323",
      "city": "BEJA",
      "lon": "-7.872751439896412",
      "lat": "38.02063662653281"
    },
    {
      "id": "pt.ine.add.PTCONT.455936",
      "street": "R MANUEL FONSECA",
      "house": "",
      "postcode": "7800-323",
      "city": "BEJA",
      "lon": "-7.872751439896412",
      "lat": "38.02063662653281"
    },
    {
      "id": "pt.ine.add.PTCONT.455937",
      "street": "R MANUEL FONSECA",
      "house": "",
      "postcode": "7800-323",
      "city": "BEJA",
      "lon": "-7.872751439896412",
      "lat": "38.02063662653281"
    },
    {
      "id": "pt.ine.add.PTCONT.455938",
      "street": "R MANUEL FONSECA",
      "house": "",
      "postcode": "7800-323",
      "city": "BEJA",
      "lon": "-7.872751439896412",
      "lat": "38.02063662653281"
    },
    {
      "id": "pt.ine.add.PTCONT.455939",
      "street": "R MANUEL FONSECA",
      "house": "",
      "postcode": "7800-323",
      "city": "BEJA",
      "lon": "-7.872751439896412",
      "lat": "38.02063662653281"
    },
    {
      "id": "pt.ine.add.PTCONT.455947",
      "street": "R MANUEL FONSECA",
      "house": "",
      "postcode": "7800-323",
      "city": "BEJA",
      "lon": "-7.872751439896412",
      "lat": "38.02063662653281"
    },
    {
      "id": "pt.ine.add.PTCONT.456511",
      "street": "R MANUEL DA FONSECA",
      "house": "",
      "postcode": "7800-323",
      "city": "BEJA",
      "lon": "-7.87257275958366",
      "lat": "38.020912521644625"
    },
    {
      "id": "pt.ine.add.PTCONT.456827",
      "street": "R JOSE GOMES FERREIRA",
      "house": "3",
      "postcode": "7800-322",
      "city": "BEJA",
      "lon": "-7.872466878763764",
      "lat": "38.020519788624725"
    },
    {
      "id": "pt.ine.add.PTCONT.384917",
      "street": "R JOSE GOMES FERREIRA",
      "house": "",
      "postcode": "7800-322",
      "city": "BEJA",
      "lon": "-7.872386745229016",
      "lat": "38.0206367311014"
    },
    {
      "id": "pt.ine.add.PTCONT.384918",
      "street": "R JOSE GOMES FERREIRA",
      "house": "",
      "postcode": "7800-322",
      "city": "BEJA",
      "lon": "-7.872386745229016",
      "lat": "38.0206367311014"
    },
    {
      "id": "pt.ine.add.PTCONT.384919",
      "street": "R JOSE GOMES FERREIRA",
      "house": "",
      "postcode": "7800-322",
      "city": "BEJA",
      "lon": "-7.872386745229016",
      "lat": "38.0206367311014"
    },
    {
      "id": "pt.ine.add.PTCONT.384920",
      "street": "R JOSE GOMES FERREIRA",
      "house": "",
      "postcode": "7800-322",
      "city": "BEJA",
      "lon": "-7.872386745229016",
      "lat": "38.0206367311014"
    },
    {
      "id": "pt.ine.add.PTCONT.384921",
      "street": "R JOSE GOMES FERREIRA",
      "house": "",
      "postcode": "7800-322",
      "city": "BEJA",
      "lon": "-7.872386745229016",
      "lat": "38.0206367311014"
    },
    {
      "id": "pt.ine.add.PTCONT.384922",
      "street": "R JOSE GOMES FERREIRA",
      "house": "",
      "postcode": "7800-322",
      "city": "BEJA",
      "lon": "-7.872386745229016",
      "lat": "38.0206367311014"
    },
    {
      "id": "pt.ine.add.PTCONT.397749",
      "street": "R MANUEL FONSECA",
      "house": "",
      "postcode": "7800-323",
      "city": "BEJA",
      "lon": "-7.87268269508902",
      "lat": "38.02075359442558"
    },
    {
      "id": "pt.ine.add.PTCONT.397750",
      "street": "R MANUEL FONSECA",
      "house": "",
      "postcode": "7800-323",
      "city": "BEJA",
      "lon": "-7.87268269508902",
      "lat": "38.02075359442558"
    },
    {
      "id": "pt.ine.add.PTCONT.397751",
      "street": "R MANUEL FONSECA",
      "house": "",
      "postcode": "7800-323",
      "city": "BEJA",
      "lon": "-7.87268269508902",
      "lat": "38.02075359442558"
    },
    {
      "id": "pt.ine.add.PTCONT.397752",
      "street": "R MANUEL FONSECA",
      "house": "",
      "postcode": "7800-323",
      "city": "BEJA",
      "lon": "-7.87268269508902",
      "lat": "38.02075359442558"
    },
    {
      "id": "pt.ine.add.PTCONT.397753",
      "street": "R JOSE GOMES FERREIRA",
      "house": "",
      "postcode": "7800-322",
      "city": "BEJA",
      "lon": "-7.872547043943076",
      "lat": "38.02039383691993"
    },
    {
      "id": "pt.ine.add.PTCONT.397754",
      "street": "R JOSE GOMES FERREIRA",
      "house": "",
      "postcode": "7800-322",
      "city": "BEJA",
      "lon": "-7.872547043943076",
      "lat": "38.02039383691993"
    },
    {
      "id": "pt.ine.add.PTCONT.397755",
      "street": "R JOSE GOMES FERREIRA",
      "house": "",
      "postcode": "7800-322",
      "city": "BEJA",
      "lon": "-7.872547043943076",
      "lat": "38.02039383691993"
    },
    {
      "id": "pt.ine.add.PTCONT.397756",
      "street": "R ANTONIO SERGIO",
      "house": "13",
      "postcode": "7800-278",
      "city": "BEJA",
      "lon": "-7.872547043943076",
      "lat": "38.02039383691993"
    },
    {
      "id": "pt.ine.add.PTCONT.397757",
      "street": "R JOSE GOMES FERREIRA",
      "house": "",
      "postcode": "7800-322",
      "city": "BEJA",
      "lon": "-7.872547043943076",
      "lat": "38.02039383691993"
    },
    {
      "id": "pt.ine.add.PTCONT.397758",
      "street": "R JOSE GOMES FERREIRA",
      "house": "",
      "postcode": "7800-322",
      "city": "BEJA",
      "lon": "-7.872547043943076",
      "lat": "38.02039383691993"
    },
    {
      "id": "pt.ine.add.PTCONT.398097",
      "street": "R MANUEL FONSECA",
      "house": "",
      "postcode": "7800-323",
      "city": "BEJA",
      "lon": "-7.87268269508902",
      "lat": "38.02075359442558"
    },
    {
      "id": "pt.ine.add.PTCONT.398133",
      "street": "R MANUEL FONSECA",
      "house": "",
      "postcode": "7800-323",
      "city": "BEJA",
      "lon": "-7.87268269508902",
      "lat": "38.02075359442558"
    },
    {
      "id": "pt.ine.add.PTCONT.405332",
      "street": "R MANUEL DA FONSECA",
      "house": "",
      "postcode": "7800-323",
      "city": "BEJA",
      "lon": "-7.87257275958366",
      "lat": "38.020912521644625"
    },
    {
      "id": "pt.ine.add.PTCONT.405333",
      "street": "R MANUEL DA FONSECA",
      "house": "",
      "postcode": "7800-323",
      "city": "BEJA",
      "lon": "-7.87257275958366",
      "lat": "38.020912521644625"
    },
    {
      "id": "pt.ine.add.PTCONT.405334",
      "street": "R MANUEL DA FONSECA",
      "house": "",
      "postcode": "7800-323",
      "city": "BEJA",
      "lon": "-7.87257275958366",
      "lat": "38.020912521644625"
    },
    {
      "id": "pt.ine.add.PTCONT.405335",
      "street": "R MANUEL DA FONSECA",
      "house": "",
      "postcode": "7800-323",
      "city": "BEJA",
      "lon": "-7.87257275958366",
      "lat": "38.020912521644625"
    },
    {
      "id": "pt.ine.add.PTCONT.405528",
      "street": "R MANUEL DA FONSECA",
      "house": "",
      "postcode": "7800-323",
      "city": "BEJA",
      "lon": "-7.87257275958366",
      "lat": "38.020912521644625"
    },
    {
      "id": "pt.ine.add.PTCONT.406715",
      "street": "R MANUEL FONSECA",
      "house": "2",
      "postcode": "7800-323",
      "city": "BEJA",
      "lon": "-7.872831636583532",
      "lat": "38.02050166546492"
    },
    {
      "id": "pt.ine.add.PTCONT.406716",
      "street": "R MANUEL FONSECA",
      "house": "2",
      "postcode": "7800-323",
      "city": "BEJA",
      "lon": "-7.872831636583532",
      "lat": "38.02050166546492"
    },
    {
      "id": "pt.ine.add.PTCONT.406717",
      "street": "R MANUEL FONSECA",
      "house": "2",
      "postcode": "7800-323",
      "city": "BEJA",
      "lon": "-7.872831636583532",
      "lat": "38.02050166546492"
    },
    {
      "id": "pt.ine.add.PTCONT.406718",
      "street": "R MANUEL FONSECA",
      "house": "2",
      "postcode": "7800-323",
      "city": "BEJA",
      "lon": "-7.872831636583532",
      "lat": "38.02050166546492"
    },
    {
      "id": "pt.ine.add.PTCONT.406719",
      "street": "R MANUEL FONSECA",
      "house": "2",
      "postcode": "7800-323",
      "city": "BEJA",
      "lon": "-7.872831636583532",
      "lat": "38.02050166546492"
    },
    {
      "id": "pt.ine.add.PTCONT.406743",
      "street": "R MANUEL FONSECA",
      "house": "3",
      "postcode": "7800-323",
      "city": "BEJA",
      "lon": "-7.872831636583532",
      "lat": "38.02050166546492"
    },
    {
      "id": "pt.ine.add.PTCONT.409944",
      "street": "R JOSE GOMES FERREIRA",
      "house": "3",
      "postcode": "7800-322",
      "city": "BEJA",
      "lon": "-7.872466878763764",
      "lat": "38.020519788624725"
    },
    {
      "id": "pt.ine.add.PTCONT.409945",
      "street": "R JOSE GOMES FERREIRA",
      "house": "3",
      "postcode": "7800-322",
      "city": "BEJA",
      "lon": "-7.872466878763764",
      "lat": "38.020519788624725"
    },
    {
      "id": "pt.ine.add.PTCONT.409946",
      "street": "R JOSE GOMES FERREIRA",
      "house": "3",
      "postcode": "7800-322",
      "city": "BEJA",
      "lon": "-7.872466878763764",
      "lat": "38.020519788624725"
    },
    {
      "id": "pt.ine.add.PTCONT.410360",
      "street": "R JOSE GOMES FERREIRA",
      "house": "3",
      "postcode": "7800-322",
      "city": "BEJA",
      "lon": "-7.872466878763764",
      "lat": "38.020519788624725"
    },
    {
      "id": "pt.ine.add.PTCONT.410382",
      "street": "R JOSE GOMES FERREIRA",
      "house": "3",
      "postcode": "7800-322",
      "city": "BEJA",
      "lon": "-7.872466878763764",
      "lat": "38.020519788624725"
    },
    {
      "id": "pt.ine.add.PTCONT.433253",
      "street": "R JOSE GOMES FERREIRA",
      "house": "9",
      "postcode": "7800-322",
      "city": "BEJA",
      "lon": "-7.872424327018813",
      "lat": "38.02102030354789"
    },
    {
      "id": "pt.ine.add.PTCONT.433254",
      "street": "R JOSE GOMES FERREIRA",
      "house": "9",
      "postcode": "7800-322",
      "city": "BEJA",
      "lon": "-7.872424327018813",
      "lat": "38.02102030354789"
    },
    {
      "id": "pt.ine.add.PTCONT.433255",
      "street": "R JOSE GOMES FERREIRA",
      "house": "9",
      "postcode": "7800-322",
      "city": "BEJA",
      "lon": "-7.872424327018813",
      "lat": "38.02102030354789"
    },
    {
      "id": "pt.ine.add.PTCONT.433256",
      "street": "R JOSE GOMES FERREIRA",
      "house": "9",
      "postcode": "7800-322",
      "city": "BEJA",
      "lon": "-7.872424327018813",
      "lat": "38.02102030354789"
    },
    {
      "id": "pt.ine.add.PTCONT.433257",
      "street": "R JOSE GOMES FERREIRA",
      "house": "9",
      "postcode": "7800-322",
      "city": "BEJA",
      "lon": "-7.872424327018813",
      "lat": "38.02102030354789"
    },
    {
      "id": "pt.ine.add.PTCONT.433696",
      "street": "R JOSE GOMES FERREIRA",
      "house": "9",
      "postcode": "7800-322",
      "city": "BEJA",
      "lon": "-7.872424327018813",
      "lat": "38.02102030354789"
    },
    {
      "id": "pt.ine.add.PTCONT.437315",
      "street": "R JOSE GOMES FERREIRA",
      "house": "7",
      "postcode": "7800-322",
      "city": "BEJA",
      "lon": "-7.872277043635776",
      "lat": "38.02080375516938"
    },
    {
      "id": "pt.ine.add.PTCONT.437316",
      "street": "R JOSE GOMES FERREIRA",
      "house": "7",
      "postcode": "7800-322",
      "city": "BEJA",
      "lon": "-7.872277043635776",
      "lat": "38.02080375516938"
    },
    {
      "id": "pt.ine.add.PTCONT.437317",
      "street": "R JOSE GOMES FERREIRA",
      "house": "7",
      "postcode": "7800-322",
      "city": "BEJA",
      "lon": "-7.872277043635776",
      "lat": "38.02080375516938"
    },
    {
      "id": "pt.ine.add.PTCONT.437318",
      "street": "R JOSE GOMES FERREIRA",
      "house": "7",
      "postcode": "7800-322",
      "city": "BEJA",
      "lon": "-7.872277043635776",
      "lat": "38.02080375516938"
    },
    {
      "id": "pt.ine.add.PTCONT.437319",
      "street": "R JOSE GOMES FERREIRA",
      "house": "7",
      "postcode": "7800-322",
      "city": "BEJA",
      "lon": "-7.872277043635776",
      "lat": "38.02080375516938"
    },
    {
      "id": "pt.ine.add.PTCONT.437320",
      "street": "R JOSE GOMES FERREIRA",
      "house": "7",
      "postcode": "7800-322",
      "city": "BEJA",
      "lon": "-7.872277043635776",
      "lat": "38.02080375516938"
    },
    {
      "id": "pt.ine.add.PTCONT.451229",
      "street": "R JOSE GOMES FERREIRA",
      "house": "",
      "postcode": "7800-322",
      "city": "BEJA",
      "lon": "-7.872208297918244",
      "lat": "38.02092072277812"
    },
    {
      "id": "pt.ine.add.PTCONT.451230",
      "street": "R JOSE GOMES FERREIRA",
      "house": "",
      "postcode": "7800-322",
      "city": "BEJA",
      "lon": "-7.872208297918244",
      "lat": "38.02092072277812"
    },
    {
      "id": "pt.ine.add.PTCONT.451231",
      "street": "R JOSE GOMES FERREIRA",
      "house": "",
      "postcode": "7800-322",
      "city": "BEJA",
      "lon": "-7.872208297918244",
      "lat": "38.02092072277812"
    },
    {
      "id": "pt.ine.add.PTCONT.451232",
      "street": "R JOSE GOMES FERREIRA",
      "house": "",
      "postcode": "7800-322",
      "city": "BEJA",
      "lon": "-7.872208297918244",
      "lat": "38.02092072277812"
    },
    {
      "id": "pt.ine.add.PTCONT.451233",
      "street": "R JOSE GOMES FERREIRA",
      "house": "",
      "postcode": "7800-322",
      "city": "BEJA",
      "lon": "-7.872208297918244",
      "lat": "38.02092072277812"
    },
    {
      "id": "pt.ine.add.PTCONT.451234",
      "street": "R JOSE GOMES FERREIRA",
      "house": "",
      "postcode": "7800-322",
      "city": "BEJA",
      "lon": "-7.872208297918244",
      "lat": "38.02092072277812"
    }
  ]
}