{
  "data": {
    "distrito": "Aveiro",
    "concelho": "Sever do Vouga",
    "freguesia": "Talhadas",
    "OBJECTID": 317,
    "BGRI2021": "01170800141",
    "DT21": "01",
    "DTMN21": "0117",
    "DTMNFR21": "011708",
    "DTMNFRSEC21": "011708001",
    "SECNUM21": "001",
    "SSNUM21": "41",
    "SECSSNUM21": "00141",
    "OBJECTID_1": 11011,
    "DT": "01",
    "CC": "17",
    "fr": "08",
    "SEC": "001",
    "SS": "41"
  },
  "addresses": [
    {
      "id": "pt.ine.add.PTCONT.323345",
      "street": "R S SALVADOR",
      "house": "",
      "postcode": "3740-405",
      "city": "TALHADAS",
      "lon": "-8.299909419078988",
      "lat": "40.67286674088049"
    },
    {
      "id": "pt.ine.add.PTCONT.17935",
      "street": "R S SALVADOR",
      "house": "",
      "postcode": "3740-405",
      "city": "TALHADAS",
      "lon": "-8.300947376354305",
      "lat": "40.671730588721424"
    },
    {
      "id": "pt.ine.add.PTCONT.34305",
      "street": "R CARVALHO",
      "house": "",
      "postcode": "3740-405",
      "city": "TALHADAS",
      "lon": "-8.300560664006783",
      "lat": "40.67316296792751"
    },
    {
      "id": "pt.ine.add.PTCONT.99174",
      "street": "R LADEIRA",
      "house": "",
      "postcode": "3740-405",
      "city": "TALHADAS",
      "lon": "-8.30077396237371",
      "lat": "40.67332475094117"
    },
    {
      "id": "pt.ine.add.PTCONT.107127",
      "street": "R CAPELA",
      "house": "",
      "postcode": "3740-405",
      "city": "TALHADAS",
      "lon": "-8.301372382258146",
      "lat": "40.67142379524446"
    },
    {
      "id": "pt.ine.add.PTCONT.109793",
      "street": "R LADEIRA",
      "house": "",
      "postcode": "3740-405",
      "city": "TALHADAS",
      "lon": "-8.299875934019045",
      "lat": "40.673668246860316"
    },
    {
      "id": "pt.ine.add.PTCONT.146892",
      "street": "R LADEIRA",
      "house": "",
      "postcode": "3740-405",
      "city": "TALHADAS",
      "lon": "-8.299981640110902",
      "lat": "40.67337092447352"
    },
    {
      "id": "pt.ine.add.PTCONT.219270",
      "street": "R LADEIRA",
      "house": "",
      "postcode": "3740-405",
      "city": "TALHADAS",
      "lon": "-8.300192734787318",
      "lat": "40.67265020782886"
    },
    {
      "id": "pt.ine.add.PTCONT.237028",
      "street": "R S SALVADOR",
      "house": "",
      "postcode": "3740-405",
      "city": "TALHADAS",
      "lon": "-8.301007189475119",
      "lat": "40.672000656075674"
    },
    {
      "id": "pt.ine.add.PTCONT.276040",
      "street": "R CARVALHO",
      "house": "",
      "postcode": "3740-405",
      "city": "TALHADAS",
      "lon": "-8.300465482296921",
      "lat": "40.67293797737715"
    }
  ]
}