{
  "data": {
    "distrito": "Beja",
    "concelho": "Odemira",
    "freguesia": "Relíquias",
    "OBJECTID": 1257,
    "BGRI2021": "02110200118",
    "DT21": "02",
    "DTMN21": "0211",
    "DTMNFR21": "021102",
    "DTMNFRSEC21": "021102001",
    "SECNUM21": "001",
    "SSNUM21": "18",
    "SECSSNUM21": "00118",
    "OBJECTID_1": 17683,
    "DT": "02",
    "CC": "11",
    "fr": "02",
    "SEC": "001",
    "SS": "18"
  },
  "addresses": [
    {
      "id": "pt.ine.add.PTCONT.353863",
      "street": "MTE DA NESPEREIRA",
      "house": "",
      "postcode": "7630-373",
      "city": "RELÍQUIAS",
      "lon": "-8.580944683975453",
      "lat": "37.68372813391894"
    },
    {
      "id": "pt.ine.add.PTCONT.358828",
      "street": "MTE MESA DA CHAIÇA",
      "house": "",
      "postcode": "7630-402",
      "city": "RELÍQUIAS",
      "lon": "-8.567198172593484",
      "lat": "37.684572388411446"
    },
    {
      "id": "pt.ine.add.PTCONT.371681",
      "street": "QTA DAS FIGUEIRAS",
      "house": "",
      "postcode": "7630-394",
      "city": "RELÍQUIAS",
      "lon": "-8.552071425309212",
      "lat": "37.69606041772336"
    },
    {
      "id": "pt.ine.add.PTCONT.374171",
      "street": "PORTELA DOS CABAÇOS",
      "house": "",
      "postcode": "7630-373",
      "city": "RELÍQUIAS",
      "lon": "-8.58389029536038",
      "lat": "37.67778852004092"
    },
    {
      "id": "pt.ine.add.PTCONT.376656",
      "street": "QTA DA RIBEIRA DO SALTO DAS FIGUEIRAS",
      "house": "",
      "postcode": "7630-394",
      "city": "RELÍQUIAS",
      "lon": "-8.551719631862667",
      "lat": "37.69600760890285"
    },
    {
      "id": "pt.ine.add.PTCONT.377424",
      "street": "PORTELA DOS CABAÇOS",
      "house": "",
      "postcode": "7630-373",
      "city": "RELÍQUIAS",
      "lon": "-8.583920703968632",
      "lat": "37.677193762395646"
    },
    {
      "id": "pt.ine.add.PTCONT.379643",
      "street": "PORTELA DOS CABAÇOS",
      "house": "",
      "postcode": "7630-373",
      "city": "RELÍQUIAS",
      "lon": "-8.583455678148047",
      "lat": "37.677150490399896"
    },
    {
      "id": "pt.ine.add.PTCONT.380591",
      "street": "MTE LABARRITO",
      "house": "",
      "postcode": "7630-373",
      "city": "RELÍQUIAS",
      "lon": "-8.577560931360694",
      "lat": "37.68092089463126"
    },
    {
      "id": "pt.ine.add.PTCONT.390978",
      "street": "MTE LABARRITO",
      "house": "",
      "postcode": "7630-373",
      "city": "RELÍQUIAS",
      "lon": "-8.577775778108464",
      "lat": "37.680829987611524"
    },
    {
      "id": "pt.ine.add.PTCONT.393462",
      "street": "",
      "house": "",
      "postcode": "7630-402",
      "city": "RELÍQUIAS",
      "lon": "-8.562648141639476",
      "lat": "37.68388629088502"
    },
    {
      "id": "pt.ine.add.PTCONT.401541",
      "street": "MTE CHAIÇA",
      "house": "",
      "postcode": "7630-402",
      "city": "RELÍQUIAS",
      "lon": "-8.572289079099997",
      "lat": "37.68660775346139"
    },
    {
      "id": "pt.ine.add.PTCONT.403203",
      "street": "PORTELA DOS CABAÇOS",
      "house": "",
      "postcode": "7630-373",
      "city": "RELÍQUIAS",
      "lon": "-8.584033349615526",
      "lat": "37.67707620541895"
    },
    {
      "id": "pt.ine.add.PTCONT.429755",
      "street": "MTE CHAICA CABAÇOS",
      "house": "",
      "postcode": "7630-402",
      "city": "RELÍQUIAS",
      "lon": "-8.576722387103377",
      "lat": "37.680978110083345"
    },
    {
      "id": "pt.ine.add.PTCONT.433871",
      "street": "MTE BRANCO",
      "house": "",
      "postcode": "7630-373",
      "city": "RELÍQUIAS",
      "lon": "-8.565106868444788",
      "lat": "37.69147249441014"
    },
    {
      "id": "pt.ine.add.PTCONT.439022",
      "street": "MTE DA NESPEREIRA",
      "house": "",
      "postcode": "7630-373",
      "city": "RELÍQUIAS",
      "lon": "-8.581656059131525",
      "lat": "37.68325692548372"
    },
    {
      "id": "pt.ine.add.PTCONT.444447",
      "street": "PORTELA DOS CABAÇOS",
      "house": "",
      "postcode": "7630-373",
      "city": "RELÍQUIAS",
      "lon": "-8.583911767123478",
      "lat": "37.677590224172036"
    },
    {
      "id": "pt.ine.add.PTCONT.449486",
      "street": "",
      "house": "",
      "postcode": "7630-402",
      "city": "RELÍQUIAS",
      "lon": "-8.562942474766594",
      "lat": "37.68381314076209"
    },
    {
      "id": "pt.ine.add.PTCONT.449487",
      "street": "MTE MESA DA CHAIÇA",
      "house": "",
      "postcode": "7630-402",
      "city": "RELÍQUIAS",
      "lon": "-8.569236127967052",
      "lat": "37.686051471713434"
    }
  ]
}