{
  "data": {
    "distrito": "Leiria",
    "concelho": "Alcobaça",
    "freguesia": "União das freguesias de Pataias e Martingança",
    "OBJECTID": 531,
    "BGRI2021": "10012300323",
    "DT21": "10",
    "DTMN21": "1001",
    "DTMNFR21": "100123",
    "DTMNFRSEC21": "100123003",
    "SECNUM21": "003",
    "SSNUM21": "23",
    "SECSSNUM21": "00323",
    "OBJECTID_1": 84674,
    "DT": "10",
    "CC": "01",
    "fr": "23",
    "SEC": "003",
    "SS": "23"
  },
  "addresses": [
    {
      "id": "pt.ine.add.PTCONT.1999062",
      "street": "R FORNO DE TIJOLO",
      "house": "",
      "postcode": "2445-124",
      "city": "PATAIAS",
      "lon": "-8.943544868655865",
      "lat": "39.68169649324322"
    },
    {
      "id": "pt.ine.add.PTCONT.2004272",
      "street": "R 4 DE OUTUBRO",
      "house": "35",
      "postcode": "2445-765",
      "city": "MARTINGANÇA",
      "lon": "-8.945462752557598",
      "lat": "39.67626116147236"
    },
    {
      "id": "pt.ine.add.PTCONT.2016799",
      "street": "R 4 OUTUBRO",
      "house": "",
      "postcode": "2445-124",
      "city": "PATAIAS",
      "lon": "-8.942540391406933",
      "lat": "39.68052364411636"
    },
    {
      "id": "pt.ine.add.PTCONT.2037001",
      "street": "R RIBEIRO PEDRAS",
      "house": "",
      "postcode": "2445-734",
      "city": "MARTINGANÇA",
      "lon": "-8.942818728121903",
      "lat": "39.6794048940429"
    },
    {
      "id": "pt.ine.add.PTCONT.2048099",
      "street": "R RIBEIRO PEDRAS",
      "house": "",
      "postcode": "2445-734",
      "city": "MARTINGANÇA",
      "lon": "-8.942490181794087",
      "lat": "39.67921804730517"
    },
    {
      "id": "pt.ine.add.PTCONT.2076072",
      "street": "R RIBEIRO PEDRAS",
      "house": "",
      "postcode": "2445-734",
      "city": "MARTINGANÇA",
      "lon": "-8.942652719758188",
      "lat": "39.67916287513635"
    },
    {
      "id": "pt.ine.add.PTCONT.2083112",
      "street": "R 4 OUTUBRO",
      "house": "",
      "postcode": "2445-124",
      "city": "PATAIAS",
      "lon": "-8.94292198145498",
      "lat": "39.68125951893903"
    },
    {
      "id": "pt.ine.add.PTCONT.2103360",
      "street": "R RIBEIRO PEDRAS",
      "house": "",
      "postcode": "2445-734",
      "city": "MARTINGANÇA",
      "lon": "-8.943856439683092",
      "lat": "39.67943367984164"
    },
    {
      "id": "pt.ine.add.PTCONT.2146471",
      "street": "R 4 OUTUBRO",
      "house": "",
      "postcode": "2445-124",
      "city": "PATAIAS",
      "lon": "-8.942399478521757",
      "lat": "39.68043456096137"
    },
    {
      "id": "pt.ine.add.PTCONT.2207248",
      "street": "R 4 OUTUBRO",
      "house": "",
      "postcode": "2445-124",
      "city": "PATAIAS",
      "lon": "-8.942327340422146",
      "lat": "39.68024592657499"
    },
    {
      "id": "pt.ine.add.PTCONT.2217057",
      "street": "R 4 DE OUTUBRO",
      "house": "",
      "postcode": "2445-765",
      "city": "MARTINGANÇA",
      "lon": "-8.94263791041913",
      "lat": "39.67889278245324"
    },
    {
      "id": "pt.ine.add.PTCONT.2221422",
      "street": "R RIBEIRO PEDRAS",
      "house": "",
      "postcode": "2445-734",
      "city": "MARTINGANÇA",
      "lon": "-8.943129834524026",
      "lat": "39.679096502338176"
    }
  ]
}