{
  "data": {
    "distrito": "Faro",
    "concelho": "Faro",
    "freguesia": "Montenegro",
    "OBJECTID": 758,
    "BGRI2021": "08050600825",
    "DT21": "08",
    "DTMN21": "0805",
    "DTMNFR21": "080506",
    "DTMNFRSEC21": "080506008",
    "SECNUM21": "008",
    "SSNUM21": "25",
    "SECSSNUM21": "00825",
    "OBJECTID_1": 65985,
    "DT": "08",
    "CC": "05",
    "fr": "06",
    "SEC": "008",
    "SS": "25"
  },
  "addresses": [
    {
      "id": "pt.ine.add.PTCONT.1467529",
      "street": "R CLEMENTE SOUSA E SARRE",
      "house": "37",
      "postcode": "8005-231",
      "city": "FARO",
      "lon": "-7.955620866848406",
      "lat": "37.0360573377591"
    },
    {
      "id": "pt.ine.add.PTCONT.1499056",
      "street": "R MANUEL PAIS",
      "house": "30",
      "postcode": "8005-231",
      "city": "FARO",
      "lon": "-7.955823894331359",
      "lat": "37.035751275524106"
    },
    {
      "id": "pt.ine.add.PTCONT.1513233",
      "street": "R CLEMENTE SOUSA E SARRE",
      "house": "27",
      "postcode": "8005-231",
      "city": "FARO",
      "lon": "-7.955845850099162",
      "lat": "37.0359765772623"
    },
    {
      "id": "pt.ine.add.PTCONT.1537200",
      "street": "R MANUEL PAIS",
      "house": "",
      "postcode": "8005-231",
      "city": "FARO",
      "lon": "-7.9558460176571675",
      "lat": "37.03590449145394"
    },
    {
      "id": "pt.ine.add.PTCONT.1545288",
      "street": "R TOME DA COSTA",
      "house": "33",
      "postcode": "8005-303",
      "city": "FARO",
      "lon": "-7.955508973106592",
      "lat": "37.03584091216021"
    },
    {
      "id": "pt.ine.add.PTCONT.1727283",
      "street": "R CLEMENTE SOUSA E SARRE",
      "house": "36",
      "postcode": "8005-231",
      "city": "FARO",
      "lon": "-7.955519667246561",
      "lat": "37.03607520785508"
    },
    {
      "id": "pt.ine.add.PTCONT.1777923",
      "street": "R MANUEL PAIS MEDINA",
      "house": "31",
      "postcode": "8005-231",
      "city": "FARO",
      "lon": "-7.955824082855883",
      "lat": "37.035670178986614"
    },
    {
      "id": "pt.ine.add.PTCONT.1813434",
      "street": "R MANUEL PAIS",
      "house": "29",
      "postcode": "8005-231",
      "city": "FARO",
      "lon": "-7.955834966456289",
      "lat": "37.03582337812689"
    },
    {
      "id": "pt.ine.add.PTCONT.1833586",
      "street": "R CLEMENTE SOUSA E SARRE",
      "house": "35",
      "postcode": "8005-231",
      "city": "FARO",
      "lon": "-7.955260943092683",
      "lat": "37.036164927920744"
    },
    {
      "id": "pt.ine.add.PTCONT.1841905",
      "street": "R TOME DA COSTA",
      "house": "",
      "postcode": "8005-303",
      "city": "FARO",
      "lon": "-7.955554099761",
      "lat": "37.035768893634774"
    }
  ]
}