{
  "data": {
    "distrito": "Braga",
    "concelho": "Esposende",
    "freguesia": "União das freguesias de Esposende, Marinhas e Gandra",
    "OBJECTID": 341,
    "BGRI2021": "03061800205",
    "DT21": "03",
    "DTMN21": "0306",
    "DTMNFR21": "030618",
    "DTMNFRSEC21": "030618002",
    "SECNUM21": "002",
    "SSNUM21": "05",
    "SECSSNUM21": "00205",
    "OBJECTID_1": 24716,
    "DT": "03",
    "CC": "06",
    "fr": "18",
    "SEC": "002",
    "SS": "05"
  },
  "addresses": [
    {
      "id": "pt.ine.add.PTCONT.468578",
      "street": "R BOMBEIROS",
      "house": "32",
      "postcode": "4740-291",
      "city": "ESPOSENDE",
      "lon": "-8.77852177597317",
      "lat": "41.533390327722365"
    },
    {
      "id": "pt.ine.add.PTCONT.468580",
      "street": "R BOMBEIROS",
      "house": "32",
      "postcode": "4740-291",
      "city": "ESPOSENDE",
      "lon": "-8.77852177597317",
      "lat": "41.533390327722365"
    },
    {
      "id": "pt.ine.add.PTCONT.468581",
      "street": "R BOMBEIROS",
      "house": "32",
      "postcode": "4740-291",
      "city": "ESPOSENDE",
      "lon": "-8.77852177597317",
      "lat": "41.533390327722365"
    },
    {
      "id": "pt.ine.add.PTCONT.468582",
      "street": "R BOMBEIROS",
      "house": "32",
      "postcode": "4740-291",
      "city": "ESPOSENDE",
      "lon": "-8.77852177597317",
      "lat": "41.533390327722365"
    },
    {
      "id": "pt.ine.add.PTCONT.489550",
      "street": "R 25 DE ABRIL",
      "house": "5",
      "postcode": "4740-002",
      "city": "ESPOSENDE",
      "lon": "-8.779026473010902",
      "lat": "41.53473805315238"
    },
    {
      "id": "pt.ine.add.PTCONT.489551",
      "street": "R 25 DE ABRIL",
      "house": "5",
      "postcode": "4740-002",
      "city": "ESPOSENDE",
      "lon": "-8.779026473010902",
      "lat": "41.53473805315238"
    },
    {
      "id": "pt.ine.add.PTCONT.489552",
      "street": "R 25 DE ABRIL",
      "house": "5",
      "postcode": "4740-002",
      "city": "ESPOSENDE",
      "lon": "-8.779026473010902",
      "lat": "41.53473805315238"
    },
    {
      "id": "pt.ine.add.PTCONT.489553",
      "street": "R 25 DE ABRIL",
      "house": "5",
      "postcode": "4740-002",
      "city": "ESPOSENDE",
      "lon": "-8.779026473010902",
      "lat": "41.53473805315238"
    },
    {
      "id": "pt.ine.add.PTCONT.489554",
      "street": "R 25 DE ABRIL",
      "house": "5",
      "postcode": "4740-002",
      "city": "ESPOSENDE",
      "lon": "-8.779026473010902",
      "lat": "41.53473805315238"
    },
    {
      "id": "pt.ine.add.PTCONT.489555",
      "street": "R 25 DE ABRIL",
      "house": "5",
      "postcode": "4740-002",
      "city": "ESPOSENDE",
      "lon": "-8.779026473010902",
      "lat": "41.53473805315238"
    },
    {
      "id": "pt.ine.add.PTCONT.489556",
      "street": "R 25 DE ABRIL",
      "house": "5",
      "postcode": "4740-002",
      "city": "ESPOSENDE",
      "lon": "-8.779026473010902",
      "lat": "41.53473805315238"
    },
    {
      "id": "pt.ine.add.PTCONT.504271",
      "street": "R 25 DE ABRIL",
      "house": "6",
      "postcode": "4740-002",
      "city": "ESPOSENDE",
      "lon": "-8.778929809059997",
      "lat": "41.53465756252268"
    },
    {
      "id": "pt.ine.add.PTCONT.504272",
      "street": "R 25 DE ABRIL",
      "house": "6",
      "postcode": "4740-002",
      "city": "ESPOSENDE",
      "lon": "-8.778929809059997",
      "lat": "41.53465756252268"
    },
    {
      "id": "pt.ine.add.PTCONT.504273",
      "street": "R 25 DE ABRIL",
      "house": "6",
      "postcode": "4740-002",
      "city": "ESPOSENDE",
      "lon": "-8.778929809059997",
      "lat": "41.53465756252268"
    },
    {
      "id": "pt.ine.add.PTCONT.504274",
      "street": "R 25 DE ABRIL",
      "house": "6",
      "postcode": "4740-002",
      "city": "ESPOSENDE",
      "lon": "-8.778929809059997",
      "lat": "41.53465756252268"
    },
    {
      "id": "pt.ine.add.PTCONT.504275",
      "street": "R 25 DE ABRIL",
      "house": "6",
      "postcode": "4740-002",
      "city": "ESPOSENDE",
      "lon": "-8.778929809059997",
      "lat": "41.53465756252268"
    },
    {
      "id": "pt.ine.add.PTCONT.504276",
      "street": "R 25 ABRIL",
      "house": "ENT 6",
      "postcode": "4740-002",
      "city": "ESPOSENDE",
      "lon": "-8.778929809059997",
      "lat": "41.53465756252268"
    },
    {
      "id": "pt.ine.add.PTCONT.507089",
      "street": "R BOMBEIROS",
      "house": "1",
      "postcode": "4740-291",
      "city": "ESPOSENDE",
      "lon": "-8.77934497498575",
      "lat": "41.534232055021235"
    },
    {
      "id": "pt.ine.add.PTCONT.507090",
      "street": "R BOMBEIROS",
      "house": "1",
      "postcode": "4740-291",
      "city": "ESPOSENDE",
      "lon": "-8.77934497498575",
      "lat": "41.534232055021235"
    },
    {
      "id": "pt.ine.add.PTCONT.507091",
      "street": "R BOMBEIROS",
      "house": "1",
      "postcode": "4740-291",
      "city": "ESPOSENDE",
      "lon": "-8.77934497498575",
      "lat": "41.534232055021235"
    },
    {
      "id": "pt.ine.add.PTCONT.507092",
      "street": "R BOMBEIROS",
      "house": "1",
      "postcode": "4740-291",
      "city": "ESPOSENDE",
      "lon": "-8.77934497498575",
      "lat": "41.534232055021235"
    },
    {
      "id": "pt.ine.add.PTCONT.532584",
      "street": "R SOLEDADE ROCHA GONÇALVES",
      "house": "1A",
      "postcode": "4740-568",
      "city": "ESPOSENDE",
      "lon": "-8.778925331182235",
      "lat": "41.53420740132116"
    },
    {
      "id": "pt.ine.add.PTCONT.532585",
      "street": "R SOLEDADE ROCHA GONÇALVES",
      "house": "1A",
      "postcode": "4740-568",
      "city": "ESPOSENDE",
      "lon": "-8.778925331182235",
      "lat": "41.53420740132116"
    },
    {
      "id": "pt.ine.add.PTCONT.555891",
      "street": "R S JOSE",
      "house": "1",
      "postcode": "4740-566",
      "city": "ESPOSENDE",
      "lon": "-8.778284909541451",
      "lat": "41.53367077246667"
    },
    {
      "id": "pt.ine.add.PTCONT.555892",
      "street": "R 25 ABRIL",
      "house": "1",
      "postcode": "4740-002",
      "city": "ESPOSENDE",
      "lon": "-8.778284909541451",
      "lat": "41.53367077246667"
    },
    {
      "id": "pt.ine.add.PTCONT.555893",
      "street": "R S JOSE",
      "house": "1",
      "postcode": "4740-566",
      "city": "ESPOSENDE",
      "lon": "-8.778284909541451",
      "lat": "41.53367077246667"
    },
    {
      "id": "pt.ine.add.PTCONT.555894",
      "street": "R S JOSE",
      "house": "1",
      "postcode": "4740-566",
      "city": "ESPOSENDE",
      "lon": "-8.778284909541451",
      "lat": "41.53367077246667"
    },
    {
      "id": "pt.ine.add.PTCONT.555895",
      "street": "R S JOSE",
      "house": "1",
      "postcode": "4740-566",
      "city": "ESPOSENDE",
      "lon": "-8.778284909541451",
      "lat": "41.53367077246667"
    },
    {
      "id": "pt.ine.add.PTCONT.560994",
      "street": "R SOLEDADE ROCHA GONCALVES",
      "house": "9",
      "postcode": "4740-568",
      "city": "ESPOSENDE",
      "lon": "-8.778830011301888",
      "lat": "41.534261958961146"
    },
    {
      "id": "pt.ine.add.PTCONT.560995",
      "street": "R SOLEDADE ROCHA GONCALVES",
      "house": "9",
      "postcode": "4740-568",
      "city": "ESPOSENDE",
      "lon": "-8.778830011301888",
      "lat": "41.534261958961146"
    },
    {
      "id": "pt.ine.add.PTCONT.560996",
      "street": "R BOMBEIROS",
      "house": "2",
      "postcode": "4740-291",
      "city": "ESPOSENDE",
      "lon": "-8.77950253561604",
      "lat": "41.53441124401978"
    },
    {
      "id": "pt.ine.add.PTCONT.560997",
      "street": "R BOMBEIROS",
      "house": "2",
      "postcode": "4740-291",
      "city": "ESPOSENDE",
      "lon": "-8.77950253561604",
      "lat": "41.53441124401978"
    },
    {
      "id": "pt.ine.add.PTCONT.560998",
      "street": "R BOMBEIROS",
      "house": "2",
      "postcode": "4740-291",
      "city": "ESPOSENDE",
      "lon": "-8.77950253561604",
      "lat": "41.53441124401978"
    },
    {
      "id": "pt.ine.add.PTCONT.560999",
      "street": "R BOMBEIROS",
      "house": "2",
      "postcode": "4740-291",
      "city": "ESPOSENDE",
      "lon": "-8.77950253561604",
      "lat": "41.53441124401978"
    },
    {
      "id": "pt.ine.add.PTCONT.561000",
      "street": "R BOMBEIROS",
      "house": "2",
      "postcode": "4740-291",
      "city": "ESPOSENDE",
      "lon": "-8.77950253561604",
      "lat": "41.53441124401978"
    },
    {
      "id": "pt.ine.add.PTCONT.561016",
      "street": "R BOMBEIROS",
      "house": "9",
      "postcode": "4740-291",
      "city": "ESPOSENDE",
      "lon": "-8.77950253561604",
      "lat": "41.53441124401978"
    },
    {
      "id": "pt.ine.add.PTCONT.562474",
      "street": "R BOMBEIROS",
      "house": "9",
      "postcode": "4740-291",
      "city": "ESPOSENDE",
      "lon": "-8.778830011301888",
      "lat": "41.534261958961146"
    },
    {
      "id": "pt.ine.add.PTCONT.563786",
      "street": "PC BRIG CUSTODIO CESAR FARIA FREIRE ANDRADE",
      "house": "8",
      "postcode": "4740-570",
      "city": "ESPOSENDE",
      "lon": "-8.777809295618729",
      "lat": "41.53283609306947"
    },
    {
      "id": "pt.ine.add.PTCONT.563787",
      "street": "PC BRIG CUSTODIO CESAR FARIA FREIRE ANDRADE",
      "house": "8",
      "postcode": "4740-570",
      "city": "ESPOSENDE",
      "lon": "-8.777809295618729",
      "lat": "41.53283609306947"
    },
    {
      "id": "pt.ine.add.PTCONT.563788",
      "street": "PC BRIG CUSTODIO CESAR FARIA FREIRE ANDRADE",
      "house": "8",
      "postcode": "4740-570",
      "city": "ESPOSENDE",
      "lon": "-8.777809295618729",
      "lat": "41.53283609306947"
    },
    {
      "id": "pt.ine.add.PTCONT.563789",
      "street": "AV VALENTIM RIBEIRO",
      "house": "8",
      "postcode": "4740-208",
      "city": "ESPOSENDE",
      "lon": "-8.777809295618729",
      "lat": "41.53283609306947"
    },
    {
      "id": "pt.ine.add.PTCONT.565188",
      "street": "PC BRIG CUSTODIO CESAR FARIA FREIRE ANDRADE",
      "house": "",
      "postcode": "4740-570",
      "city": "ESPOSENDE",
      "lon": "-8.777809295618729",
      "lat": "41.53283609306947"
    },
    {
      "id": "pt.ine.add.PTCONT.565529",
      "street": "PC BRIG CUSTODIO CESAR FARIA FREIRE ANDRADE",
      "house": "8",
      "postcode": "4740-570",
      "city": "ESPOSENDE",
      "lon": "-8.777809295618729",
      "lat": "41.53283609306947"
    },
    {
      "id": "pt.ine.add.PTCONT.598720",
      "street": "R BOMBEIROS",
      "house": "28",
      "postcode": "4740-291",
      "city": "ESPOSENDE",
      "lon": "-8.778533131469018",
      "lat": "41.533327237888344"
    },
    {
      "id": "pt.ine.add.PTCONT.598721",
      "street": "R BOMBEIROS",
      "house": "28",
      "postcode": "4740-291",
      "city": "ESPOSENDE",
      "lon": "-8.778533131469018",
      "lat": "41.533327237888344"
    },
    {
      "id": "pt.ine.add.PTCONT.598804",
      "street": "R BOMBEIROS",
      "house": "28",
      "postcode": "4740-291",
      "city": "ESPOSENDE",
      "lon": "-8.778533131469018",
      "lat": "41.533327237888344"
    },
    {
      "id": "pt.ine.add.PTCONT.600509",
      "street": "R BOMBEIROS",
      "house": "28",
      "postcode": "4740-291",
      "city": "ESPOSENDE",
      "lon": "-8.778533131469018",
      "lat": "41.533327237888344"
    },
    {
      "id": "pt.ine.add.PTCONT.603278",
      "street": "R 25 DE ABRIL",
      "house": "33",
      "postcode": "4740-002",
      "city": "ESPOSENDE",
      "lon": "-8.778116534810513",
      "lat": "41.5336086908958"
    },
    {
      "id": "pt.ine.add.PTCONT.603279",
      "street": "R 25 DE ABRIL",
      "house": "33",
      "postcode": "4740-002",
      "city": "ESPOSENDE",
      "lon": "-8.778116534810513",
      "lat": "41.5336086908958"
    },
    {
      "id": "pt.ine.add.PTCONT.603280",
      "street": "R 25 DE ABRIL",
      "house": "33",
      "postcode": "4740-002",
      "city": "ESPOSENDE",
      "lon": "-8.778116534810513",
      "lat": "41.5336086908958"
    },
    {
      "id": "pt.ine.add.PTCONT.603281",
      "street": "R 25 DE ABRIL",
      "house": "33",
      "postcode": "4740-002",
      "city": "ESPOSENDE",
      "lon": "-8.778116534810513",
      "lat": "41.5336086908958"
    },
    {
      "id": "pt.ine.add.PTCONT.603282",
      "street": "R 25 DE ABRIL",
      "house": "33",
      "postcode": "4740-002",
      "city": "ESPOSENDE",
      "lon": "-8.778116534810513",
      "lat": "41.5336086908958"
    },
    {
      "id": "pt.ine.add.PTCONT.603283",
      "street": "R 25 DE ABRIL",
      "house": "33",
      "postcode": "4740-002",
      "city": "ESPOSENDE",
      "lon": "-8.778116534810513",
      "lat": "41.5336086908958"
    },
    {
      "id": "pt.ine.add.PTCONT.620994",
      "street": "R BOMBEIROS",
      "house": "14",
      "postcode": "4740-291",
      "city": "ESPOSENDE",
      "lon": "-8.778230182564501",
      "lat": "41.53298679610173"
    },
    {
      "id": "pt.ine.add.PTCONT.620995",
      "street": "R BOMBEIROS",
      "house": "14",
      "postcode": "4740-291",
      "city": "ESPOSENDE",
      "lon": "-8.778230182564501",
      "lat": "41.53298679610173"
    },
    {
      "id": "pt.ine.add.PTCONT.620996",
      "street": "R BOMBEIROS",
      "house": "14",
      "postcode": "4740-291",
      "city": "ESPOSENDE",
      "lon": "-8.778230182564501",
      "lat": "41.53298679610173"
    },
    {
      "id": "pt.ine.add.PTCONT.620997",
      "street": "R BOMBEIROS",
      "house": "14",
      "postcode": "4740-291",
      "city": "ESPOSENDE",
      "lon": "-8.778230182564501",
      "lat": "41.53298679610173"
    },
    {
      "id": "pt.ine.add.PTCONT.620998",
      "street": "R BOMBEIROS",
      "house": "14",
      "postcode": "4740-291",
      "city": "ESPOSENDE",
      "lon": "-8.778230182564501",
      "lat": "41.53298679610173"
    },
    {
      "id": "pt.ine.add.PTCONT.620999",
      "street": "R BOMBEIROS",
      "house": "14",
      "postcode": "4740-291",
      "city": "ESPOSENDE",
      "lon": "-8.778230182564501",
      "lat": "41.53298679610173"
    },
    {
      "id": "pt.ine.add.PTCONT.621025",
      "street": "R BOMBEIROS",
      "house": "14",
      "postcode": "4740-291",
      "city": "ESPOSENDE",
      "lon": "-8.778230182564501",
      "lat": "41.53298679610173"
    },
    {
      "id": "pt.ine.add.PTCONT.643368",
      "street": "R BOMBEIROS",
      "house": "2",
      "postcode": "4740-291",
      "city": "ESPOSENDE",
      "lon": "-8.778024164823007",
      "lat": "41.532753854689936"
    },
    {
      "id": "pt.ine.add.PTCONT.643369",
      "street": "R BOMBEIROS",
      "house": "2",
      "postcode": "4740-291",
      "city": "ESPOSENDE",
      "lon": "-8.778024164823007",
      "lat": "41.532753854689936"
    },
    {
      "id": "pt.ine.add.PTCONT.643370",
      "street": "R BOMBEIROS",
      "house": "2",
      "postcode": "4740-291",
      "city": "ESPOSENDE",
      "lon": "-8.778024164823007",
      "lat": "41.532753854689936"
    },
    {
      "id": "pt.ine.add.PTCONT.643371",
      "street": "R BOMBEIROS",
      "house": "2",
      "postcode": "4740-291",
      "city": "ESPOSENDE",
      "lon": "-8.778024164823007",
      "lat": "41.532753854689936"
    },
    {
      "id": "pt.ine.add.PTCONT.643372",
      "street": "R BOMBEIROS",
      "house": "2",
      "postcode": "4740-291",
      "city": "ESPOSENDE",
      "lon": "-8.778024164823007",
      "lat": "41.532753854689936"
    },
    {
      "id": "pt.ine.add.PTCONT.643373",
      "street": "R BOMBEIROS",
      "house": "2",
      "postcode": "4740-291",
      "city": "ESPOSENDE",
      "lon": "-8.778024164823007",
      "lat": "41.532753854689936"
    },
    {
      "id": "pt.ine.add.PTCONT.643374",
      "street": "R BOMBEIROS",
      "house": "2",
      "postcode": "4740-291",
      "city": "ESPOSENDE",
      "lon": "-8.778024164823007",
      "lat": "41.532753854689936"
    },
    {
      "id": "pt.ine.add.PTCONT.666279",
      "street": "R 25-ABR",
      "house": "17",
      "postcode": "4740-002",
      "city": "ESPOSENDE",
      "lon": "-8.777788728841925",
      "lat": "41.5331783500891"
    },
    {
      "id": "pt.ine.add.PTCONT.666280",
      "street": "R 25-ABR",
      "house": "17",
      "postcode": "4740-002",
      "city": "ESPOSENDE",
      "lon": "-8.777788728841925",
      "lat": "41.5331783500891"
    },
    {
      "id": "pt.ine.add.PTCONT.666281",
      "street": "R 25-ABR",
      "house": "17",
      "postcode": "4740-002",
      "city": "ESPOSENDE",
      "lon": "-8.777788728841925",
      "lat": "41.5331783500891"
    },
    {
      "id": "pt.ine.add.PTCONT.666282",
      "street": "R 25-ABR",
      "house": "17",
      "postcode": "4740-002",
      "city": "ESPOSENDE",
      "lon": "-8.777788728841925",
      "lat": "41.5331783500891"
    },
    {
      "id": "pt.ine.add.PTCONT.666283",
      "street": "R 25 ABRIL",
      "house": "17",
      "postcode": "4740-002",
      "city": "ESPOSENDE",
      "lon": "-8.777788728841925",
      "lat": "41.5331783500891"
    },
    {
      "id": "pt.ine.add.PTCONT.666284",
      "street": "R 25-ABR",
      "house": "17",
      "postcode": "4740-002",
      "city": "ESPOSENDE",
      "lon": "-8.777788728841925",
      "lat": "41.5331783500891"
    },
    {
      "id": "pt.ine.add.PTCONT.666285",
      "street": "R 25-ABR",
      "house": "17",
      "postcode": "4740-002",
      "city": "ESPOSENDE",
      "lon": "-8.777788728841925",
      "lat": "41.5331783500891"
    },
    {
      "id": "pt.ine.add.PTCONT.666286",
      "street": "R 25 ABRIL",
      "house": "17",
      "postcode": "4740-002",
      "city": "ESPOSENDE",
      "lon": "-8.777788728841925",
      "lat": "41.5331783500891"
    },
    {
      "id": "pt.ine.add.PTCONT.666287",
      "street": "R 25 ABRIL",
      "house": "17",
      "postcode": "4740-002",
      "city": "ESPOSENDE",
      "lon": "-8.777788728841925",
      "lat": "41.5331783500891"
    },
    {
      "id": "pt.ine.add.PTCONT.666288",
      "street": "R 25 ABRIL",
      "house": "17",
      "postcode": "4740-002",
      "city": "ESPOSENDE",
      "lon": "-8.777788728841925",
      "lat": "41.5331783500891"
    },
    {
      "id": "pt.ine.add.PTCONT.674878",
      "street": "R VASCO DA GAMA",
      "house": "3",
      "postcode": "4740-291",
      "city": "ESPOSENDE",
      "lon": "-8.779241526112138",
      "lat": "41.53467381893771"
    },
    {
      "id": "pt.ine.add.PTCONT.674879",
      "street": "R VASCO DA GAMA",
      "house": "3",
      "postcode": "4740-291",
      "city": "ESPOSENDE",
      "lon": "-8.779241526112138",
      "lat": "41.53467381893771"
    },
    {
      "id": "pt.ine.add.PTCONT.674880",
      "street": "R VASCO DA GAMA",
      "house": "3",
      "postcode": "4740-291",
      "city": "ESPOSENDE",
      "lon": "-8.779241526112138",
      "lat": "41.53467381893771"
    },
    {
      "id": "pt.ine.add.PTCONT.679687",
      "street": "R BOMBEIROS",
      "house": "4A",
      "postcode": "4740-291",
      "city": "ESPOSENDE",
      "lon": "-8.779284437010926",
      "lat": "41.53416936911613"
    },
    {
      "id": "pt.ine.add.PTCONT.679688",
      "street": "R BOMBEIROS",
      "house": "4A",
      "postcode": "4740-291",
      "city": "ESPOSENDE",
      "lon": "-8.779284437010926",
      "lat": "41.53416936911613"
    },
    {
      "id": "pt.ine.add.PTCONT.679689",
      "street": "R BOMBEIROS",
      "house": "4A",
      "postcode": "4740-291",
      "city": "ESPOSENDE",
      "lon": "-8.779284437010926",
      "lat": "41.53416936911613"
    },
    {
      "id": "pt.ine.add.PTCONT.679690",
      "street": "R BOMBEIROS",
      "house": "4A",
      "postcode": "4740-291",
      "city": "ESPOSENDE",
      "lon": "-8.779284437010926",
      "lat": "41.53416936911613"
    },
    {
      "id": "pt.ine.add.PTCONT.679691",
      "street": "R BOMBEIROS",
      "house": "4A",
      "postcode": "4740-291",
      "city": "ESPOSENDE",
      "lon": "-8.779284437010926",
      "lat": "41.53416936911613"
    },
    {
      "id": "pt.ine.add.PTCONT.679692",
      "street": "R BOMBEIROS",
      "house": "4A",
      "postcode": "4740-291",
      "city": "ESPOSENDE",
      "lon": "-8.779284437010926",
      "lat": "41.53416936911613"
    },
    {
      "id": "pt.ine.add.PTCONT.710657",
      "street": "R 25 DE ABRIL",
      "house": "7",
      "postcode": "4740-002",
      "city": "ESPOSENDE",
      "lon": "-8.77766756860629",
      "lat": "41.53304397331993"
    },
    {
      "id": "pt.ine.add.PTCONT.710658",
      "street": "R 25 DE ABRIL",
      "house": "7",
      "postcode": "4740-002",
      "city": "ESPOSENDE",
      "lon": "-8.77766756860629",
      "lat": "41.53304397331993"
    },
    {
      "id": "pt.ine.add.PTCONT.710659",
      "street": "R 25 DE ABRIL",
      "house": "7",
      "postcode": "4740-002",
      "city": "ESPOSENDE",
      "lon": "-8.77766756860629",
      "lat": "41.53304397331993"
    },
    {
      "id": "pt.ine.add.PTCONT.710660",
      "street": "R 25 DE ABRIL",
      "house": "7",
      "postcode": "4740-002",
      "city": "ESPOSENDE",
      "lon": "-8.77766756860629",
      "lat": "41.53304397331993"
    },
    {
      "id": "pt.ine.add.PTCONT.710665",
      "street": "R 25 DE ABRIL",
      "house": "7",
      "postcode": "4740-002",
      "city": "ESPOSENDE",
      "lon": "-8.77766756860629",
      "lat": "41.53304397331993"
    },
    {
      "id": "pt.ine.add.PTCONT.710666",
      "street": "R 25 DE ABRIL",
      "house": "7",
      "postcode": "4740-002",
      "city": "ESPOSENDE",
      "lon": "-8.77766756860629",
      "lat": "41.53304397331993"
    },
    {
      "id": "pt.ine.add.PTCONT.728611",
      "street": "R 25 DE ABRIL",
      "house": "23",
      "postcode": "4740-002",
      "city": "ESPOSENDE",
      "lon": "-8.778043837715625",
      "lat": "41.53352806507"
    },
    {
      "id": "pt.ine.add.PTCONT.728613",
      "street": "R 25 DE ABRIL",
      "house": "23",
      "postcode": "4740-002",
      "city": "ESPOSENDE",
      "lon": "-8.778043837715625",
      "lat": "41.53352806507"
    },
    {
      "id": "pt.ine.add.PTCONT.728614",
      "street": "R 25 DE ABRIL",
      "house": "23",
      "postcode": "4740-002",
      "city": "ESPOSENDE",
      "lon": "-8.778043837715625",
      "lat": "41.53352806507"
    },
    {
      "id": "pt.ine.add.PTCONT.728615",
      "street": "R 25 DE ABRIL",
      "house": "23",
      "postcode": "4740-002",
      "city": "ESPOSENDE",
      "lon": "-8.778043837715625",
      "lat": "41.53352806507"
    },
    {
      "id": "pt.ine.add.PTCONT.728616",
      "street": "R 25 DE ABRIL",
      "house": "23",
      "postcode": "4740-002",
      "city": "ESPOSENDE",
      "lon": "-8.778043837715625",
      "lat": "41.53352806507"
    },
    {
      "id": "pt.ine.add.PTCONT.728617",
      "street": "R 25 DE ABRIL",
      "house": "23",
      "postcode": "4740-002",
      "city": "ESPOSENDE",
      "lon": "-8.778043837715625",
      "lat": "41.53352806507"
    },
    {
      "id": "pt.ine.add.PTCONT.728618",
      "street": "R 25 DE ABRIL",
      "house": "23",
      "postcode": "4740-002",
      "city": "ESPOSENDE",
      "lon": "-8.778043837715625",
      "lat": "41.53352806507"
    },
    {
      "id": "pt.ine.add.PTCONT.728619",
      "street": "R 25 DE ABRIL",
      "house": "23",
      "postcode": "4740-002",
      "city": "ESPOSENDE",
      "lon": "-8.778043837715625",
      "lat": "41.53352806507"
    },
    {
      "id": "pt.ine.add.PTCONT.762143",
      "street": "PC BRIG CUSTODIO CESAR FARIA FREIRE ANDRADE",
      "house": "29",
      "postcode": "4740-570",
      "city": "ESPOSENDE",
      "lon": "-8.777653709771407",
      "lat": "41.532854972677356"
    },
    {
      "id": "pt.ine.add.PTCONT.762144",
      "street": "AV VALENTIM RIBEIRO",
      "house": "N 29",
      "postcode": "4740-208",
      "city": "ESPOSENDE",
      "lon": "-8.777653709771407",
      "lat": "41.532854972677356"
    },
    {
      "id": "pt.ine.add.PTCONT.762145",
      "street": "PC BRIG CUSTODIO CESAR FARIA FREIRE ANDRADE",
      "house": "29",
      "postcode": "4740-570",
      "city": "ESPOSENDE",
      "lon": "-8.777653709771407",
      "lat": "41.532854972677356"
    },
    {
      "id": "pt.ine.add.PTCONT.762146",
      "street": "PC BRIG CUSTODIO CESAR FARIA FREIRE ANDRADE",
      "house": "29",
      "postcode": "4740-570",
      "city": "ESPOSENDE",
      "lon": "-8.777653709771407",
      "lat": "41.532854972677356"
    },
    {
      "id": "pt.ine.add.PTCONT.762147",
      "street": "PC BRIG CUSTODIO CESAR FARIA FREIRE ANDRADE",
      "house": "29",
      "postcode": "4740-570",
      "city": "ESPOSENDE",
      "lon": "-8.777653709771407",
      "lat": "41.532854972677356"
    },
    {
      "id": "pt.ine.add.PTCONT.762148",
      "street": "PC BRIG CUSTODIO CESAR FARIA FREIRE ANDRADE",
      "house": "29",
      "postcode": "4740-570",
      "city": "ESPOSENDE",
      "lon": "-8.777653709771407",
      "lat": "41.532854972677356"
    },
    {
      "id": "pt.ine.add.PTCONT.762149",
      "street": "PC BRIG CUSTODIO CESAR FARIA FREIRE ANDRADE",
      "house": "29",
      "postcode": "4740-570",
      "city": "ESPOSENDE",
      "lon": "-8.777653709771407",
      "lat": "41.532854972677356"
    },
    {
      "id": "pt.ine.add.PTCONT.762150",
      "street": "PC BRIG CUSTODIO CESAR FARIA FREIRE ANDRADE",
      "house": "29",
      "postcode": "4740-570",
      "city": "ESPOSENDE",
      "lon": "-8.777653709771407",
      "lat": "41.532854972677356"
    },
    {
      "id": "pt.ine.add.PTCONT.762905",
      "street": "PC BRIG CUSTODIO CESAR FARIA FREIRE ANDRADE",
      "house": "29",
      "postcode": "4740-570",
      "city": "ESPOSENDE",
      "lon": "-8.777653709771407",
      "lat": "41.532854972677356"
    },
    {
      "id": "pt.ine.add.PTCONT.763045",
      "street": "AV VALENTIM RIBEIRO",
      "house": "29",
      "postcode": "4740-208",
      "city": "ESPOSENDE",
      "lon": "-8.777653709771407",
      "lat": "41.532854972677356"
    },
    {
      "id": "pt.ine.add.PTCONT.765156",
      "street": "R VASCO GAMA",
      "house": "4",
      "postcode": "4740-291",
      "city": "ESPOSENDE",
      "lon": "-8.779158188059041",
      "lat": "41.53472830952246"
    },
    {
      "id": "pt.ine.add.PTCONT.765157",
      "street": "R VASCO GAMA",
      "house": "4",
      "postcode": "4740-291",
      "city": "ESPOSENDE",
      "lon": "-8.779158188059041",
      "lat": "41.53472830952246"
    },
    {
      "id": "pt.ine.add.PTCONT.765247",
      "street": "R VASCO GAMA",
      "house": "4",
      "postcode": "4740-291",
      "city": "ESPOSENDE",
      "lon": "-8.779158188059041",
      "lat": "41.53472830952246"
    },
    {
      "id": "pt.ine.add.PTCONT.766224",
      "street": "R VASCO GAMA",
      "house": "4",
      "postcode": "4740-291",
      "city": "ESPOSENDE",
      "lon": "-8.779158188059041",
      "lat": "41.53472830952246"
    },
    {
      "id": "pt.ine.add.PTCONT.766454",
      "street": "R VASCO GAMA",
      "house": "4",
      "postcode": "4740-291",
      "city": "ESPOSENDE",
      "lon": "-8.779158188059041",
      "lat": "41.53472830952246"
    },
    {
      "id": "pt.ine.add.PTCONT.773642",
      "street": "R S JOSE",
      "house": "4",
      "postcode": "4740-566",
      "city": "ESPOSENDE",
      "lon": "-8.778404103610667",
      "lat": "41.533607077579056"
    },
    {
      "id": "pt.ine.add.PTCONT.773643",
      "street": "R S JOSE",
      "house": "4",
      "postcode": "4740-566",
      "city": "ESPOSENDE",
      "lon": "-8.778404103610667",
      "lat": "41.533607077579056"
    },
    {
      "id": "pt.ine.add.PTCONT.773644",
      "street": "R S JOSE",
      "house": "4",
      "postcode": "4740-566",
      "city": "ESPOSENDE",
      "lon": "-8.778404103610667",
      "lat": "41.533607077579056"
    },
    {
      "id": "pt.ine.add.PTCONT.773645",
      "street": "R S JOSE",
      "house": "4",
      "postcode": "4740-566",
      "city": "ESPOSENDE",
      "lon": "-8.778404103610667",
      "lat": "41.533607077579056"
    },
    {
      "id": "pt.ine.add.PTCONT.773646",
      "street": "R 25 ABRIL",
      "house": "4",
      "postcode": "4740-002",
      "city": "ESPOSENDE",
      "lon": "-8.778404103610667",
      "lat": "41.533607077579056"
    },
    {
      "id": "pt.ine.add.PTCONT.773647",
      "street": "R S JOSE",
      "house": "4",
      "postcode": "4740-566",
      "city": "ESPOSENDE",
      "lon": "-8.778404103610667",
      "lat": "41.533607077579056"
    },
    {
      "id": "pt.ine.add.PTCONT.779778",
      "street": "R SOLEDADE ROCHA GONCALVES",
      "house": "2A",
      "postcode": "4740-568",
      "city": "ESPOSENDE",
      "lon": "-8.77904452559321",
      "lat": "41.534143705773104"
    },
    {
      "id": "pt.ine.add.PTCONT.779779",
      "street": "R SOLEDADE ROCHA GONCALVES",
      "house": "2A",
      "postcode": "4740-568",
      "city": "ESPOSENDE",
      "lon": "-8.77904452559321",
      "lat": "41.534143705773104"
    },
    {
      "id": "pt.ine.add.PTCONT.779780",
      "street": "R SOLEDADE ROCHA GONCALVES",
      "house": "2A",
      "postcode": "4740-568",
      "city": "ESPOSENDE",
      "lon": "-8.77904452559321",
      "lat": "41.534143705773104"
    },
    {
      "id": "pt.ine.add.PTCONT.779781",
      "street": "R SOLEDADE ROCHA GONCALVES",
      "house": "ENT 2A",
      "postcode": "4740-568",
      "city": "ESPOSENDE",
      "lon": "-8.77904452559321",
      "lat": "41.534143705773104"
    },
    {
      "id": "pt.ine.add.PTCONT.779782",
      "street": "R SOLEDADE ROCHA GONCALVES",
      "house": "2A",
      "postcode": "4740-568",
      "city": "ESPOSENDE",
      "lon": "-8.77904452559321",
      "lat": "41.534143705773104"
    },
    {
      "id": "pt.ine.add.PTCONT.805447",
      "street": "R SOLEDADE ROCHA GONÇALVES",
      "house": "8",
      "postcode": "4740-568",
      "city": "ESPOSENDE",
      "lon": "-8.778734601730497",
      "lat": "41.534307513298174"
    },
    {
      "id": "pt.ine.add.PTCONT.805448",
      "street": "R SOLEDADE ROCHA GONÇALVES",
      "house": "8",
      "postcode": "4740-568",
      "city": "ESPOSENDE",
      "lon": "-8.778734601730497",
      "lat": "41.534307513298174"
    },
    {
      "id": "pt.ine.add.PTCONT.805449",
      "street": "R SOLEDADE ROCHA GONÇALVES",
      "house": "8",
      "postcode": "4740-568",
      "city": "ESPOSENDE",
      "lon": "-8.778734601730497",
      "lat": "41.534307513298174"
    },
    {
      "id": "pt.ine.add.PTCONT.805450",
      "street": "R SOLEDADE ROCHA GONÇALVES",
      "house": "8",
      "postcode": "4740-568",
      "city": "ESPOSENDE",
      "lon": "-8.778734601730497",
      "lat": "41.534307513298174"
    },
    {
      "id": "pt.ine.add.PTCONT.805454",
      "street": "R SOLEDADE ROCHA GONÇALVES",
      "house": "8",
      "postcode": "4740-568",
      "city": "ESPOSENDE",
      "lon": "-8.778734601730497",
      "lat": "41.534307513298174"
    },
    {
      "id": "pt.ine.add.PTCONT.806794",
      "street": "R 25 DE ABRIL",
      "house": "7",
      "postcode": "4740-002",
      "city": "ESPOSENDE",
      "lon": "-8.778857020222407",
      "lat": "41.534567934017474"
    },
    {
      "id": "pt.ine.add.PTCONT.806795",
      "street": "R 25 DE ABRIL",
      "house": "7",
      "postcode": "4740-002",
      "city": "ESPOSENDE",
      "lon": "-8.778857020222407",
      "lat": "41.534567934017474"
    },
    {
      "id": "pt.ine.add.PTCONT.823623",
      "street": "R BOMBEIROS",
      "house": "20",
      "postcode": "4740-291",
      "city": "ESPOSENDE",
      "lon": "-8.778423951377263",
      "lat": "41.53319279468259"
    },
    {
      "id": "pt.ine.add.PTCONT.823624",
      "street": "R BOMBEIROS",
      "house": "20",
      "postcode": "4740-291",
      "city": "ESPOSENDE",
      "lon": "-8.778423951377263",
      "lat": "41.53319279468259"
    },
    {
      "id": "pt.ine.add.PTCONT.823625",
      "street": "R BOMBEIROS",
      "house": "20",
      "postcode": "4740-291",
      "city": "ESPOSENDE",
      "lon": "-8.778423951377263",
      "lat": "41.53319279468259"
    },
    {
      "id": "pt.ine.add.PTCONT.823626",
      "street": "R BOMBEIROS",
      "house": "20",
      "postcode": "4740-291",
      "city": "ESPOSENDE",
      "lon": "-8.778423951377263",
      "lat": "41.53319279468259"
    },
    {
      "id": "pt.ine.add.PTCONT.823627",
      "street": "R BOMBEIROS",
      "house": "20",
      "postcode": "4740-291",
      "city": "ESPOSENDE",
      "lon": "-8.778423951377263",
      "lat": "41.53319279468259"
    },
    {
      "id": "pt.ine.add.PTCONT.823628",
      "street": "R BOMBEIROS",
      "house": "20",
      "postcode": "4740-291",
      "city": "ESPOSENDE",
      "lon": "-8.778423951377263",
      "lat": "41.53319279468259"
    },
    {
      "id": "pt.ine.add.PTCONT.823629",
      "street": "R BOMBEIROS",
      "house": "20",
      "postcode": "4740-291",
      "city": "ESPOSENDE",
      "lon": "-8.778423951377263",
      "lat": "41.53319279468259"
    },
    {
      "id": "pt.ine.add.PTCONT.830731",
      "street": "R BOMBEIROS",
      "house": "8",
      "postcode": "4740-291",
      "city": "ESPOSENDE",
      "lon": "-8.778121003677866",
      "lat": "41.5328523525918"
    },
    {
      "id": "pt.ine.add.PTCONT.830732",
      "street": "R BOMBEIROS",
      "house": "8",
      "postcode": "4740-291",
      "city": "ESPOSENDE",
      "lon": "-8.778121003677866",
      "lat": "41.5328523525918"
    },
    {
      "id": "pt.ine.add.PTCONT.830733",
      "street": "R BOMBEIROS",
      "house": "8",
      "postcode": "4740-291",
      "city": "ESPOSENDE",
      "lon": "-8.778121003677866",
      "lat": "41.5328523525918"
    },
    {
      "id": "pt.ine.add.PTCONT.830734",
      "street": "R BOMBEIROS",
      "house": "8",
      "postcode": "4740-291",
      "city": "ESPOSENDE",
      "lon": "-8.778121003677866",
      "lat": "41.5328523525918"
    },
    {
      "id": "pt.ine.add.PTCONT.839401",
      "street": "R BOMBEIROS",
      "house": "32",
      "postcode": "4740-291",
      "city": "ESPOSENDE",
      "lon": "-8.77852177597317",
      "lat": "41.533390327722365"
    },
    {
      "id": "pt.ine.add.PTCONT.841967",
      "street": "R BOMBEIROS",
      "house": "14",
      "postcode": "4740-291",
      "city": "ESPOSENDE",
      "lon": "-8.778230182564501",
      "lat": "41.53298679610173"
    },
    {
      "id": "pt.ine.add.PTCONT.842516",
      "street": "R BOMBEIROS",
      "house": "20",
      "postcode": "4740-291",
      "city": "ESPOSENDE",
      "lon": "-8.778423951377263",
      "lat": "41.53319279468259"
    },
    {
      "id": "pt.ine.add.PTCONT.842935",
      "street": "R SOLEDADE ROCHA GONCALVES",
      "house": "2A",
      "postcode": "4740-568",
      "city": "ESPOSENDE",
      "lon": "-8.77904452559321",
      "lat": "41.534143705773104"
    },
    {
      "id": "pt.ine.add.PTCONT.843084",
      "street": "R 25 DE ABRIL",
      "house": "7",
      "postcode": "4740-002",
      "city": "ESPOSENDE",
      "lon": "-8.778857020222407",
      "lat": "41.534567934017474"
    },
    {
      "id": "pt.ine.add.PTCONT.847520",
      "street": "R SOLEDADE ROCHA GONÇALVES",
      "house": "1A",
      "postcode": "4740-568",
      "city": "ESPOSENDE",
      "lon": "-8.778925331182235",
      "lat": "41.53420740132116"
    }
  ]
}