{
  "data": {
    "distrito": "Lisboa",
    "concelho": "Mafra",
    "freguesia": "União das freguesias de Azueira e Sobral da Abelheira",
    "OBJECTID": 486,
    "BGRI2021": "11091800333",
    "DT21": "11",
    "DTMN21": "1109",
    "DTMNFR21": "110918",
    "DTMNFRSEC21": "110918003",
    "SECNUM21": "003",
    "SSNUM21": "33",
    "SECSSNUM21": "00333",
    "OBJECTID_1": 107917,
    "DT": "11",
    "CC": "09",
    "fr": "18",
    "SEC": "003",
    "SS": "33"
  },
  "addresses": [
    {
      "id": "pt.ine.add.PTCONT.2270489",
      "street": "R ESCOLA PRIMARIA",
      "house": "14",
      "postcode": "2640-629",
      "city": "SOBRAL DA ABELHEIRA",
      "lon": "-9.334260244388751",
      "lat": "38.995954306317074"
    },
    {
      "id": "pt.ine.add.PTCONT.2426938",
      "street": "R ESCOLA PRIMARIA",
      "house": "16",
      "postcode": "2640-629",
      "city": "SOBRAL DA ABELHEIRA",
      "lon": "-9.334067403083202",
      "lat": "38.99615445317033"
    },
    {
      "id": "pt.ine.add.PTCONT.2474566",
      "street": "R MOINHO",
      "house": "6",
      "postcode": "2640-636",
      "city": "SOBRAL DA ABELHEIRA",
      "lon": "-9.333905681646108",
      "lat": "38.996147110521584"
    },
    {
      "id": "pt.ine.add.PTCONT.2957317",
      "street": "TV JARDIM DE INFÂNCIA",
      "house": "1",
      "postcode": "2640-636",
      "city": "SOBRAL DA ABELHEIRA",
      "lon": "-9.334133449765893",
      "lat": "38.99596461905787"
    },
    {
      "id": "pt.ine.add.PTCONT.3070972",
      "street": "TV ESCOLA",
      "house": "4",
      "postcode": "2640-628",
      "city": "SOBRAL DA ABELHEIRA",
      "lon": "-9.334085308092165",
      "lat": "38.99584801920362"
    },
    {
      "id": "pt.ine.add.PTCONT.3161407",
      "street": "R ESCOLA PRIMARIA",
      "house": "6",
      "postcode": "2640-629",
      "city": "SOBRAL DA ABELHEIRA",
      "lon": "-9.334189782586217",
      "lat": "38.995882973024116"
    },
    {
      "id": "pt.ine.add.PTCONT.3206425",
      "street": "R MOINHO",
      "house": "2",
      "postcode": "2640-636",
      "city": "SOBRAL DA ABELHEIRA",
      "lon": "-9.333816857241093",
      "lat": "38.996355193621916"
    },
    {
      "id": "pt.ine.add.PTCONT.3280793",
      "street": "R ESCOLA PRIMARIA",
      "house": "18",
      "postcode": "2640-629",
      "city": "SOBRAL DA ABELHEIRA",
      "lon": "-9.33398935866987",
      "lat": "38.99631738871584"
    },
    {
      "id": "pt.ine.add.PTCONT.3280794",
      "street": "R ESCOLA PRIMARIA",
      "house": "18",
      "postcode": "2640-629",
      "city": "SOBRAL DA ABELHEIRA",
      "lon": "-9.33398935866987",
      "lat": "38.99631738871584"
    },
    {
      "id": "pt.ine.add.PTCONT.3336674",
      "street": "R MOINHO",
      "house": "10",
      "postcode": "2640-636",
      "city": "SOBRAL DA ABELHEIRA",
      "lon": "-9.334075137662163",
      "lat": "38.995929189986136"
    }
  ]
}