{
  "data": {
    "distrito": "Guarda",
    "concelho": "Guarda",
    "freguesia": "Guarda",
    "OBJECTID": 1281,
    "BGRI2021": "09075800201",
    "DT21": "09",
    "DTMN21": "0907",
    "DTMNFR21": "090758",
    "DTMNFRSEC21": "090758002",
    "SECNUM21": "002",
    "SSNUM21": "01",
    "SECSSNUM21": "00201",
    "OBJECTID_1": 78003,
    "DT": "09",
    "CC": "07",
    "fr": "58",
    "SEC": "002",
    "SS": "01"
  },
  "addresses": [
    {
      "id": "pt.ine.add.PTCONT.1900067",
      "street": "QTA DO BARROCO",
      "house": "4",
      "postcode": "6300-366",
      "city": "GUARDA",
      "lon": "-7.283100414675911",
      "lat": "40.53427751891524"
    },
    {
      "id": "pt.ine.add.PTCONT.1915839",
      "street": "R DA MIRA SERRA",
      "house": "42",
      "postcode": "6300-317",
      "city": "GUARDA",
      "lon": "-7.28274943907119",
      "lat": "40.53403179566663"
    },
    {
      "id": "pt.ine.add.PTCONT.1919801",
      "street": "LG PADRE ISIDRO GOMES SILVA",
      "house": "5",
      "postcode": "6300-846",
      "city": "GUARDA",
      "lon": "-7.282593854883256",
      "lat": "40.53420174945166"
    },
    {
      "id": "pt.ine.add.PTCONT.1919802",
      "street": "R BARROCO",
      "house": "",
      "postcode": "6300-366",
      "city": "GUARDA",
      "lon": "-7.28352629757706",
      "lat": "40.53419960440363"
    },
    {
      "id": "pt.ine.add.PTCONT.1919803",
      "street": "QTA BARROCO",
      "house": "",
      "postcode": "6300-366",
      "city": "GUARDA",
      "lon": "-7.28352629757706",
      "lat": "40.53419960440363"
    },
    {
      "id": "pt.ine.add.PTCONT.1920718",
      "street": "QTA BARROCO",
      "house": "",
      "postcode": "6300-366",
      "city": "GUARDA",
      "lon": "-7.28352629757706",
      "lat": "40.53419960440363"
    },
    {
      "id": "pt.ine.add.PTCONT.1938185",
      "street": "R BARROCO",
      "house": "14",
      "postcode": "6300-366",
      "city": "GUARDA",
      "lon": "-7.284174819203999",
      "lat": "40.53424939731169"
    },
    {
      "id": "pt.ine.add.PTCONT.1956787",
      "street": "R DO BARROCO",
      "house": "10",
      "postcode": "6300-366",
      "city": "GUARDA",
      "lon": "-7.283902585603081",
      "lat": "40.53431043320646"
    },
    {
      "id": "pt.ine.add.PTCONT.1961940",
      "street": "R DO BARROCO",
      "house": "4",
      "postcode": "6300-366",
      "city": "GUARDA",
      "lon": "-7.283641584566277",
      "lat": "40.53441657708648"
    },
    {
      "id": "pt.ine.add.PTCONT.1964924",
      "street": "R DO BARROCO",
      "house": "16",
      "postcode": "6300-366",
      "city": "GUARDA",
      "lon": "-7.284211246950183",
      "lat": "40.53416861807585"
    },
    {
      "id": "pt.ine.add.PTCONT.1966857",
      "street": "QTA DO BARROCO",
      "house": "6",
      "postcode": "6300-366",
      "city": "GUARDA",
      "lon": "-7.283042203070144",
      "lat": "40.53421405418429"
    },
    {
      "id": "pt.ine.add.PTCONT.1966858",
      "street": "QTA DO BARROCO",
      "house": "6",
      "postcode": "6300-366",
      "city": "GUARDA",
      "lon": "-7.283042203070144",
      "lat": "40.53421405418429"
    },
    {
      "id": "pt.ine.add.PTCONT.1968140",
      "street": "R DO BARROCO",
      "house": "12",
      "postcode": "6300-366",
      "city": "GUARDA",
      "lon": "-7.283985424531552",
      "lat": "40.534293031616606"
    },
    {
      "id": "pt.ine.add.PTCONT.1851224",
      "street": "PCT DA MIRA SERRA",
      "house": "38",
      "postcode": "6300-585",
      "city": "GUARDA",
      "lon": "-7.282510332481607",
      "lat": "40.53427317626387"
    },
    {
      "id": "pt.ine.add.PTCONT.1851225",
      "street": "R BARROCO",
      "house": "5",
      "postcode": "6300-366",
      "city": "GUARDA",
      "lon": "-7.28332475970845",
      "lat": "40.5342701639605"
    },
    {
      "id": "pt.ine.add.PTCONT.1851226",
      "street": "QTA BARROCO",
      "house": "5",
      "postcode": "6300-366",
      "city": "GUARDA",
      "lon": "-7.28332475970845",
      "lat": "40.5342701639605"
    },
    {
      "id": "pt.ine.add.PTCONT.1851227",
      "street": "R BARROCO",
      "house": "5",
      "postcode": "6300-366",
      "city": "GUARDA",
      "lon": "-7.28332475970845",
      "lat": "40.5342701639605"
    },
    {
      "id": "pt.ine.add.PTCONT.1851228",
      "street": "QTA BARROCO",
      "house": "5",
      "postcode": "6300-366",
      "city": "GUARDA",
      "lon": "-7.28332475970845",
      "lat": "40.5342701639605"
    },
    {
      "id": "pt.ine.add.PTCONT.1865214",
      "street": "R DO BARROCO",
      "house": "9",
      "postcode": "6300-366",
      "city": "GUARDA",
      "lon": "-7.283487252893372",
      "lat": "40.53448748398115"
    },
    {
      "id": "pt.ine.add.PTCONT.1865882",
      "street": "QTA DO BARROCO",
      "house": "2",
      "postcode": "6300-366",
      "city": "GUARDA",
      "lon": "-7.283087475061797",
      "lat": "40.53436747580795"
    },
    {
      "id": "pt.ine.add.PTCONT.1867363",
      "street": "TV DO BARROCO",
      "house": "8",
      "postcode": "6300-366",
      "city": "GUARDA",
      "lon": "-7.283019282636152",
      "lat": "40.5341598542944"
    },
    {
      "id": "pt.ine.add.PTCONT.1867364",
      "street": "TV DO BARROCO",
      "house": "8",
      "postcode": "6300-366",
      "city": "GUARDA",
      "lon": "-7.283019282636152",
      "lat": "40.5341598542944"
    },
    {
      "id": "pt.ine.add.PTCONT.1871678",
      "street": "R DO BARROCO",
      "house": "8",
      "postcode": "6300-366",
      "city": "GUARDA",
      "lon": "-7.283831434591506",
      "lat": "40.5343369258587"
    },
    {
      "id": "pt.ine.add.PTCONT.1876068",
      "street": "R DO BARROCO",
      "house": "26",
      "postcode": "6300-366",
      "city": "GUARDA",
      "lon": "-7.28373645277947",
      "lat": "40.53438125369879"
    },
    {
      "id": "pt.ine.add.PTCONT.1897526",
      "street": "R DO BARROCO",
      "house": "8",
      "postcode": "6300-366",
      "city": "GUARDA",
      "lon": "-7.283582235017344",
      "lat": "40.53444315634988"
    }
  ]
}