{
  "data": {
    "distrito": "Coimbra",
    "concelho": "Oliveira do Hospital",
    "freguesia": "Aldeia das Dez",
    "OBJECTID": 447,
    "BGRI2021": "06110100141",
    "DT21": "06",
    "DTMN21": "0611",
    "DTMNFR21": "061101",
    "DTMNFRSEC21": "061101001",
    "SECNUM21": "001",
    "SSNUM21": "41",
    "SECSSNUM21": "00141",
    "OBJECTID_1": 54674,
    "DT": "06",
    "CC": "11",
    "fr": "01",
    "SEC": "001",
    "SS": "41"
  },
  "addresses": [
    {
      "id": "pt.ine.add.PTCONT.1107908",
      "street": "QTA DAS TAPADAS",
      "house": "",
      "postcode": "3400-266",
      "city": "ALDEIA DAS DEZ",
      "lon": "-7.883461649012766",
      "lat": "40.29590315752117"
    },
    {
      "id": "pt.ine.add.PTCONT.1107909",
      "street": "QTA DAS TAPADAS",
      "house": "",
      "postcode": "3400-266",
      "city": "ALDEIA DAS DEZ",
      "lon": "-7.884656231664212",
      "lat": "40.294077566792225"
    },
    {
      "id": "pt.ine.add.PTCONT.1118361",
      "street": "QTA DE PORTO DE MÓS",
      "house": "",
      "postcode": "3400-264",
      "city": "ALDEIA DAS DEZ",
      "lon": "-7.873532871355167",
      "lat": "40.30569753679291"
    },
    {
      "id": "pt.ine.add.PTCONT.1139216",
      "street": "QTA DE PORTO DE MÓS",
      "house": "",
      "postcode": "3400-264",
      "city": "ALDEIA DAS DEZ",
      "lon": "-7.876751339704037",
      "lat": "40.30380450863062"
    },
    {
      "id": "pt.ine.add.PTCONT.1234817",
      "street": "QTA DO PEREIRO",
      "house": "",
      "postcode": "3400-266",
      "city": "ALDEIA DAS DEZ",
      "lon": "-7.885269116658218",
      "lat": "40.29371865219584"
    },
    {
      "id": "pt.ine.add.PTCONT.1279660",
      "street": "",
      "house": "",
      "postcode": "3400-264",
      "city": "ALDEIA DAS DEZ",
      "lon": "-7.873403478945362",
      "lat": "40.30569724640867"
    },
    {
      "id": "pt.ine.add.PTCONT.1365439",
      "street": "QTA DO CHÃO DO PINHEIRO",
      "house": "",
      "postcode": "3400-264",
      "city": "ALDEIA DAS DEZ",
      "lon": "-7.874793908056738",
      "lat": "40.305069959730154"
    }
  ]
}