{
  "data": {
    "distrito": "Porto",
    "concelho": "Póvoa de Varzim",
    "freguesia": "União das freguesias da Póvoa de Varzim, Beiriz e Argivai",
    "OBJECTID": 460,
    "BGRI2021": "13131503404",
    "DT21": "13",
    "DTMN21": "1313",
    "DTMNFR21": "131315",
    "DTMNFRSEC21": "131315034",
    "SECNUM21": "034",
    "SSNUM21": "04",
    "SECSSNUM21": "03404",
    "OBJECTID_1": 139467,
    "DT": "13",
    "CC": "13",
    "fr": "15",
    "SEC": "034",
    "SS": "04"
  },
  "addresses": [
    {
      "id": "pt.ine.add.PTCONT.3646143",
      "street": "R COMEND FRANCISCO QUINTAS",
      "house": "676",
      "postcode": "4495-604",
      "city": "PÓVOA DE VARZIM",
      "lon": "-8.7501431209121",
      "lat": "41.39411259158746"
    },
    {
      "id": "pt.ine.add.PTCONT.3784411",
      "street": "LG ARROTEIAS",
      "house": "56",
      "postcode": "4495-402",
      "city": "PÓVOA DE VARZIM",
      "lon": "-8.749072651680466",
      "lat": "41.39091291951493"
    },
    {
      "id": "pt.ine.add.PTCONT.3950149",
      "street": "R HERDANCA",
      "house": "117",
      "postcode": "4490-516",
      "city": "PÓVOA DE VARZIM",
      "lon": "-8.75105133677276",
      "lat": "41.39153258719322"
    },
    {
      "id": "pt.ine.add.PTCONT.3994787",
      "street": "R HERDANCA",
      "house": "143",
      "postcode": "4490-516",
      "city": "PÓVOA DE VARZIM",
      "lon": "-8.750644066858474",
      "lat": "41.391453738060264"
    },
    {
      "id": "pt.ine.add.PTCONT.4121388",
      "street": "R DA HERDANÇA",
      "house": "93",
      "postcode": "4490-516",
      "city": "PÓVOA DE VARZIM",
      "lon": "-8.750933737738157",
      "lat": "41.39174030963726"
    },
    {
      "id": "pt.ine.add.PTCONT.4132176",
      "street": "R HERDANCA",
      "house": "173",
      "postcode": "4490-516",
      "city": "PÓVOA DE VARZIM",
      "lon": "-8.75076089931464",
      "lat": "41.39116498441835"
    },
    {
      "id": "pt.ine.add.PTCONT.4186150",
      "street": "R HERDANCA",
      "house": "155",
      "postcode": "4490-516",
      "city": "PÓVOA DE VARZIM",
      "lon": "-8.750845613451611",
      "lat": "41.391272577120574"
    }
  ]
}