{
  "data": {
    "distrito": "Viana do Castelo",
    "concelho": "Paredes de Coura",
    "freguesia": "União das freguesias de Insalde e Porreiras",
    "OBJECTID": 343,
    "BGRI2021": "16052500117",
    "DT21": "16",
    "DTMN21": "1605",
    "DTMNFR21": "160525",
    "DTMNFRSEC21": "160525001",
    "SECNUM21": "001",
    "SSNUM21": "17",
    "SECSSNUM21": "00117",
    "OBJECTID_1": 174491,
    "DT": "16",
    "CC": "05",
    "fr": "25",
    "SEC": "001",
    "SS": "17"
  },
  "addresses": [
    {
      "id": "pt.ine.add.PTCONT.5151218",
      "street": "",
      "house": "",
      "postcode": "4940-604",
      "city": "PORREIRAS",
      "lon": "-8.556754377730101",
      "lat": "41.951631588855804"
    },
    {
      "id": "pt.ine.add.PTCONT.5164405",
      "street": "R MAARIA DO CEU PEREIRA DA CUNHA",
      "house": "",
      "postcode": "4940-603",
      "city": "PORREIRAS",
      "lon": "-8.556358110563004",
      "lat": "41.95189414066374"
    },
    {
      "id": "pt.ine.add.PTCONT.5164406",
      "street": "R MAARIA DO CEU PEREIRA DA CUNHA",
      "house": "",
      "postcode": "4940-603",
      "city": "PORREIRAS",
      "lon": "-8.556358110563004",
      "lat": "41.95189414066374"
    },
    {
      "id": "pt.ine.add.PTCONT.5170000",
      "street": "R ARLINDO FEERREIRA BARBOSA",
      "house": "",
      "postcode": "4940-603",
      "city": "PORREIRAS",
      "lon": "-8.555952695274069",
      "lat": "41.952597877347785"
    },
    {
      "id": "pt.ine.add.PTCONT.5204291",
      "street": "ELISABETE RODRIGUES CUNHA",
      "house": "",
      "postcode": "4940-604",
      "city": "PORREIRAS",
      "lon": "-8.556739992400198",
      "lat": "41.9512805204564"
    },
    {
      "id": "pt.ine.add.PTCONT.5236546",
      "street": "R MARIA PEREIRA",
      "house": "",
      "postcode": "4940-603",
      "city": "PORREIRAS",
      "lon": "-8.555883722757999",
      "lat": "41.95311130877277"
    },
    {
      "id": "pt.ine.add.PTCONT.5236547",
      "street": "R ANSELMO BARREIRO BARBOSA",
      "house": "",
      "postcode": "4940-603",
      "city": "PORREIRAS",
      "lon": "-8.555840699395922",
      "lat": "41.95207610917589"
    },
    {
      "id": "pt.ine.add.PTCONT.5242437",
      "street": "",
      "house": "",
      "postcode": "4940-604",
      "city": "PORREIRAS",
      "lon": "-8.556236076687954",
      "lat": "41.9516785157221"
    },
    {
      "id": "pt.ine.add.PTCONT.5249544",
      "street": "R MANUEL PEREIRA DA SILVA",
      "house": "",
      "postcode": "4940-603",
      "city": "PORREIRAS",
      "lon": "-8.555979256342308",
      "lat": "41.95296690714995"
    },
    {
      "id": "pt.ine.add.PTCONT.5249545",
      "street": "R MANUEL PEREIRA DA SILVA",
      "house": "",
      "postcode": "4940-603",
      "city": "PORREIRAS",
      "lon": "-8.555979256342308",
      "lat": "41.95296690714995"
    },
    {
      "id": "pt.ine.add.PTCONT.5254174",
      "street": "R MANUEL CARVALHO GOMES",
      "house": "",
      "postcode": "4940-603",
      "city": "PORREIRAS",
      "lon": "-8.556691671438312",
      "lat": "41.953090324591166"
    },
    {
      "id": "pt.ine.add.PTCONT.5255298",
      "street": "R JOAQUIM JULIO FEERREIRA ROSA",
      "house": "",
      "postcode": "4940-603",
      "city": "PORREIRAS",
      "lon": "-8.556130270941681",
      "lat": "41.95209304886007"
    },
    {
      "id": "pt.ine.add.PTCONT.5265945",
      "street": "R ANTÓNIO PEREIRA DA SILVA",
      "house": "",
      "postcode": "4940-603",
      "city": "PORREIRAS",
      "lon": "-8.556023571138272",
      "lat": "41.9523725384644"
    },
    {
      "id": "pt.ine.add.PTCONT.5270423",
      "street": "R ARMANDO PEDROSA",
      "house": "",
      "postcode": "4940-604",
      "city": "PORREIRAS",
      "lon": "-8.555827270714376",
      "lat": "41.951869086993206"
    },
    {
      "id": "pt.ine.add.PTCONT.5278521",
      "street": "R FLAVIO DOS SANTOS",
      "house": "",
      "postcode": "4940-604",
      "city": "PORREIRAS",
      "lon": "-8.556044716474464",
      "lat": "41.95192230488141"
    },
    {
      "id": "pt.ine.add.PTCONT.5280729",
      "street": "R ELIAS LINO",
      "house": "",
      "postcode": "4940-604",
      "city": "PORREIRAS",
      "lon": "-8.55587961763492",
      "lat": "41.95249010910333"
    },
    {
      "id": "pt.ine.add.PTCONT.5284202",
      "street": "R MARIA PEREIRA",
      "house": "",
      "postcode": "4940-603",
      "city": "PORREIRAS",
      "lon": "-8.555883722757999",
      "lat": "41.95311130877277"
    }
  ]
}