{
  "data": {
    "distrito": "Vila Real",
    "concelho": "Chaves",
    "freguesia": "União das freguesias de Travancas e Roriz",
    "OBJECTID": 451,
    "BGRI2021": "17036000101",
    "DT21": "17",
    "DTMN21": "1703",
    "DTMNFR21": "170360",
    "DTMNFRSEC21": "170360001",
    "SECNUM21": "001",
    "SSNUM21": "01",
    "SECSSNUM21": "00101",
    "OBJECTID_1": 180931,
    "DT": "17",
    "CC": "03",
    "fr": "60",
    "SEC": "001",
    "SS": "01"
  },
  "addresses": [
    {
      "id": "pt.ine.add.PTCONT.5305207",
      "street": "R CAMÕES",
      "house": "",
      "postcode": "5400-797",
      "city": "TRAVANCAS",
      "lon": "-7.313485325085097",
      "lat": "41.81404422535388"
    },
    {
      "id": "pt.ine.add.PTCONT.5308934",
      "street": "R CAMÕES",
      "house": "9",
      "postcode": "5400-797",
      "city": "TRAVANCAS",
      "lon": "-7.314136520436118",
      "lat": "41.813940831051305"
    },
    {
      "id": "pt.ine.add.PTCONT.5327709",
      "street": "R DE S JOSÉ",
      "house": "1",
      "postcode": "5400-797",
      "city": "TRAVANCAS",
      "lon": "-7.313145970555974",
      "lat": "41.8142308717161"
    },
    {
      "id": "pt.ine.add.PTCONT.5333818",
      "street": "R DE STO ANTÓNIO",
      "house": "1",
      "postcode": "5400-797",
      "city": "TRAVANCAS",
      "lon": "-7.313715342076664",
      "lat": "41.81393782736006"
    },
    {
      "id": "pt.ine.add.PTCONT.5357900",
      "street": "R DO SOL",
      "house": "2",
      "postcode": "5400-797",
      "city": "TRAVANCAS",
      "lon": "-7.31330367176542",
      "lat": "41.814132961561626"
    },
    {
      "id": "pt.ine.add.PTCONT.5357901",
      "street": "R DA IGREJA",
      "house": "",
      "postcode": "5400-797",
      "city": "TRAVANCAS",
      "lon": "-7.3099246947237795",
      "lat": "41.812974385962654"
    },
    {
      "id": "pt.ine.add.PTCONT.5361562",
      "street": "R DA IGREJA",
      "house": "",
      "postcode": "5400-797",
      "city": "TRAVANCAS",
      "lon": "-7.310427796659252",
      "lat": "41.81315805540107"
    },
    {
      "id": "pt.ine.add.PTCONT.5363650",
      "street": "R CAMÕES",
      "house": "",
      "postcode": "5400-797",
      "city": "TRAVANCAS",
      "lon": "-7.314500740305376",
      "lat": "41.81369133617349"
    },
    {
      "id": "pt.ine.add.PTCONT.5397958",
      "street": "R DE STO ANTÓNIO",
      "house": "2",
      "postcode": "5400-797",
      "city": "TRAVANCAS",
      "lon": "-7.313947079003006",
      "lat": "41.8136963923564"
    },
    {
      "id": "pt.ine.add.PTCONT.5402957",
      "street": "R IGREJA",
      "house": "25",
      "postcode": "5400-797",
      "city": "TRAVANCAS",
      "lon": "-7.312882032781823",
      "lat": "41.81416596453774"
    },
    {
      "id": "pt.ine.add.PTCONT.5417563",
      "street": "R CAMÕES",
      "house": "",
      "postcode": "5400-797",
      "city": "TRAVANCAS",
      "lon": "-7.313693340220453",
      "lat": "41.8137756118383"
    }
  ]
}