{
  "data": {
    "distrito": "Santarém",
    "concelho": "Santarém",
    "freguesia": "Almoster",
    "OBJECTID": 354,
    "BGRI2021": "14160600305",
    "DT21": "14",
    "DTMN21": "1416",
    "DTMNFR21": "141606",
    "DTMNFRSEC21": "141606003",
    "SECNUM21": "003",
    "SSNUM21": "05",
    "SECSSNUM21": "00305",
    "OBJECTID_1": 154987,
    "DT": "14",
    "CC": "16",
    "fr": "06",
    "SEC": "003",
    "SS": "05"
  },
  "addresses": [
    {
      "id": "pt.ine.add.PTCONT.4445890",
      "street": "R 1 DE MAIO",
      "house": "",
      "postcode": "2005-110",
      "city": "ALMOSTER STR",
      "lon": "-8.776705243413799",
      "lat": "39.230980256059475"
    },
    {
      "id": "pt.ine.add.PTCONT.4447981",
      "street": "R 25 DE ABRIL",
      "house": "2",
      "postcode": "2005-110",
      "city": "ALMOSTER STR",
      "lon": "-8.77676002086678",
      "lat": "39.230637676737324"
    },
    {
      "id": "pt.ine.add.PTCONT.4462477",
      "street": "R 1 DE MAIO",
      "house": "2",
      "postcode": "2005-110",
      "city": "ALMOSTER STR",
      "lon": "-8.775431353617272",
      "lat": "39.229717261239685"
    },
    {
      "id": "pt.ine.add.PTCONT.4464558",
      "street": "R 1 DE MAIO",
      "house": "6",
      "postcode": "2005-110",
      "city": "ALMOSTER STR",
      "lon": "-8.776131123746348",
      "lat": "39.23025383718213"
    },
    {
      "id": "pt.ine.add.PTCONT.4512308",
      "street": "R 1 MAIO",
      "house": "22",
      "postcode": "2005-110",
      "city": "ALMOSTER STR",
      "lon": "-8.77866122272187",
      "lat": "39.23210434905729"
    },
    {
      "id": "pt.ine.add.PTCONT.4528780",
      "street": "R 1 DE MAIO",
      "house": "",
      "postcode": "2005-110",
      "city": "ALMOSTER STR",
      "lon": "-8.778369552366694",
      "lat": "39.23187177598997"
    },
    {
      "id": "pt.ine.add.PTCONT.4553452",
      "street": "R 1 DE MAIO",
      "house": "4",
      "postcode": "2005-110",
      "city": "ALMOSTER STR",
      "lon": "-8.775594221706218",
      "lat": "39.22979742853673"
    },
    {
      "id": "pt.ine.add.PTCONT.4575051",
      "street": "R 1 MAIO",
      "house": "16",
      "postcode": "2005-110",
      "city": "ALMOSTER STR",
      "lon": "-8.775303063582935",
      "lat": "39.22961888851259"
    },
    {
      "id": "pt.ine.add.PTCONT.4578413",
      "street": "R 1 DE MAIO",
      "house": "8",
      "postcode": "2005-110",
      "city": "ALMOSTER STR",
      "lon": "-8.776294651642852",
      "lat": "39.23040605809094"
    },
    {
      "id": "pt.ine.add.PTCONT.4580409",
      "street": "R CASAIS DE OLIVEIRA DO CABO",
      "house": "",
      "postcode": "2005-108",
      "city": "ALMOSTER STR",
      "lon": "-8.771385735233487",
      "lat": "39.234414278631164"
    },
    {
      "id": "pt.ine.add.PTCONT.4595240",
      "street": "R VÁRZEAS",
      "house": "",
      "postcode": "2005-110",
      "city": "ALMOSTER STR",
      "lon": "-8.777477274221186",
      "lat": "39.233083690719525"
    }
  ]
}