{
  "data": {
    "distrito": "Santarém",
    "concelho": "Santarém",
    "freguesia": "Almoster",
    "OBJECTID": 252,
    "BGRI2021": "14160600309",
    "DT21": "14",
    "DTMN21": "1416",
    "DTMNFR21": "141606",
    "DTMNFRSEC21": "141606003",
    "SECNUM21": "003",
    "SSNUM21": "09",
    "SECSSNUM21": "00309",
    "OBJECTID_1": 154277,
    "DT": "14",
    "CC": "16",
    "fr": "06",
    "SEC": "003",
    "SS": "09"
  },
  "addresses": [
    {
      "id": "pt.ine.add.PTCONT.4402443",
      "street": "R MATA 4",
      "house": "",
      "postcode": "2005-110",
      "city": "ALMOSTER STR",
      "lon": "-8.769529848924481",
      "lat": "39.24692652113364"
    },
    {
      "id": "pt.ine.add.PTCONT.4427232",
      "street": "",
      "house": "",
      "postcode": "2005-114",
      "city": "ALMOSTER STR",
      "lon": "-8.785920747011824",
      "lat": "39.24561982150417"
    },
    {
      "id": "pt.ine.add.PTCONT.4472541",
      "street": "R 10 DE JUNHO",
      "house": "",
      "postcode": "2005-107",
      "city": "ALMOSTER STR",
      "lon": "-8.772005426434207",
      "lat": "39.25038076012253"
    },
    {
      "id": "pt.ine.add.PTCONT.4531168",
      "street": "R 10 DE JUNHO",
      "house": "",
      "postcode": "2005-107",
      "city": "ALMOSTER STR",
      "lon": "-8.774938583515231",
      "lat": "39.24808579752767"
    },
    {
      "id": "pt.ine.add.PTCONT.4542927",
      "street": "R STA CLARA",
      "house": "",
      "postcode": "2005-111",
      "city": "ALMOSTER STR",
      "lon": "-8.774602565044649",
      "lat": "39.24171951657066"
    },
    {
      "id": "pt.ine.add.PTCONT.4628777",
      "street": "R FONTE DA BICA",
      "house": "",
      "postcode": "2005-107",
      "city": "ALMOSTER STR",
      "lon": "-8.785772585944235",
      "lat": "39.245881862234846"
    }
  ]
}