{
  "data": {
    "distrito": "Setúbal",
    "concelho": "Seixal",
    "freguesia": "Amora",
    "OBJECTID": 1403,
    "BGRI2021": "15100203703",
    "DT21": "15",
    "DTMN21": "1510",
    "DTMNFR21": "151002",
    "DTMNFRSEC21": "151002037",
    "SECNUM21": "037",
    "SSNUM21": "03",
    "SECSSNUM21": "03703",
    "OBJECTID_1": 168704,
    "DT": "15",
    "CC": "10",
    "fr": "02",
    "SEC": "037",
    "SS": "03"
  },
  "addresses": [
    {
      "id": "pt.ine.add.PTCONT.4697581",
      "street": "R FONTE DE PRATA",
      "house": "11",
      "postcode": "2845-447",
      "city": "AMORA",
      "lon": "-9.113944559960276",
      "lat": "38.62998476983851"
    },
    {
      "id": "pt.ine.add.PTCONT.4697582",
      "street": "R FONTE DE PRATA",
      "house": "11",
      "postcode": "2845-447",
      "city": "AMORA",
      "lon": "-9.113944559960276",
      "lat": "38.62998476983851"
    },
    {
      "id": "pt.ine.add.PTCONT.4697583",
      "street": "R FONTE DE PRATA",
      "house": "11",
      "postcode": "2845-447",
      "city": "AMORA",
      "lon": "-9.113944559960276",
      "lat": "38.62998476983851"
    },
    {
      "id": "pt.ine.add.PTCONT.4838127",
      "street": "R FONTE DE PRATA",
      "house": "13",
      "postcode": "2845-447",
      "city": "AMORA",
      "lon": "-9.113886288100439",
      "lat": "38.629922202152336"
    },
    {
      "id": "pt.ine.add.PTCONT.4861392",
      "street": "ANTIGA FÁBRICA DA CORTIÇA",
      "house": "",
      "postcode": "2845-542",
      "city": "AMORA",
      "lon": "-9.113962669950697",
      "lat": "38.630471051631964"
    },
    {
      "id": "pt.ine.add.PTCONT.4868264",
      "street": "AV SILVA GOMES",
      "house": "3",
      "postcode": "2845-416",
      "city": "AMORA",
      "lon": "-9.110368044118786",
      "lat": "38.625384569588604"
    },
    {
      "id": "pt.ine.add.PTCONT.4955174",
      "street": "AV SILVA GOMES",
      "house": "",
      "postcode": "2845-416",
      "city": "AMORA",
      "lon": "-9.109752166867281",
      "lat": "38.62230896194029"
    },
    {
      "id": "pt.ine.add.PTCONT.4987811",
      "street": "R PORTO DA RAPOSA",
      "house": "19",
      "postcode": "2845-542",
      "city": "AMORA",
      "lon": "-9.109411513640481",
      "lat": "38.6217442982057"
    },
    {
      "id": "pt.ine.add.PTCONT.5003993",
      "street": "R FONTE DE PRATA",
      "house": "7",
      "postcode": "2845-447",
      "city": "AMORA",
      "lon": "-9.114003568331542",
      "lat": "38.63010137950132"
    },
    {
      "id": "pt.ine.add.PTCONT.5003994",
      "street": "R FONTE DE PRATA",
      "house": "7",
      "postcode": "2845-447",
      "city": "AMORA",
      "lon": "-9.114003568331542",
      "lat": "38.63010137950132"
    },
    {
      "id": "pt.ine.add.PTCONT.5003995",
      "street": "R FONTE DE PRATA",
      "house": "7",
      "postcode": "2845-447",
      "city": "AMORA",
      "lon": "-9.114003568331542",
      "lat": "38.63010137950132"
    },
    {
      "id": "pt.ine.add.PTCONT.5003996",
      "street": "R FONTE DE PRATA",
      "house": "7",
      "postcode": "2845-447",
      "city": "AMORA",
      "lon": "-9.114003568331542",
      "lat": "38.63010137950132"
    },
    {
      "id": "pt.ine.add.PTCONT.5003997",
      "street": "R FONTE DE PRATA",
      "house": "7",
      "postcode": "2845-447",
      "city": "AMORA",
      "lon": "-9.114003568331542",
      "lat": "38.63010137950132"
    },
    {
      "id": "pt.ine.add.PTCONT.5003998",
      "street": "R FONTE DE PRATA",
      "house": "7",
      "postcode": "2845-447",
      "city": "AMORA",
      "lon": "-9.114003568331542",
      "lat": "38.63010137950132"
    },
    {
      "id": "pt.ine.add.PTCONT.5003999",
      "street": "R FONTE DE PRATA",
      "house": "7",
      "postcode": "2845-447",
      "city": "AMORA",
      "lon": "-9.114003568331542",
      "lat": "38.63010137950132"
    },
    {
      "id": "pt.ine.add.PTCONT.5004000",
      "street": "R FONTE DE PRATA",
      "house": "7",
      "postcode": "2845-447",
      "city": "AMORA",
      "lon": "-9.114003568331542",
      "lat": "38.63010137950132"
    },
    {
      "id": "pt.ine.add.PTCONT.5004001",
      "street": "R FONTE DE PRATA",
      "house": "7",
      "postcode": "2845-447",
      "city": "AMORA",
      "lon": "-9.114003568331542",
      "lat": "38.63010137950132"
    },
    {
      "id": "pt.ine.add.PTCONT.5004032",
      "street": "R FONTE DE PRATA",
      "house": "7",
      "postcode": "2845-447",
      "city": "AMORA",
      "lon": "-9.114003568331542",
      "lat": "38.63010137950132"
    }
  ]
}