{
  "data": {
    "distrito": "Viana do Castelo",
    "concelho": "Ponte de Lima",
    "freguesia": "Brandara",
    "OBJECTID": 1698,
    "BGRI2021": "16071000105",
    "DT21": "16",
    "DTMN21": "1607",
    "DTMNFR21": "160710",
    "DTMNFRSEC21": "160710001",
    "SECNUM21": "001",
    "SSNUM21": "05",
    "SECSSNUM21": "00105",
    "OBJECTID_1": 176272,
    "DT": "16",
    "CC": "07",
    "fr": "10",
    "SEC": "001",
    "SS": "05"
  },
  "addresses": [
    {
      "id": "pt.ine.add.PTCONT.5155377",
      "street": "R FONTE DA MUCHACHA",
      "house": "",
      "postcode": "4990-560",
      "city": "BRANDARA",
      "lon": "-8.575557926817895",
      "lat": "41.78581098366171"
    },
    {
      "id": "pt.ine.add.PTCONT.5156969",
      "street": "R BARROSAS",
      "house": "",
      "postcode": "4990-560",
      "city": "BRANDARA",
      "lon": "-8.577112147925723",
      "lat": "41.78790277252823"
    },
    {
      "id": "pt.ine.add.PTCONT.5199778",
      "street": "R MONTINHO",
      "house": "",
      "postcode": "4990-560",
      "city": "BRANDARA",
      "lon": "-8.577853320352174",
      "lat": "41.78722465299579"
    },
    {
      "id": "pt.ine.add.PTCONT.5213051",
      "street": "R MONTINHO",
      "house": "",
      "postcode": "4990-560",
      "city": "BRANDARA",
      "lon": "-8.575401236800614",
      "lat": "41.78576657015421"
    },
    {
      "id": "pt.ine.add.PTCONT.5215408",
      "street": "R MONTINHO",
      "house": "",
      "postcode": "4990-560",
      "city": "BRANDARA",
      "lon": "-8.577193808136624",
      "lat": "41.787533318797614"
    },
    {
      "id": "pt.ine.add.PTCONT.5256393",
      "street": "R S TIAGO DE BRANDARA",
      "house": "",
      "postcode": "4990-560",
      "city": "BRANDARA",
      "lon": "-8.577629636529581",
      "lat": "41.786190131198005"
    }
  ]
}