{
  "data": {
    "distrito": "Beja",
    "concelho": "Alvito",
    "freguesia": "Vila Nova da Baronia",
    "OBJECTID": 52,
    "BGRI2021": "02030200201",
    "DT21": "02",
    "DTMN21": "0203",
    "DTMNFR21": "020302",
    "DTMNFRSEC21": "020302002",
    "SECNUM21": "002",
    "SSNUM21": "01",
    "SECSSNUM21": "00201",
    "OBJECTID_1": 13249,
    "DT": "02",
    "CC": "03",
    "fr": "02",
    "SEC": "002",
    "SS": "01"
  },
  "addresses": [
    {
      "id": "pt.ine.add.PTCONT.458208",
      "street": "FTE PASTORES",
      "house": "",
      "postcode": "7920-301",
      "city": "VILA NOVA DA BARONIA",
      "lon": "-8.015332499624625",
      "lat": "38.28769302674854"
    },
    {
      "id": "pt.ine.add.PTCONT.354726",
      "street": "MTE SERRA",
      "house": "",
      "postcode": "7920-301",
      "city": "VILA NOVA DA BARONIA",
      "lon": "-8.012064779879847",
      "lat": "38.27314940242507"
    },
    {
      "id": "pt.ine.add.PTCONT.357179",
      "street": "VIVENDA CLARISSE",
      "house": "",
      "postcode": "7920-301",
      "city": "VILA NOVA DA BARONIA",
      "lon": "-8.010454142883846",
      "lat": "38.2863276919871"
    },
    {
      "id": "pt.ine.add.PTCONT.357741",
      "street": "MTE SERRA",
      "house": "",
      "postcode": "7920-301",
      "city": "VILA NOVA DA BARONIA",
      "lon": "-8.017186079322654",
      "lat": "38.28649669589777"
    },
    {
      "id": "pt.ine.add.PTCONT.362865",
      "street": "MTE SIMÃ•ES",
      "house": "",
      "postcode": "7920-301",
      "city": "VILA NOVA DA BARONIA",
      "lon": "-8.018606249781927",
      "lat": "38.27739914474325"
    },
    {
      "id": "pt.ine.add.PTCONT.369171",
      "street": "MTE SERRA",
      "house": "",
      "postcode": "7920-301",
      "city": "VILA NOVA DA BARONIA",
      "lon": "-8.015128551797503",
      "lat": "38.28658473341758"
    },
    {
      "id": "pt.ine.add.PTCONT.372669",
      "street": "MTE SERRA",
      "house": "",
      "postcode": "7920-301",
      "city": "VILA NOVA DA BARONIA",
      "lon": "-8.00517759289394",
      "lat": "38.27750238687852"
    },
    {
      "id": "pt.ine.add.PTCONT.435829",
      "street": "MTE MOINHO",
      "house": "",
      "postcode": "7920-301",
      "city": "VILA NOVA DA BARONIA",
      "lon": "-8.014093137096587",
      "lat": "38.28370085503202"
    },
    {
      "id": "pt.ine.add.PTCONT.443043",
      "street": "MTE CALCADINHA",
      "house": "",
      "postcode": "7920-301",
      "city": "VILA NOVA DA BARONIA",
      "lon": "-8.030206760445292",
      "lat": "38.28507643096329"
    }
  ]
}