{
  "data": {
    "distrito": "Beja",
    "concelho": "Alvito",
    "freguesia": "Vila Nova da Baronia",
    "OBJECTID": 81,
    "BGRI2021": "02030200218",
    "DT21": "02",
    "DTMN21": "0203",
    "DTMNFR21": "020302",
    "DTMNFRSEC21": "020302002",
    "SECNUM21": "002",
    "SSNUM21": "18",
    "SECSSNUM21": "00218",
    "OBJECTID_1": 13216,
    "DT": "02",
    "CC": "03",
    "fr": "02",
    "SEC": "002",
    "SS": "18"
  },
  "addresses": [
    {
      "id": "pt.ine.add.PTCONT.458328",
      "street": "HORTA DA ESTEBAINHA",
      "house": "",
      "postcode": "7920-301",
      "city": "VILA NOVA DA BARONIA",
      "lon": "-8.03689964371407",
      "lat": "38.29746026187366"
    },
    {
      "id": "pt.ine.add.PTCONT.362258",
      "street": "HORTA DA ESTEBAINHA",
      "house": "",
      "postcode": "7920-301",
      "city": "VILA NOVA DA BARONIA",
      "lon": "-8.03537887497417",
      "lat": "38.29772926986768"
    },
    {
      "id": "pt.ine.add.PTCONT.384304",
      "street": "QTA JOSÃ‰ SALDANHA DA SILVA",
      "house": "",
      "postcode": "7920-301",
      "city": "VILA NOVA DA BARONIA",
      "lon": "-8.03331944737853",
      "lat": "38.29898877277399"
    },
    {
      "id": "pt.ine.add.PTCONT.411463",
      "street": "HORTA ACAMINHO DE VIANA",
      "house": "",
      "postcode": "7920-301",
      "city": "VILA NOVA DA BARONIA",
      "lon": "-8.034708908334338",
      "lat": "38.294395440302154"
    },
    {
      "id": "pt.ine.add.PTCONT.420259",
      "street": "ACSS AO",
      "house": "",
      "postcode": "7920-301",
      "city": "VILA NOVA DA BARONIA",
      "lon": "-8.032211592095106",
      "lat": "38.29824009207806"
    },
    {
      "id": "pt.ine.add.PTCONT.426783",
      "street": "MTE DOS FAMAIS",
      "house": "",
      "postcode": "7920-301",
      "city": "VILA NOVA DA BARONIA",
      "lon": "-8.028301222245958",
      "lat": "38.30667793398634"
    },
    {
      "id": "pt.ine.add.PTCONT.432066",
      "street": "SIT ACAMINHO VIANA",
      "house": "",
      "postcode": "7920-301",
      "city": "VILA NOVA DA BARONIA",
      "lon": "-8.03438721292171",
      "lat": "38.2955933455185"
    },
    {
      "id": "pt.ine.add.PTCONT.443086",
      "street": "QTA DOS SACRIFICIOS",
      "house": "",
      "postcode": "7920-301",
      "city": "VILA NOVA DA BARONIA",
      "lon": "-8.032098523648786",
      "lat": "38.29733911140365"
    },
    {
      "id": "pt.ine.add.PTCONT.443601",
      "street": "GUARDA DO SOBRAL",
      "house": "",
      "postcode": "7920-301",
      "city": "VILA NOVA DA BARONIA",
      "lon": "-8.037223797691487",
      "lat": "38.303055010857115"
    }
  ]
}