{
  "data": {
    "distrito": "Viseu",
    "concelho": "Cinfães",
    "freguesia": "Cinfães",
    "OBJECTID": 61,
    "BGRI2021": "18040300337",
    "DT21": "18",
    "DTMN21": "1804",
    "DTMNFR21": "180403",
    "DTMNFRSEC21": "180403003",
    "SECNUM21": "003",
    "SSNUM21": "37",
    "SECSSNUM21": "00337",
    "OBJECTID_1": 190217,
    "DT": "18",
    "CC": "04",
    "fr": "03",
    "SEC": "003",
    "SS": "37"
  },
  "addresses": [
    {
      "id": "pt.ine.add.PTCONT.5535379",
      "street": "R VENTOZELA",
      "house": "",
      "postcode": "4690-069",
      "city": "CINFÃES",
      "lon": "-8.098018191490464",
      "lat": "41.096622466749146"
    },
    {
      "id": "pt.ine.add.PTCONT.5556356",
      "street": "R SOUTO DO RIO",
      "house": "3737",
      "postcode": "4690-069",
      "city": "CINFÃES",
      "lon": "-8.094102270172945",
      "lat": "41.09632405965951"
    },
    {
      "id": "pt.ine.add.PTCONT.5562849",
      "street": "R SOUTO DO RIO CASA DO OLIVAL",
      "house": "3669",
      "postcode": "4690-069",
      "city": "CINFÃES",
      "lon": "-8.092233709390438",
      "lat": "41.09599024601133"
    },
    {
      "id": "pt.ine.add.PTCONT.5624966",
      "street": "R CASAL CASA DA VENTOZELA",
      "house": "",
      "postcode": "4690-019",
      "city": "CINFÃES",
      "lon": "-8.095518693613654",
      "lat": "41.09637855735926"
    },
    {
      "id": "pt.ine.add.PTCONT.5626519",
      "street": "R CASAL CASA DA VENTOZELA",
      "house": "",
      "postcode": "4690-019",
      "city": "CINFÃES",
      "lon": "-8.095518693613654",
      "lat": "41.09637855735926"
    },
    {
      "id": "pt.ine.add.PTCONT.5627806",
      "street": "R VENTOZELA",
      "house": "",
      "postcode": "4690-069",
      "city": "CINFÃES",
      "lon": "-8.098231822130478",
      "lat": "41.09780211891359"
    }
  ]
}