{
  "data": {
    "distrito": "Santarém",
    "concelho": "Ourém",
    "freguesia": "Nossa Senhora da Piedade",
    "OBJECTID": 906,
    "BGRI2021": "14211500608",
    "DT21": "14",
    "DTMN21": "1421",
    "DTMNFR21": "142115",
    "DTMNFRSEC21": "142115006",
    "SECNUM21": "006",
    "SSNUM21": "08",
    "SECSSNUM21": "00608",
    "OBJECTID_1": 158877,
    "DT": "14",
    "CC": "21",
    "fr": "15",
    "SEC": "006",
    "SS": "08"
  },
  "addresses": [
    {
      "id": "pt.ine.add.PTCONT.4435044",
      "street": "URB QUINTA DO VALE",
      "house": "34",
      "postcode": "2490-677",
      "city": "OURÉM",
      "lon": "-8.571340074766026",
      "lat": "39.6605685005504"
    },
    {
      "id": "pt.ine.add.PTCONT.4435045",
      "street": "URB QUINTA DO VALE",
      "house": "34",
      "postcode": "2490-677",
      "city": "OURÉM",
      "lon": "-8.571340074766026",
      "lat": "39.6605685005504"
    },
    {
      "id": "pt.ine.add.PTCONT.4435046",
      "street": "URB QUINTA DO VALE",
      "house": "34",
      "postcode": "2490-677",
      "city": "OURÉM",
      "lon": "-8.571340074766026",
      "lat": "39.6605685005504"
    },
    {
      "id": "pt.ine.add.PTCONT.4435047",
      "street": "URB QUINTA DO VALE",
      "house": "34",
      "postcode": "2490-677",
      "city": "OURÉM",
      "lon": "-8.571340074766026",
      "lat": "39.6605685005504"
    },
    {
      "id": "pt.ine.add.PTCONT.4436210",
      "street": "URB QUINTA DO VALE",
      "house": "34",
      "postcode": "2490-677",
      "city": "OURÉM",
      "lon": "-8.571340074766026",
      "lat": "39.6605685005504"
    },
    {
      "id": "pt.ine.add.PTCONT.4452629",
      "street": "R LUIS FERNANDES DE CARVALHO E REIS",
      "house": "74",
      "postcode": "2490-546",
      "city": "OURÉM",
      "lon": "-8.573404980292166",
      "lat": "39.65910160903954"
    },
    {
      "id": "pt.ine.add.PTCONT.4452630",
      "street": "R LUIS FERNANDES DE CARVALHO E REIS",
      "house": "74",
      "postcode": "2490-546",
      "city": "OURÉM",
      "lon": "-8.573404980292166",
      "lat": "39.65910160903954"
    },
    {
      "id": "pt.ine.add.PTCONT.4452631",
      "street": "R LUIS FERNANDES DE CARVALHO E REIS",
      "house": "74",
      "postcode": "2490-546",
      "city": "OURÉM",
      "lon": "-8.573404980292166",
      "lat": "39.65910160903954"
    },
    {
      "id": "pt.ine.add.PTCONT.4452632",
      "street": "R LUIS FERNANDES DE CARVALHO E REIS",
      "house": "74",
      "postcode": "2490-546",
      "city": "OURÉM",
      "lon": "-8.573404980292166",
      "lat": "39.65910160903954"
    },
    {
      "id": "pt.ine.add.PTCONT.4452633",
      "street": "R LUIS FERNANDES DE CARVALHO E REIS",
      "house": "74",
      "postcode": "2490-546",
      "city": "OURÉM",
      "lon": "-8.573404980292166",
      "lat": "39.65910160903954"
    },
    {
      "id": "pt.ine.add.PTCONT.4452749",
      "street": "R LUIS FERNANDES DE CARVALHO E REIS",
      "house": "74",
      "postcode": "2490-546",
      "city": "OURÉM",
      "lon": "-8.573404980292166",
      "lat": "39.65910160903954"
    },
    {
      "id": "pt.ine.add.PTCONT.4454582",
      "street": "R 1º DE DEZEMBRO",
      "house": "119",
      "postcode": "2490-506",
      "city": "OURÉM",
      "lon": "-8.571339449035548",
      "lat": "39.66046942945117"
    },
    {
      "id": "pt.ine.add.PTCONT.4454583",
      "street": "R 1º DE DEZEMBRO",
      "house": "119",
      "postcode": "2490-506",
      "city": "OURÉM",
      "lon": "-8.571339449035548",
      "lat": "39.66046942945117"
    },
    {
      "id": "pt.ine.add.PTCONT.4454584",
      "street": "R 1º DE DEZEMBRO",
      "house": "119",
      "postcode": "2490-506",
      "city": "OURÉM",
      "lon": "-8.571339449035548",
      "lat": "39.66046942945117"
    },
    {
      "id": "pt.ine.add.PTCONT.4454585",
      "street": "R 1º DE DEZEMBRO",
      "house": "119",
      "postcode": "2490-506",
      "city": "OURÉM",
      "lon": "-8.571339449035548",
      "lat": "39.66046942945117"
    },
    {
      "id": "pt.ine.add.PTCONT.4454781",
      "street": "R 1º DE DEZEMBRO",
      "house": "119",
      "postcode": "2490-506",
      "city": "OURÉM",
      "lon": "-8.571339449035548",
      "lat": "39.66046942945117"
    },
    {
      "id": "pt.ine.add.PTCONT.4454935",
      "street": "R 1º DE DEZEMBRO",
      "house": "119",
      "postcode": "2490-506",
      "city": "OURÉM",
      "lon": "-8.571339449035548",
      "lat": "39.66046942945117"
    },
    {
      "id": "pt.ine.add.PTCONT.4486447",
      "street": "R 1 DE DEZEMBRO",
      "house": "",
      "postcode": "2490-999",
      "city": "OURÉM",
      "lon": "-8.573321471052369",
      "lat": "39.658795698457695"
    },
    {
      "id": "pt.ine.add.PTCONT.4486448",
      "street": "R 1 DE DEZEMBRO",
      "house": "",
      "postcode": "2490-999",
      "city": "OURÉM",
      "lon": "-8.573321471052369",
      "lat": "39.658795698457695"
    },
    {
      "id": "pt.ine.add.PTCONT.4486449",
      "street": "R 1 DE DEZEMBRO",
      "house": "",
      "postcode": "2490-999",
      "city": "OURÉM",
      "lon": "-8.573321471052369",
      "lat": "39.658795698457695"
    },
    {
      "id": "pt.ine.add.PTCONT.4486440",
      "street": "R 1 DE DEZEMBRO",
      "house": "",
      "postcode": "2490-999",
      "city": "OURÉM",
      "lon": "-8.573321471052369",
      "lat": "39.658795698457695"
    },
    {
      "id": "pt.ine.add.PTCONT.4486445",
      "street": "R 1 DE DEZEMBRO",
      "house": "",
      "postcode": "2490-999",
      "city": "OURÉM",
      "lon": "-8.573321471052369",
      "lat": "39.658795698457695"
    },
    {
      "id": "pt.ine.add.PTCONT.4486446",
      "street": "R 1 DE DEZEMBRO",
      "house": "",
      "postcode": "2490-999",
      "city": "OURÉM",
      "lon": "-8.573321471052369",
      "lat": "39.658795698457695"
    },
    {
      "id": "pt.ine.add.PTCONT.4490597",
      "street": "R JOSÉ RODRIGUES SIMÕES DE MELO",
      "house": "61",
      "postcode": "2490-999",
      "city": "OURÉM",
      "lon": "-8.57311349994399",
      "lat": "39.65907569360347"
    },
    {
      "id": "pt.ine.add.PTCONT.4490598",
      "street": "R JOSÉ RODRIGUES SIMÕES DE MELO",
      "house": "61",
      "postcode": "2490-999",
      "city": "OURÉM",
      "lon": "-8.57311349994399",
      "lat": "39.65907569360347"
    },
    {
      "id": "pt.ine.add.PTCONT.4490599",
      "street": "R JOSÉ RODRIGUES SIMÕES DE MELO",
      "house": "61",
      "postcode": "2490-999",
      "city": "OURÉM",
      "lon": "-8.57311349994399",
      "lat": "39.65907569360347"
    },
    {
      "id": "pt.ine.add.PTCONT.4490600",
      "street": "R JOSÉ RODRIGUES SIMÕES DE MELO",
      "house": "61",
      "postcode": "2490-999",
      "city": "OURÉM",
      "lon": "-8.57311349994399",
      "lat": "39.65907569360347"
    },
    {
      "id": "pt.ine.add.PTCONT.4490601",
      "street": "R JOSÉ RODRIGUES SIMÕES DE MELO",
      "house": "61",
      "postcode": "2490-999",
      "city": "OURÉM",
      "lon": "-8.57311349994399",
      "lat": "39.65907569360347"
    },
    {
      "id": "pt.ine.add.PTCONT.4490602",
      "street": "R JOSÉ RODRIGUES SIMÕES DE MELO",
      "house": "61",
      "postcode": "2490-999",
      "city": "OURÉM",
      "lon": "-8.57311349994399",
      "lat": "39.65907569360347"
    },
    {
      "id": "pt.ine.add.PTCONT.4503995",
      "street": "R LUIS FERNANDES DE CARVALHO E REIS",
      "house": "90",
      "postcode": "2490-546",
      "city": "OURÉM",
      "lon": "-8.573533956584946",
      "lat": "39.65922721355029"
    },
    {
      "id": "pt.ine.add.PTCONT.4503996",
      "street": "R LUIS FERNANDES DE CARVALHO E REIS",
      "house": "90",
      "postcode": "2490-546",
      "city": "OURÉM",
      "lon": "-8.573533956584946",
      "lat": "39.65922721355029"
    },
    {
      "id": "pt.ine.add.PTCONT.4503997",
      "street": "R LUIS FERNANDES DE CARVALHO E REIS",
      "house": "90",
      "postcode": "2490-546",
      "city": "OURÉM",
      "lon": "-8.573533956584946",
      "lat": "39.65922721355029"
    },
    {
      "id": "pt.ine.add.PTCONT.4503998",
      "street": "R LUIS FERNANDES DE CARVALHO E REIS",
      "house": "90",
      "postcode": "2490-546",
      "city": "OURÉM",
      "lon": "-8.573533956584946",
      "lat": "39.65922721355029"
    },
    {
      "id": "pt.ine.add.PTCONT.4503999",
      "street": "R LUIS FERNANDES DE CARVALHO E REIS",
      "house": "90",
      "postcode": "2490-546",
      "city": "OURÉM",
      "lon": "-8.573533956584946",
      "lat": "39.65922721355029"
    },
    {
      "id": "pt.ine.add.PTCONT.4504954",
      "street": "R LUIS FERNANDES DE CARVALHO E REIS",
      "house": "90",
      "postcode": "2490-546",
      "city": "OURÉM",
      "lon": "-8.573533956584946",
      "lat": "39.65922721355029"
    },
    {
      "id": "pt.ine.add.PTCONT.4515296",
      "street": "R JOSÉ RODRIGUES SIMÕES DE MELO",
      "house": "79",
      "postcode": "2490-999",
      "city": "OURÉM",
      "lon": "-8.573230937541155",
      "lat": "39.659219355524286"
    },
    {
      "id": "pt.ine.add.PTCONT.4515297",
      "street": "R JOSÉ RODRIGUES SIMÕES DE MELO",
      "house": "79",
      "postcode": "2490-999",
      "city": "OURÉM",
      "lon": "-8.573230937541155",
      "lat": "39.659219355524286"
    },
    {
      "id": "pt.ine.add.PTCONT.4515298",
      "street": "R JOSÉ RODRIGUES SIMÕES DE MELO",
      "house": "79",
      "postcode": "2490-999",
      "city": "OURÉM",
      "lon": "-8.573230937541155",
      "lat": "39.659219355524286"
    },
    {
      "id": "pt.ine.add.PTCONT.4515299",
      "street": "R JOSÉ RODRIGUES SIMÕES DE MELO",
      "house": "79",
      "postcode": "2490-999",
      "city": "OURÉM",
      "lon": "-8.573230937541155",
      "lat": "39.659219355524286"
    },
    {
      "id": "pt.ine.add.PTCONT.4515300",
      "street": "R JOSÉ RODRIGUES SIMÕES DE MELO",
      "house": "79",
      "postcode": "2490-999",
      "city": "OURÉM",
      "lon": "-8.573230937541155",
      "lat": "39.659219355524286"
    },
    {
      "id": "pt.ine.add.PTCONT.4515301",
      "street": "R JOSÉ RODRIGUES SIMÕES DE MELO",
      "house": "79",
      "postcode": "2490-999",
      "city": "OURÉM",
      "lon": "-8.573230937541155",
      "lat": "39.659219355524286"
    },
    {
      "id": "pt.ine.add.PTCONT.4537652",
      "street": "R 1 DE DEZEMBRO",
      "house": "15",
      "postcode": "2490-506",
      "city": "OURÉM",
      "lon": "-8.572448973440752",
      "lat": "39.65902416909921"
    },
    {
      "id": "pt.ine.add.PTCONT.4587436",
      "street": "R DR ARMANDO HENRIQUES REIS VIEIRA",
      "house": "31",
      "postcode": "2490-546",
      "city": "OURÉM",
      "lon": "-8.571574094514046",
      "lat": "39.66072073084923"
    },
    {
      "id": "pt.ine.add.PTCONT.4587437",
      "street": "R DR ARMANDO HENRIQUES REIS VIEIRA",
      "house": "31",
      "postcode": "2490-546",
      "city": "OURÉM",
      "lon": "-8.571574094514046",
      "lat": "39.66072073084923"
    },
    {
      "id": "pt.ine.add.PTCONT.4587438",
      "street": "R DR ARMANDO HENRIQUES REIS VIEIRA",
      "house": "31",
      "postcode": "2490-546",
      "city": "OURÉM",
      "lon": "-8.571574094514046",
      "lat": "39.66072073084923"
    },
    {
      "id": "pt.ine.add.PTCONT.4587452",
      "street": "R DR ARMANDO HENRIQUES REIS VIEIRA",
      "house": "31",
      "postcode": "2490-546",
      "city": "OURÉM",
      "lon": "-8.571574094514046",
      "lat": "39.66072073084923"
    },
    {
      "id": "pt.ine.add.PTCONT.4587453",
      "street": "R DR ARMANDO HENRIQUES REIS VIEIRA",
      "house": "31",
      "postcode": "2490-546",
      "city": "OURÉM",
      "lon": "-8.571574094514046",
      "lat": "39.66072073084923"
    },
    {
      "id": "pt.ine.add.PTCONT.4587608",
      "street": "R DR ARMANDO HENRIQUES REIS VIEIRA",
      "house": "31",
      "postcode": "2490-546",
      "city": "OURÉM",
      "lon": "-8.571574094514046",
      "lat": "39.66072073084923"
    },
    {
      "id": "pt.ine.add.PTCONT.4662655",
      "street": "R 1º DE DEZEMBRO",
      "house": "119",
      "postcode": "2490-506",
      "city": "OURÉM",
      "lon": "-8.571339449035548",
      "lat": "39.66046942945117"
    }
  ]
}