{
  "data": {
    "distrito": "Santarém",
    "concelho": "Tomar",
    "freguesia": "União das freguesias de Serra e Junceira",
    "OBJECTID": 604,
    "BGRI2021": "14182000442",
    "DT21": "14",
    "DTMN21": "1418",
    "DTMNFR21": "141820",
    "DTMNFRSEC21": "141820004",
    "SECNUM21": "004",
    "SSNUM21": "42",
    "SECSSNUM21": "00442",
    "OBJECTID_1": 156739,
    "DT": "14",
    "CC": "18",
    "fr": "20",
    "SEC": "004",
    "SS": "42"
  },
  "addresses": [
    {
      "id": "pt.ine.add.PTCONT.4402257",
      "street": "R NSA SRA DA ASSUNÇÃO",
      "house": "14",
      "postcode": "2300-246",
      "city": "SERRA",
      "lon": "-8.274292230750245",
      "lat": "39.59593828973271"
    },
    {
      "id": "pt.ine.add.PTCONT.4438408",
      "street": "R NSA SRA ASSUNCAO",
      "house": "14 A",
      "postcode": "2300-246",
      "city": "SERRA",
      "lon": "-8.274526392780992",
      "lat": "39.59653068451484"
    },
    {
      "id": "pt.ine.add.PTCONT.4416871",
      "street": "R NSA SRA DA ASSUNÇÃO",
      "house": "",
      "postcode": "2300-246",
      "city": "SERRA",
      "lon": "-8.27453858271265",
      "lat": "39.59685668599992"
    },
    {
      "id": "pt.ine.add.PTCONT.4422865",
      "street": "ESTR PRINCIPAL",
      "house": "22",
      "postcode": "2300-246",
      "city": "SERRA",
      "lon": "-8.27275471663317",
      "lat": "39.5955618611412"
    },
    {
      "id": "pt.ine.add.PTCONT.4497875",
      "street": "R NSA SRA DA ASSUNÇÃO",
      "house": "",
      "postcode": "2300-246",
      "city": "SERRA",
      "lon": "-8.273931964619631",
      "lat": "39.59625396570897"
    },
    {
      "id": "pt.ine.add.PTCONT.4521603",
      "street": "ESTR PRINCIPAL",
      "house": "24",
      "postcode": "2300-246",
      "city": "SERRA",
      "lon": "-8.272451085806425",
      "lat": "39.5950938708071"
    },
    {
      "id": "pt.ine.add.PTCONT.4565726",
      "street": "R PRINCIPAL",
      "house": "18",
      "postcode": "2300-246",
      "city": "SERRA",
      "lon": "-8.274348703431446",
      "lat": "39.59508257286588"
    },
    {
      "id": "pt.ine.add.PTCONT.4605671",
      "street": "ESTR PRINCIPAL",
      "house": "19",
      "postcode": "2300-246",
      "city": "SERRA",
      "lon": "-8.274116138629344",
      "lat": "39.59521795768441"
    },
    {
      "id": "pt.ine.add.PTCONT.4607417",
      "street": "ESTR PRINCIPAL",
      "house": "21",
      "postcode": "2300-246",
      "city": "SERRA",
      "lon": "-8.273126789705199",
      "lat": "39.59532723596511"
    },
    {
      "id": "pt.ine.add.PTCONT.4660365",
      "street": "R NSA SRA DA ASSUNÇÃO",
      "house": "",
      "postcode": "2300-246",
      "city": "SERRA",
      "lon": "-8.274395655421943",
      "lat": "39.59527165908985"
    }
  ]
}