{
  "data": {
    "distrito": "Aveiro",
    "concelho": "Estarreja",
    "freguesia": "União das freguesias de Beduído e Veiros",
    "OBJECTID": 324,
    "BGRI2021": "01080800303",
    "DT21": "01",
    "DTMN21": "0108",
    "DTMNFR21": "010808",
    "DTMNFRSEC21": "010808003",
    "SECNUM21": "003",
    "SSNUM21": "03",
    "SECSSNUM21": "00303",
    "OBJECTID_1": 4896,
    "DT": "01",
    "CC": "08",
    "fr": "08",
    "SEC": "003",
    "SS": "03"
  },
  "addresses": [
    {
      "id": "pt.ine.add.PTCONT.325608",
      "street": "TV OUTEIRO MARINHA",
      "house": "129",
      "postcode": "3860-253",
      "city": "ESTARREJA",
      "lon": "-8.574353804839113",
      "lat": "40.750433988098386"
    },
    {
      "id": "pt.ine.add.PTCONT.338368",
      "street": "TV OUTEIRO MARINHA",
      "house": "77",
      "postcode": "3860-253",
      "city": "ESTARREJA",
      "lon": "-8.574197316657154",
      "lat": "40.75004737182183"
    },
    {
      "id": "pt.ine.add.PTCONT.340936",
      "street": "R DR DIONISIO MOURA",
      "house": "73",
      "postcode": "3860-252",
      "city": "ESTARREJA",
      "lon": "-8.57455211967605",
      "lat": "40.749982980397284"
    },
    {
      "id": "pt.ine.add.PTCONT.27395",
      "street": "R DR DIONISIO MOURA",
      "house": "23",
      "postcode": "3860-252",
      "city": "ESTARREJA",
      "lon": "-8.574395393311793",
      "lat": "40.74956034531822"
    },
    {
      "id": "pt.ine.add.PTCONT.58039",
      "street": "AV VISC SALREU",
      "house": "317",
      "postcode": "3860-353",
      "city": "ESTARREJA",
      "lon": "-8.574572595759953",
      "lat": "40.75128862509854"
    },
    {
      "id": "pt.ine.add.PTCONT.65520",
      "street": "R DR DIONÍSIO MOURA",
      "house": "3 C",
      "postcode": "3860-252",
      "city": "ESTARREJA",
      "lon": "-8.574937934539086",
      "lat": "40.75102608251185"
    },
    {
      "id": "pt.ine.add.PTCONT.65521",
      "street": "R DR DIONÍSIO MOURA",
      "house": "3 C",
      "postcode": "3860-252",
      "city": "ESTARREJA",
      "lon": "-8.574937934539086",
      "lat": "40.75102608251185"
    },
    {
      "id": "pt.ine.add.PTCONT.65652",
      "street": "R DR DIONÍSIO MOURA",
      "house": "3 C",
      "postcode": "3860-252",
      "city": "ESTARREJA",
      "lon": "-8.574937934539086",
      "lat": "40.75102608251185"
    },
    {
      "id": "pt.ine.add.PTCONT.65653",
      "street": "R DR DIONÍSIO MOURA",
      "house": "3 C",
      "postcode": "3860-252",
      "city": "ESTARREJA",
      "lon": "-8.574937934539086",
      "lat": "40.75102608251185"
    },
    {
      "id": "pt.ine.add.PTCONT.65654",
      "street": "R DR DIONÍSIO MOURA",
      "house": "3 C",
      "postcode": "3860-252",
      "city": "ESTARREJA",
      "lon": "-8.574937934539086",
      "lat": "40.75102608251185"
    },
    {
      "id": "pt.ine.add.PTCONT.65655",
      "street": "R DR DIONÍSIO MOURA",
      "house": "3 C",
      "postcode": "3860-252",
      "city": "ESTARREJA",
      "lon": "-8.574937934539086",
      "lat": "40.75102608251185"
    },
    {
      "id": "pt.ine.add.PTCONT.65656",
      "street": "R DR DIONÍSIO MOURA",
      "house": "3 C",
      "postcode": "3860-252",
      "city": "ESTARREJA",
      "lon": "-8.574937934539086",
      "lat": "40.75102608251185"
    },
    {
      "id": "pt.ine.add.PTCONT.66474",
      "street": "R DR DIONÍSIO MOURA",
      "house": "3 C",
      "postcode": "3860-252",
      "city": "ESTARREJA",
      "lon": "-8.574937934539086",
      "lat": "40.75102608251185"
    },
    {
      "id": "pt.ine.add.PTCONT.108246",
      "street": "R DR DIONISIO MOURA",
      "house": "15",
      "postcode": "3860-252",
      "city": "ESTARREJA",
      "lon": "-8.574347435780346",
      "lat": "40.74947047879041"
    },
    {
      "id": "pt.ine.add.PTCONT.142764",
      "street": "R DR ANTÓNIO ABREU FREIRE",
      "house": "127",
      "postcode": "3860-251",
      "city": "ESTARREJA",
      "lon": "-8.574226948780352",
      "lat": "40.75094775723407"
    },
    {
      "id": "pt.ine.add.PTCONT.145901",
      "street": "R DR MANUEL BARBOSA",
      "house": "320",
      "postcode": "3860-373",
      "city": "ESTARREJA",
      "lon": "-8.574051183831369",
      "lat": "40.749435591039564"
    },
    {
      "id": "pt.ine.add.PTCONT.145902",
      "street": "R DR MANUEL BARBOSA",
      "house": "320",
      "postcode": "3860-373",
      "city": "ESTARREJA",
      "lon": "-8.574051183831369",
      "lat": "40.749435591039564"
    },
    {
      "id": "pt.ine.add.PTCONT.183649",
      "street": "R DR DIONISIO MOURA",
      "house": "90",
      "postcode": "3860-252",
      "city": "ESTARREJA",
      "lon": "-8.574446446870724",
      "lat": "40.75011845933774"
    },
    {
      "id": "pt.ine.add.PTCONT.217605",
      "street": "TV OUTEIRO DA MARINHA",
      "house": "",
      "postcode": "3860-253",
      "city": "ESTARREJA",
      "lon": "-8.573969727265675",
      "lat": "40.74965202192896"
    },
    {
      "id": "pt.ine.add.PTCONT.222966",
      "street": "R DR ANTÓNIO ABREU FREIRE",
      "house": "175",
      "postcode": "3860-251",
      "city": "ESTARREJA",
      "lon": "-8.574371598400113",
      "lat": "40.75133441867"
    },
    {
      "id": "pt.ine.add.PTCONT.261838",
      "street": "R DR DIONISIO MOURA",
      "house": "16",
      "postcode": "3860-252",
      "city": "ESTARREJA",
      "lon": "-8.574206003591334",
      "lat": "40.74957007427407"
    },
    {
      "id": "pt.ine.add.PTCONT.262329",
      "street": "R DR DIONISIO MOURA",
      "house": "16",
      "postcode": "3860-252",
      "city": "ESTARREJA",
      "lon": "-8.574206003591334",
      "lat": "40.74957007427407"
    },
    {
      "id": "pt.ine.add.PTCONT.269035",
      "street": "TV OUTEIRO MARINHA",
      "house": "71",
      "postcode": "3860-253",
      "city": "ESTARREJA",
      "lon": "-8.574161199682987",
      "lat": "40.7499574599721"
    }
  ]
}