{
  "data": {
    "distrito": "Lisboa",
    "concelho": "Lisboa",
    "freguesia": "Santa Maria Maior",
    "OBJECTID": 2425,
    "BGRI2021": "11066501603",
    "DT21": "11",
    "DTMN21": "1106",
    "DTMNFR21": "110665",
    "DTMNFRSEC21": "110665016",
    "SECNUM21": "016",
    "SSNUM21": "03",
    "SECSSNUM21": "01603",
    "OBJECTID_1": 104228,
    "DT": "11",
    "CC": "06",
    "fr": "65",
    "SEC": "016",
    "SS": "03"
  },
  "addresses": [
    {
      "id": "pt.ine.add.PTCONT.2407773",
      "street": "R AUGUSTA",
      "house": "246",
      "postcode": "1100-056",
      "city": "LISBOA",
      "lon": "-9.138164753372651",
      "lat": "38.712210994673995"
    },
    {
      "id": "pt.ine.add.PTCONT.2407774",
      "street": "R AUGUSTA",
      "house": "246",
      "postcode": "1100-056",
      "city": "LISBOA",
      "lon": "-9.138164753372651",
      "lat": "38.712210994673995"
    },
    {
      "id": "pt.ine.add.PTCONT.2407775",
      "street": "R AUGUSTA",
      "house": "246",
      "postcode": "1100-056",
      "city": "LISBOA",
      "lon": "-9.138164753372651",
      "lat": "38.712210994673995"
    },
    {
      "id": "pt.ine.add.PTCONT.2407776",
      "street": "R AUGUSTA",
      "house": "246",
      "postcode": "1100-056",
      "city": "LISBOA",
      "lon": "-9.138164753372651",
      "lat": "38.712210994673995"
    },
    {
      "id": "pt.ine.add.PTCONT.2935270",
      "street": "R CORREEIROS",
      "house": "171",
      "postcode": "1100-164",
      "city": "LISBOA",
      "lon": "-9.137852480248727",
      "lat": "38.71207856027861"
    },
    {
      "id": "pt.ine.add.PTCONT.2935271",
      "street": "R CORREEIROS",
      "house": "171",
      "postcode": "1100-164",
      "city": "LISBOA",
      "lon": "-9.137852480248727",
      "lat": "38.71207856027861"
    },
    {
      "id": "pt.ine.add.PTCONT.2935272",
      "street": "R CORREEIROS",
      "house": "171",
      "postcode": "1100-164",
      "city": "LISBOA",
      "lon": "-9.137852480248727",
      "lat": "38.71207856027861"
    },
    {
      "id": "pt.ine.add.PTCONT.2998847",
      "street": "R CORREEIROS",
      "house": "161",
      "postcode": "1100-164",
      "city": "LISBOA",
      "lon": "-9.137827849949504",
      "lat": "38.71196166932994"
    },
    {
      "id": "pt.ine.add.PTCONT.2998848",
      "street": "R CORREEIROS",
      "house": "161",
      "postcode": "1100-164",
      "city": "LISBOA",
      "lon": "-9.137827849949504",
      "lat": "38.71196166932994"
    },
    {
      "id": "pt.ine.add.PTCONT.2998849",
      "street": "R CORREEIROS",
      "house": "161",
      "postcode": "1100-164",
      "city": "LISBOA",
      "lon": "-9.137827849949504",
      "lat": "38.71196166932994"
    },
    {
      "id": "pt.ine.add.PTCONT.2998972",
      "street": "R CORREEIROS",
      "house": "161",
      "postcode": "1100-164",
      "city": "LISBOA",
      "lon": "-9.137827849949504",
      "lat": "38.71196166932994"
    },
    {
      "id": "pt.ine.add.PTCONT.3029579",
      "street": "R CORREEIROS",
      "house": "179",
      "postcode": "1100-164",
      "city": "LISBOA",
      "lon": "-9.137899597496583",
      "lat": "38.71215922639483"
    },
    {
      "id": "pt.ine.add.PTCONT.3029580",
      "street": "R CORREEIROS",
      "house": "179",
      "postcode": "1100-164",
      "city": "LISBOA",
      "lon": "-9.137899597496583",
      "lat": "38.71215922639483"
    },
    {
      "id": "pt.ine.add.PTCONT.3029581",
      "street": "R CORREEIROS",
      "house": "179",
      "postcode": "1100-164",
      "city": "LISBOA",
      "lon": "-9.137899597496583",
      "lat": "38.71215922639483"
    },
    {
      "id": "pt.ine.add.PTCONT.3029582",
      "street": "R CORREEIROS",
      "house": "179",
      "postcode": "1100-164",
      "city": "LISBOA",
      "lon": "-9.137899597496583",
      "lat": "38.71215922639483"
    },
    {
      "id": "pt.ine.add.PTCONT.3029584",
      "street": "R CORREEIROS",
      "house": "179",
      "postcode": "1100-164",
      "city": "LISBOA",
      "lon": "-9.137899597496583",
      "lat": "38.71215922639483"
    },
    {
      "id": "pt.ine.add.PTCONT.3126758",
      "street": "R CORREEIROS",
      "house": "183",
      "postcode": "1100-164",
      "city": "LISBOA",
      "lon": "-9.137958462682143",
      "lat": "38.71225780730763"
    },
    {
      "id": "pt.ine.add.PTCONT.3170533",
      "street": "R DE SANTA JUSTA",
      "house": "61",
      "postcode": "1100-483",
      "city": "LISBOA",
      "lon": "-9.138132032235365",
      "lat": "38.71233738644911"
    },
    {
      "id": "pt.ine.add.PTCONT.3170534",
      "street": "R DE SANTA JUSTA",
      "house": "61",
      "postcode": "1100-483",
      "city": "LISBOA",
      "lon": "-9.138132032235365",
      "lat": "38.71233738644911"
    },
    {
      "id": "pt.ine.add.PTCONT.3170535",
      "street": "R DE SANTA JUSTA",
      "house": "61",
      "postcode": "1100-483",
      "city": "LISBOA",
      "lon": "-9.138132032235365",
      "lat": "38.71233738644911"
    },
    {
      "id": "pt.ine.add.PTCONT.3173809",
      "street": "R DE SANTA JUSTA",
      "house": "61",
      "postcode": "1100-483",
      "city": "LISBOA",
      "lon": "-9.138132032235365",
      "lat": "38.71233738644911"
    },
    {
      "id": "pt.ine.add.PTCONT.3198794",
      "street": "R AUGUSTA",
      "house": "220",
      "postcode": "1100-056",
      "city": "LISBOA",
      "lon": "-9.13805788770847",
      "lat": "38.71196870017308"
    },
    {
      "id": "pt.ine.add.PTCONT.3366826",
      "street": "R ASSUNÇÃO",
      "house": "52",
      "postcode": "1100-042",
      "city": "LISBOA",
      "lon": "-9.137814084890614",
      "lat": "38.711799645537695"
    },
    {
      "id": "pt.ine.add.PTCONT.3451316",
      "street": "R CORREEIROS",
      "house": "179",
      "postcode": "1100-164",
      "city": "LISBOA",
      "lon": "-9.137899597496583",
      "lat": "38.71215922639483"
    },
    {
      "id": "pt.ine.add.PTCONT.3451563",
      "street": "R CORREEIROS",
      "house": "171",
      "postcode": "1100-164",
      "city": "LISBOA",
      "lon": "-9.137852480248727",
      "lat": "38.71207856027861"
    }
  ]
}