{
  "data": {
    "distrito": "Lisboa",
    "concelho": "Lisboa",
    "freguesia": "Santa Maria Maior",
    "OBJECTID": 2135,
    "BGRI2021": "11066501619",
    "DT21": "11",
    "DTMN21": "1106",
    "DTMNFR21": "110665",
    "DTMNFRSEC21": "110665016",
    "SECNUM21": "016",
    "SSNUM21": "19",
    "SECSSNUM21": "01619",
    "OBJECTID_1": 104944,
    "DT": "11",
    "CC": "06",
    "fr": "65",
    "SEC": "016",
    "SS": "19"
  },
  "addresses": [
    {
      "id": "pt.ine.add.PTCONT.2425332",
      "street": "R BARROS QUEIROS",
      "house": "30",
      "postcode": "1100-077",
      "city": "LISBOA",
      "lon": "-9.138413424374958",
      "lat": "38.714906922629055"
    },
    {
      "id": "pt.ine.add.PTCONT.2446392",
      "street": "R BARROS QUEIROS",
      "house": "16",
      "postcode": "1100-077",
      "city": "LISBOA",
      "lon": "-9.13816278586136",
      "lat": "38.71489878600754"
    },
    {
      "id": "pt.ine.add.PTCONT.2446393",
      "street": "R BARROS QUEIROS",
      "house": "16",
      "postcode": "1100-077",
      "city": "LISBOA",
      "lon": "-9.13816278586136",
      "lat": "38.71489878600754"
    },
    {
      "id": "pt.ine.add.PTCONT.2446394",
      "street": "R BARROS QUEIROS",
      "house": "16",
      "postcode": "1100-077",
      "city": "LISBOA",
      "lon": "-9.13816278586136",
      "lat": "38.71489878600754"
    },
    {
      "id": "pt.ine.add.PTCONT.2448506",
      "street": "R BARROS QUEIROS",
      "house": "16",
      "postcode": "1100-077",
      "city": "LISBOA",
      "lon": "-9.13816278586136",
      "lat": "38.71489878600754"
    },
    {
      "id": "pt.ine.add.PTCONT.2578968",
      "street": "TV NOVA DE S DOMINGOS",
      "house": "16",
      "postcode": "1100-372",
      "city": "LISBOA",
      "lon": "-9.137861642472307",
      "lat": "38.71437549383528"
    },
    {
      "id": "pt.ine.add.PTCONT.2578969",
      "street": "TV NOVA DE S DOMINGOS",
      "house": "16",
      "postcode": "1100-372",
      "city": "LISBOA",
      "lon": "-9.137861642472307",
      "lat": "38.71437549383528"
    },
    {
      "id": "pt.ine.add.PTCONT.2578970",
      "street": "TV NOVA DE S DOMINGOS",
      "house": "16",
      "postcode": "1100-372",
      "city": "LISBOA",
      "lon": "-9.137861642472307",
      "lat": "38.71437549383528"
    },
    {
      "id": "pt.ine.add.PTCONT.2578971",
      "street": "TV NOVA DE S DOMINGOS",
      "house": "16",
      "postcode": "1100-372",
      "city": "LISBOA",
      "lon": "-9.137861642472307",
      "lat": "38.71437549383528"
    },
    {
      "id": "pt.ine.add.PTCONT.2578972",
      "street": "TV NOVA DE S DOMINGOS",
      "house": "16",
      "postcode": "1100-372",
      "city": "LISBOA",
      "lon": "-9.137861642472307",
      "lat": "38.71437549383528"
    },
    {
      "id": "pt.ine.add.PTCONT.2578973",
      "street": "TV NOVA DE S DOMINGOS",
      "house": "16",
      "postcode": "1100-372",
      "city": "LISBOA",
      "lon": "-9.137861642472307",
      "lat": "38.71437549383528"
    },
    {
      "id": "pt.ine.add.PTCONT.2578974",
      "street": "TV NOVA DE S DOMINGOS",
      "house": "16",
      "postcode": "1100-372",
      "city": "LISBOA",
      "lon": "-9.137861642472307",
      "lat": "38.71437549383528"
    },
    {
      "id": "pt.ine.add.PTCONT.2578975",
      "street": "TV NOVA DE S DOMINGOS",
      "house": "16",
      "postcode": "1100-372",
      "city": "LISBOA",
      "lon": "-9.137861642472307",
      "lat": "38.71437549383528"
    },
    {
      "id": "pt.ine.add.PTCONT.2578976",
      "street": "TV NOVA DE S DOMINGOS",
      "house": "16",
      "postcode": "1100-372",
      "city": "LISBOA",
      "lon": "-9.137861642472307",
      "lat": "38.71437549383528"
    },
    {
      "id": "pt.ine.add.PTCONT.2578977",
      "street": "TV NOVA DE S DOMINGOS",
      "house": "16",
      "postcode": "1100-372",
      "city": "LISBOA",
      "lon": "-9.137861642472307",
      "lat": "38.71437549383528"
    },
    {
      "id": "pt.ine.add.PTCONT.2578978",
      "street": "TV NOVA DE S DOMINGOS",
      "house": "16",
      "postcode": "1100-372",
      "city": "LISBOA",
      "lon": "-9.137861642472307",
      "lat": "38.71437549383528"
    },
    {
      "id": "pt.ine.add.PTCONT.2578979",
      "street": "LG S DOMINGOS",
      "house": "17",
      "postcode": "1100-372",
      "city": "LISBOA",
      "lon": "-9.137861642472307",
      "lat": "38.71437549383528"
    },
    {
      "id": "pt.ine.add.PTCONT.2578980",
      "street": "TV NOVA DE S DOMINGOS",
      "house": "16",
      "postcode": "1100-372",
      "city": "LISBOA",
      "lon": "-9.137861642472307",
      "lat": "38.71437549383528"
    },
    {
      "id": "pt.ine.add.PTCONT.3046877",
      "street": "TV NOVA DE S DOMINGOS",
      "house": "34",
      "postcode": "1100-372",
      "city": "LISBOA",
      "lon": "-9.138297480037918",
      "lat": "38.71429968435296"
    },
    {
      "id": "pt.ine.add.PTCONT.3046878",
      "street": "LG REGEDOR",
      "house": "11",
      "postcode": "1150-277",
      "city": "LISBOA",
      "lon": "-9.138297480037918",
      "lat": "38.71429968435296"
    },
    {
      "id": "pt.ine.add.PTCONT.3046880",
      "street": "TV NOVA DE S DOMINGOS",
      "house": "34",
      "postcode": "1100-372",
      "city": "LISBOA",
      "lon": "-9.138297480037918",
      "lat": "38.71429968435296"
    },
    {
      "id": "pt.ine.add.PTCONT.3046881",
      "street": "TV NOVA DE S DOMINGOS",
      "house": "34",
      "postcode": "1100-372",
      "city": "LISBOA",
      "lon": "-9.138297480037918",
      "lat": "38.71429968435296"
    },
    {
      "id": "pt.ine.add.PTCONT.3046882",
      "street": "TV NOVA DE S DOMINGOS",
      "house": "34",
      "postcode": "1100-372",
      "city": "LISBOA",
      "lon": "-9.138297480037918",
      "lat": "38.71429968435296"
    },
    {
      "id": "pt.ine.add.PTCONT.3046883",
      "street": "TV NOVA DE S DOMINGOS",
      "house": "34",
      "postcode": "1100-372",
      "city": "LISBOA",
      "lon": "-9.138297480037918",
      "lat": "38.71429968435296"
    },
    {
      "id": "pt.ine.add.PTCONT.3046884",
      "street": "TV NOVA DE S DOMINGOS",
      "house": "34",
      "postcode": "1100-372",
      "city": "LISBOA",
      "lon": "-9.138297480037918",
      "lat": "38.71429968435296"
    },
    {
      "id": "pt.ine.add.PTCONT.3046885",
      "street": "TV NOVA DE S DOMINGOS",
      "house": "34",
      "postcode": "1100-372",
      "city": "LISBOA",
      "lon": "-9.138297480037918",
      "lat": "38.71429968435296"
    },
    {
      "id": "pt.ine.add.PTCONT.3052095",
      "street": "TV NOVA DE S DOMINGOS",
      "house": "34",
      "postcode": "1100-372",
      "city": "LISBOA",
      "lon": "-9.138297480037918",
      "lat": "38.71429968435296"
    },
    {
      "id": "pt.ine.add.PTCONT.3122100",
      "street": "LG S DOMINGOS",
      "house": "",
      "postcode": "1150-320",
      "city": "LISBOA",
      "lon": "-9.138705391477467",
      "lat": "38.714692523676305"
    },
    {
      "id": "pt.ine.add.PTCONT.3279317",
      "street": "R BARROS QUEIROS",
      "house": "39",
      "postcode": "1100-076",
      "city": "LISBOA",
      "lon": "-9.138658038296478",
      "lat": "38.714907018742984"
    },
    {
      "id": "pt.ine.add.PTCONT.3279318",
      "street": "R BARROS QUEIROS",
      "house": "39",
      "postcode": "1100-076",
      "city": "LISBOA",
      "lon": "-9.138658038296478",
      "lat": "38.714907018742984"
    },
    {
      "id": "pt.ine.add.PTCONT.3284347",
      "street": "R BARROS QUEIROS",
      "house": "39",
      "postcode": "1100-076",
      "city": "LISBOA",
      "lon": "-9.138658038296478",
      "lat": "38.714907018742984"
    },
    {
      "id": "pt.ine.add.PTCONT.3286076",
      "street": "R BARROS QUEIROS",
      "house": "39",
      "postcode": "1100-076",
      "city": "LISBOA",
      "lon": "-9.138658038296478",
      "lat": "38.714907018742984"
    },
    {
      "id": "pt.ine.add.PTCONT.3288348",
      "street": "R BARROS QUEIROS",
      "house": "32",
      "postcode": "1100-077",
      "city": "LISBOA",
      "lon": "-9.138531220974873",
      "lat": "38.714916824533006"
    },
    {
      "id": "pt.ine.add.PTCONT.3288349",
      "street": "R BARROS QUEIROS",
      "house": "32",
      "postcode": "1100-077",
      "city": "LISBOA",
      "lon": "-9.138531220974873",
      "lat": "38.714916824533006"
    },
    {
      "id": "pt.ine.add.PTCONT.3458063",
      "street": "R BARROS QUEIROS",
      "house": "7",
      "postcode": "1100-076",
      "city": "LISBOA",
      "lon": "-9.138278003198693",
      "lat": "38.714898320640934"
    }
  ]
}