{
  "data": {
    "distrito": "Lisboa",
    "concelho": "Torres Vedras",
    "freguesia": "União das freguesias de A dos Cunhados e Maceira",
    "OBJECTID": 1894,
    "BGRI2021": "11132100117",
    "DT21": "11",
    "DTMN21": "1113",
    "DTMNFR21": "111321",
    "DTMNFRSEC21": "111321001",
    "SECNUM21": "001",
    "SSNUM21": "17",
    "SECSSNUM21": "00117",
    "OBJECTID_1": 116275,
    "DT": "11",
    "CC": "13",
    "fr": "21",
    "SEC": "001",
    "SS": "17"
  },
  "addresses": [
    {
      "id": "pt.ine.add.PTCONT.2554211",
      "street": "R 1 DE MAIO",
      "house": "10",
      "postcode": "2560-048",
      "city": "A DOS CUNHADOS",
      "lon": "-9.309939799762317",
      "lat": "39.156630120098285"
    },
    {
      "id": "pt.ine.add.PTCONT.2784348",
      "street": "R LARGO JOÃO CARLOS MARIANO",
      "house": "7",
      "postcode": "2560-048",
      "city": "A DOS CUNHADOS",
      "lon": "-9.310469026403517",
      "lat": "39.15645363890373"
    },
    {
      "id": "pt.ine.add.PTCONT.2784349",
      "street": "R LARGO JOÃO CARLOS MARIANO",
      "house": "7",
      "postcode": "2560-048",
      "city": "A DOS CUNHADOS",
      "lon": "-9.310469026403517",
      "lat": "39.15645363890373"
    },
    {
      "id": "pt.ine.add.PTCONT.2948352",
      "street": "R LARGO JOÃO CARLOS MARIANO",
      "house": "8",
      "postcode": "2560-048",
      "city": "A DOS CUNHADOS",
      "lon": "-9.310325410693103",
      "lat": "39.1568604102725"
    },
    {
      "id": "pt.ine.add.PTCONT.2977040",
      "street": "R SOBREIRO",
      "house": "12",
      "postcode": "2560-048",
      "city": "A DOS CUNHADOS",
      "lon": "-9.310042851754455",
      "lat": "39.15656602947727"
    },
    {
      "id": "pt.ine.add.PTCONT.3162842",
      "street": "R SOBREIRO",
      "house": "14",
      "postcode": "2560-048",
      "city": "A DOS CUNHADOS",
      "lon": "-9.31021455463274",
      "lat": "39.156456209709575"
    },
    {
      "id": "pt.ine.add.PTCONT.3181198",
      "street": "R RCA 1 DE MAIO",
      "house": "6",
      "postcode": "2560-048",
      "city": "A DOS CUNHADOS",
      "lon": "-9.310151606073523",
      "lat": "39.156844151747386"
    },
    {
      "id": "pt.ine.add.PTCONT.3436843",
      "street": "R 1 DE MAIO",
      "house": "8",
      "postcode": "2560-048",
      "city": "A DOS CUNHADOS",
      "lon": "-9.30994175027906",
      "lat": "39.15674719296833"
    }
  ]
}