{
  "data": {
    "distrito": "Évora",
    "concelho": "Viana do Alentejo",
    "freguesia": "Alcáçovas",
    "OBJECTID": 127,
    "BGRI2021": "07130100218",
    "DT21": "07",
    "DTMN21": "0713",
    "DTMNFR21": "071301",
    "DTMNFRSEC21": "071301002",
    "SECNUM21": "002",
    "SSNUM21": "18",
    "SECSSNUM21": "00218",
    "OBJECTID_1": 63808,
    "DT": "07",
    "CC": "13",
    "fr": "01",
    "SEC": "002",
    "SS": "18"
  },
  "addresses": [
    {
      "id": "pt.ine.add.PTCONT.1375830",
      "street": "CASA DO MONTE",
      "house": "",
      "postcode": "7090-029",
      "city": "ALCÁÇOVAS",
      "lon": "-8.169178573578007",
      "lat": "38.39659954369328"
    },
    {
      "id": "pt.ine.add.PTCONT.1378167",
      "street": "MTE CHÃO GRANDE",
      "house": "",
      "postcode": "7090-029",
      "city": "ALCÁÇOVAS",
      "lon": "-8.161978879377216",
      "lat": "38.398151031582714"
    },
    {
      "id": "pt.ine.add.PTCONT.1378874",
      "street": "MTE CHÃO DOS PICOS",
      "house": "",
      "postcode": "7090-029",
      "city": "ALCÁÇOVAS",
      "lon": "-8.16157732379066",
      "lat": "38.39587193276635"
    },
    {
      "id": "pt.ine.add.PTCONT.1378878",
      "street": "MTE CHÃO DOS PICOS",
      "house": "",
      "postcode": "7090-029",
      "city": "ALCÁÇOVAS",
      "lon": "-8.16157732379066",
      "lat": "38.39587193276635"
    },
    {
      "id": "pt.ine.add.PTCONT.1379497",
      "street": "MTE PEDRAGOSA",
      "house": "",
      "postcode": "7090-029",
      "city": "ALCÁÇOVAS",
      "lon": "-8.186064940824267",
      "lat": "38.402705111043296"
    },
    {
      "id": "pt.ine.add.PTCONT.1382517",
      "street": "R S FRANCISCO",
      "house": "31",
      "postcode": "7090-039",
      "city": "ALCÁÇOVAS",
      "lon": "-8.1579251597256",
      "lat": "38.394314260025816"
    },
    {
      "id": "pt.ine.add.PTCONT.1410378",
      "street": "MTE MOINHOS",
      "house": "",
      "postcode": "7090-049",
      "city": "ALCÁÇOVAS",
      "lon": "-8.167232344787857",
      "lat": "38.39617671823751"
    },
    {
      "id": "pt.ine.add.PTCONT.1414129",
      "street": "OUTEIRO DA CRUZ",
      "house": "",
      "postcode": "7090-029",
      "city": "ALCÁÇOVAS",
      "lon": "-8.169991244788104",
      "lat": "38.39643713448344"
    },
    {
      "id": "pt.ine.add.PTCONT.1414130",
      "street": "OUTEIRO DA CRUZ",
      "house": "",
      "postcode": "7090-029",
      "city": "ALCÁÇOVAS",
      "lon": "-8.169991244788104",
      "lat": "38.39643713448344"
    },
    {
      "id": "pt.ine.add.PTCONT.1442835",
      "street": "MTE CHÃO DA CASINHA",
      "house": "",
      "postcode": "7090-029",
      "city": "ALCÁÇOVAS",
      "lon": "-8.164542826017824",
      "lat": "38.39748372953275"
    },
    {
      "id": "pt.ine.add.PTCONT.1452653",
      "street": "MTE ENGOMAOINHA",
      "house": "",
      "postcode": "7090-029",
      "city": "ALCÁÇOVAS",
      "lon": "-8.15837210194332",
      "lat": "38.39579158921849"
    },
    {
      "id": "pt.ine.add.PTCONT.1465953",
      "street": "MTE CHÃO DA CASINHA",
      "house": "",
      "postcode": "7090-029",
      "city": "ALCÁÇOVAS",
      "lon": "-8.164542826017824",
      "lat": "38.39748372953275"
    }
  ]
}