{
  "data": {
    "distrito": "Lisboa",
    "concelho": "Sintra",
    "freguesia": "União das freguesias de Sintra (Santa Maria e São Miguel, São Martinho e São Pedro de Penaferrim)",
    "OBJECTID": 1590,
    "BGRI2021": "11112801726",
    "DT21": "11",
    "DTMN21": "1111",
    "DTMNFR21": "111128",
    "DTMNFRSEC21": "111128017",
    "SECNUM21": "017",
    "SSNUM21": "26",
    "SECSSNUM21": "01726",
    "OBJECTID_1": 111817,
    "DT": "11",
    "CC": "11",
    "fr": "28",
    "SEC": "017",
    "SS": "26"
  },
  "addresses": [
    {
      "id": "pt.ine.add.PTCONT.2369497",
      "street": "ESTR MAGOITO",
      "house": "121",
      "postcode": "2710-252",
      "city": "SINTRA",
      "lon": "-9.399361881570886",
      "lat": "38.835150047685175"
    },
    {
      "id": "pt.ine.add.PTCONT.2581866",
      "street": "ESTR MAGOITO",
      "house": "111",
      "postcode": "2710-252",
      "city": "SINTRA",
      "lon": "-9.397901706819317",
      "lat": "38.83398588154782"
    },
    {
      "id": "pt.ine.add.PTCONT.2597384",
      "street": "R FONTE DA GRANJA",
      "house": "109",
      "postcode": "2710-652",
      "city": "SINTRA",
      "lon": "-9.397676800157482",
      "lat": "38.83233993748403"
    },
    {
      "id": "pt.ine.add.PTCONT.2758434",
      "street": "R JOSE INÁCIO COUTO",
      "house": "",
      "postcode": "2710-652",
      "city": "SINTRA",
      "lon": "-9.398655609245834",
      "lat": "38.832986886469556"
    },
    {
      "id": "pt.ine.add.PTCONT.2769109",
      "street": "R JOSE INÁCIO COUTO",
      "house": "",
      "postcode": "2710-652",
      "city": "SINTRA",
      "lon": "-9.399212244639207",
      "lat": "38.833854584954224"
    },
    {
      "id": "pt.ine.add.PTCONT.2792088",
      "street": "ESTR MAGOITO SOL SERRA",
      "house": "109",
      "postcode": "2710-252",
      "city": "SINTRA",
      "lon": "-9.397502257885112",
      "lat": "38.8335398295244"
    },
    {
      "id": "pt.ine.add.PTCONT.2839868",
      "street": "R JOSE INÁCIO COUTO",
      "house": "",
      "postcode": "2710-652",
      "city": "SINTRA",
      "lon": "-9.400364093043986",
      "lat": "38.83581474307932"
    },
    {
      "id": "pt.ine.add.PTCONT.2950712",
      "street": "ESTR MAGOITO QTA BISCAIA",
      "house": "117",
      "postcode": "2710-252",
      "city": "SINTRA",
      "lon": "-9.398108129525648",
      "lat": "38.83458715094366"
    },
    {
      "id": "pt.ine.add.PTCONT.2994746",
      "street": "R JOSE INÁCIO COUTO CASAL DA FONTE VELHA",
      "house": "",
      "postcode": "2710-652",
      "city": "SINTRA",
      "lon": "-9.399500758337373",
      "lat": "38.833238944778664"
    },
    {
      "id": "pt.ine.add.PTCONT.3015251",
      "street": "ESTR MAGOITO QTA DC ROXINOL",
      "house": "119",
      "postcode": "2710-252",
      "city": "SINTRA",
      "lon": "-9.398427147509747",
      "lat": "38.83504307964526"
    },
    {
      "id": "pt.ine.add.PTCONT.3031773",
      "street": "R JOSE INÁCIO COUTO",
      "house": "",
      "postcode": "2710-652",
      "city": "SINTRA",
      "lon": "-9.400871997094344",
      "lat": "38.83652983371361"
    },
    {
      "id": "pt.ine.add.PTCONT.3059362",
      "street": "ESTR MAGOITO OUINTA DOCE RIPANCO",
      "house": "107",
      "postcode": "2710-252",
      "city": "SINTRA",
      "lon": "-9.397381858876443",
      "lat": "38.83324388408137"
    },
    {
      "id": "pt.ine.add.PTCONT.3101427",
      "street": "R JOSE INÁCIO COUTO",
      "house": "18",
      "postcode": "2710-652",
      "city": "SINTRA",
      "lon": "-9.399723176078165",
      "lat": "38.834092248861424"
    },
    {
      "id": "pt.ine.add.PTCONT.3142606",
      "street": "ESTR MAGOITO",
      "house": "127",
      "postcode": "2710-252",
      "city": "SINTRA",
      "lon": "-9.39973237624185",
      "lat": "38.836560212937236"
    },
    {
      "id": "pt.ine.add.PTCONT.3190345",
      "street": "R JOSE INÁCIO COUTO",
      "house": "91",
      "postcode": "2710-652",
      "city": "SINTRA",
      "lon": "-9.40078516362101",
      "lat": "38.836179482524"
    },
    {
      "id": "pt.ine.add.PTCONT.3366954",
      "street": "R JOSE INÁCIO COUTO",
      "house": "20",
      "postcode": "2710-652",
      "city": "SINTRA",
      "lon": "-9.39967582188928",
      "lat": "38.83466924452806"
    },
    {
      "id": "pt.ine.add.PTCONT.3435139",
      "street": "R JOSE INÁCIO COUTO",
      "house": "97",
      "postcode": "2710-652",
      "city": "SINTRA",
      "lon": "-9.400070659735281",
      "lat": "38.83485412048883"
    }
  ]
}