{
  "data": {
    "distrito": "Guarda",
    "concelho": "Vila Nova de Foz Côa",
    "freguesia": "Cedovim",
    "OBJECTID": 387,
    "BGRI2021": "09140300117",
    "DT21": "09",
    "DTMN21": "0914",
    "DTMNFR21": "091403",
    "DTMNFRSEC21": "091403001",
    "SECNUM21": "001",
    "SSNUM21": "17",
    "SECSSNUM21": "00117",
    "OBJECTID_1": 83483,
    "DT": "09",
    "CC": "14",
    "fr": "03",
    "SEC": "001",
    "SS": "17"
  },
  "addresses": [
    {
      "id": "pt.ine.add.PTCONT.1908139",
      "street": "TV DO PENEDO",
      "house": "2",
      "postcode": "5155-029",
      "city": "CEDOVIM",
      "lon": "-7.310805715984894",
      "lat": "41.027646127202836"
    },
    {
      "id": "pt.ine.add.PTCONT.1911730",
      "street": "R DO PENEDO",
      "house": "11",
      "postcode": "5155-028",
      "city": "CEDOVIM",
      "lon": "-7.310758942639615",
      "lat": "41.02758276223711"
    },
    {
      "id": "pt.ine.add.PTCONT.1943766",
      "street": "R CÓNEGO LIBERATO TOMÉ",
      "house": "",
      "postcode": "5155-025",
      "city": "CEDOVIM",
      "lon": "-7.310484702842837",
      "lat": "41.02764383638441"
    },
    {
      "id": "pt.ine.add.PTCONT.1950716",
      "street": "PC MUNICIPIO",
      "house": "1",
      "postcode": "5155-025",
      "city": "CEDOVIM",
      "lon": "-7.310593499943204",
      "lat": "41.02750054148541"
    },
    {
      "id": "pt.ine.add.PTCONT.1955602",
      "street": "R DO TERREIRO DO FORNO",
      "house": "",
      "postcode": "5155-044",
      "city": "CEDOVIM",
      "lon": "-7.310482797811837",
      "lat": "41.027796898643544"
    },
    {
      "id": "pt.ine.add.PTCONT.1957383",
      "street": "R DO MUNICÍPIO",
      "house": "1",
      "postcode": "5155-025",
      "city": "CEDOVIM",
      "lon": "-7.310438378074001",
      "lat": "41.02754445664152"
    },
    {
      "id": "pt.ine.add.PTCONT.1968240",
      "street": "TV DO PENEDO",
      "house": "4",
      "postcode": "5155-029",
      "city": "CEDOVIM",
      "lon": "-7.310733595543169",
      "lat": "41.02770864384987"
    },
    {
      "id": "pt.ine.add.PTCONT.1969200",
      "street": "R DO MUNICÍPIO",
      "house": "5",
      "postcode": "5155-025",
      "city": "CEDOVIM",
      "lon": "-7.3103058018012",
      "lat": "41.027687581631156"
    },
    {
      "id": "pt.ine.add.PTCONT.1974347",
      "street": "TV DO PENEDO",
      "house": "10",
      "postcode": "5155-029",
      "city": "CEDOVIM",
      "lon": "-7.310637360048267",
      "lat": "41.02779800174768"
    },
    {
      "id": "pt.ine.add.PTCONT.1864684",
      "street": "PC DO MUNICÍPIO",
      "house": "2",
      "postcode": "5155-025",
      "city": "CEDOVIM",
      "lon": "-7.310297050817571",
      "lat": "41.02743539421083"
    },
    {
      "id": "pt.ine.add.PTCONT.1868553",
      "street": "TV DO PENEDO",
      "house": "12",
      "postcode": "5155-029",
      "city": "CEDOVIM",
      "lon": "-7.3106010195688595",
      "lat": "41.02785176917799"
    }
  ]
}