{
  "data": {
    "distrito": "Porto",
    "concelho": "Penafiel",
    "freguesia": "Rio Mau",
    "OBJECTID": 718,
    "BGRI2021": "13113800105",
    "DT21": "13",
    "DTMN21": "1311",
    "DTMNFR21": "131138",
    "DTMNFRSEC21": "131138001",
    "SECNUM21": "001",
    "SSNUM21": "05",
    "SECSSNUM21": "00105",
    "OBJECTID_1": 136058,
    "DT": "13",
    "CC": "11",
    "fr": "38",
    "SEC": "001",
    "SS": "05"
  },
  "addresses": [
    {
      "id": "pt.ine.add.PTCONT.3555332",
      "street": "R PARADELA",
      "house": "107",
      "postcode": "4575-624",
      "city": "RIO MAU PNF",
      "lon": "-8.358165013973867",
      "lat": "41.04956654485324"
    },
    {
      "id": "pt.ine.add.PTCONT.3577154",
      "street": "R VALE DO PEREIRO",
      "house": "4",
      "postcode": "4575-627",
      "city": "RIO MAU PNF",
      "lon": "-8.359674714145186",
      "lat": "41.0493024548949"
    },
    {
      "id": "pt.ine.add.PTCONT.3600193",
      "street": "R CAMPO GRANDE",
      "house": "78",
      "postcode": "4575-627",
      "city": "RIO MAU PNF",
      "lon": "-8.3602713236818",
      "lat": "41.04985055791372"
    },
    {
      "id": "pt.ine.add.PTCONT.3639098",
      "street": "AV MARGINAL",
      "house": "384",
      "postcode": "4575-627",
      "city": "RIO MAU PNF",
      "lon": "-8.3586278216947",
      "lat": "41.04925048094357"
    },
    {
      "id": "pt.ine.add.PTCONT.3833248",
      "street": "R PARADELA",
      "house": "141",
      "postcode": "4575-624",
      "city": "RIO MAU PNF",
      "lon": "-8.357999564675888",
      "lat": "41.049882027013986"
    },
    {
      "id": "pt.ine.add.PTCONT.4098928",
      "street": "R VALE DO PEREIRO",
      "house": "61",
      "postcode": "4575-627",
      "city": "RIO MAU PNF",
      "lon": "-8.359474144828118",
      "lat": "41.049780090086166"
    },
    {
      "id": "pt.ine.add.PTCONT.4144605",
      "street": "AV MARGINAL",
      "house": "374",
      "postcode": "4575-627",
      "city": "RIO MAU PNF",
      "lon": "-8.357878842202185",
      "lat": "41.0493599987191"
    },
    {
      "id": "pt.ine.add.PTCONT.4289115",
      "street": "R VALE DO PEREIRO",
      "house": "46",
      "postcode": "4575-627",
      "city": "RIO MAU PNF",
      "lon": "-8.359484804820122",
      "lat": "41.049419887215834"
    }
  ]
}