{
  "data": {
    "distrito": "Porto",
    "concelho": "Paredes",
    "freguesia": "Sobreira",
    "OBJECTID": 435,
    "BGRI2021": "13102000332",
    "DT21": "13",
    "DTMN21": "1310",
    "DTMNFR21": "131020",
    "DTMNFRSEC21": "131020003",
    "SECNUM21": "003",
    "SSNUM21": "32",
    "SECSSNUM21": "00332",
    "OBJECTID_1": 135391,
    "DT": "13",
    "CC": "10",
    "fr": "20",
    "SEC": "003",
    "SS": "32"
  },
  "addresses": [
    {
      "id": "pt.ine.add.PTCONT.3625756",
      "street": "R FONTE",
      "house": "161",
      "postcode": "4585-896",
      "city": "SOBREIRA",
      "lon": "-8.394806816147835",
      "lat": "41.138219269293714"
    },
    {
      "id": "pt.ine.add.PTCONT.3729712",
      "street": "R CARREIRINHAS",
      "house": "88",
      "postcode": "4585-648",
      "city": "SOBREIRA",
      "lon": "-8.393844567681212",
      "lat": "41.13885175962798"
    },
    {
      "id": "pt.ine.add.PTCONT.3793863",
      "street": "R SERRA DE CASCONHA",
      "house": "48",
      "postcode": "4585-649",
      "city": "SOBREIRA",
      "lon": "-8.394688141169176",
      "lat": "41.138327591701376"
    },
    {
      "id": "pt.ine.add.PTCONT.3895893",
      "street": "VLA POCINHO",
      "house": "37",
      "postcode": "4585-412",
      "city": "SOBREIRA",
      "lon": "-8.39399997559002",
      "lat": "41.13899547826517"
    },
    {
      "id": "pt.ine.add.PTCONT.3929867",
      "street": "R VALDORIDO",
      "house": "77",
      "postcode": "4585-656",
      "city": "SOBREIRA",
      "lon": "-8.394962081407062",
      "lat": "41.138326969347936"
    },
    {
      "id": "pt.ine.add.PTCONT.4150779",
      "street": "R VALDORIDO",
      "house": "67",
      "postcode": "4585-656",
      "city": "SOBREIRA",
      "lon": "-8.394795621480368",
      "lat": "41.13839938284778"
    },
    {
      "id": "pt.ine.add.PTCONT.4341895",
      "street": "R FONTE",
      "house": "141",
      "postcode": "4585-896",
      "city": "SOBREIRA",
      "lon": "-8.394972881676265",
      "lat": "41.138047808200746"
    }
  ]
}