{
  "data": {
    "distrito": "Beja",
    "concelho": "Odemira",
    "freguesia": "São Luís",
    "OBJECTID": 1182,
    "BGRI2021": "02110600128",
    "DT21": "02",
    "DTMN21": "0211",
    "DTMNFR21": "021106",
    "DTMNFRSEC21": "021106001",
    "SECNUM21": "001",
    "SSNUM21": "28",
    "SECSSNUM21": "00128",
    "OBJECTID_1": 17691,
    "DT": "02",
    "CC": "11",
    "fr": "06",
    "SEC": "001",
    "SS": "28"
  },
  "addresses": [
    {
      "id": "pt.ine.add.PTCONT.365229",
      "street": "MTE FERRARIA",
      "house": "",
      "postcode": "7630-475",
      "city": "SÃO LUÍS",
      "lon": "-8.655501024262557",
      "lat": "37.73146990182662"
    },
    {
      "id": "pt.ine.add.PTCONT.375835",
      "street": "MTE VARGEIRA DE CIMA",
      "house": "",
      "postcode": "7630-474",
      "city": "SÃO LUÍS",
      "lon": "-8.669044003774744",
      "lat": "37.734382277496586"
    },
    {
      "id": "pt.ine.add.PTCONT.386191",
      "street": "MTE VARGEIRA DE CIMA",
      "house": "",
      "postcode": "7630-474",
      "city": "SÃO LUÍS",
      "lon": "-8.677935329043269",
      "lat": "37.734017171910004"
    },
    {
      "id": "pt.ine.add.PTCONT.424073",
      "street": "MTE DA CORTE",
      "house": "",
      "postcode": "7630-440",
      "city": "SÃO LUÍS",
      "lon": "-8.681137273092748",
      "lat": "37.72577600500885"
    },
    {
      "id": "pt.ine.add.PTCONT.435478",
      "street": "MTE VARJEIRA",
      "house": "",
      "postcode": "7630-474",
      "city": "SÃO LUÍS",
      "lon": "-8.667699028023975",
      "lat": "37.73431608182774"
    },
    {
      "id": "pt.ine.add.PTCONT.440567",
      "street": "EN 120",
      "house": "",
      "postcode": "7630-475",
      "city": "SÃO LUÍS",
      "lon": "-8.655410845012668",
      "lat": "37.73155138793052"
    },
    {
      "id": "pt.ine.add.PTCONT.442967",
      "street": "HRD VALE DE PORCAS",
      "house": "",
      "postcode": "7630-474",
      "city": "SÃO LUÍS",
      "lon": "-8.673123726296854",
      "lat": "37.73379605342642"
    },
    {
      "id": "pt.ine.add.PTCONT.444496",
      "street": "ESTR DE MILFONTES",
      "house": "",
      "postcode": "7630-474",
      "city": "SÃO LUÍS",
      "lon": "-8.674637074289645",
      "lat": "37.721959492495536"
    },
    {
      "id": "pt.ine.add.PTCONT.447805",
      "street": "MTE FERRARIA",
      "house": "",
      "postcode": "7630-475",
      "city": "SÃO LUÍS",
      "lon": "-8.655559071581289",
      "lat": "37.73165884642277"
    }
  ]
}