{
  "data": {
    "distrito": "Lisboa",
    "concelho": "Sintra",
    "freguesia": "União das freguesias de São João das Lampas e Terrugem",
    "OBJECTID": 3316,
    "BGRI2021": "11112700712",
    "DT21": "11",
    "DTMN21": "1111",
    "DTMNFR21": "111127",
    "DTMNFRSEC21": "111127007",
    "SECNUM21": "007",
    "SSNUM21": "12",
    "SECSSNUM21": "00712",
    "OBJECTID_1": 112152,
    "DT": "11",
    "CC": "11",
    "fr": "27",
    "SEC": "007",
    "SS": "12"
  },
  "addresses": [
    {
      "id": "pt.ine.add.PTCONT.2345099",
      "street": "TV S MIGUEL",
      "house": "4",
      "postcode": "2705-739",
      "city": "SÃO JOÃO DAS LAMPAS",
      "lon": "-9.365317828555515",
      "lat": "38.88714526459011"
    },
    {
      "id": "pt.ine.add.PTCONT.2362876",
      "street": "AV PROF DR D FERNANDO DE ALMEIDA",
      "house": "68",
      "postcode": "2705-739",
      "city": "SÃO JOÃO DAS LAMPAS",
      "lon": "-9.365700729086209",
      "lat": "38.88729435010521"
    },
    {
      "id": "pt.ine.add.PTCONT.2454969",
      "street": "AV PROF DR D FERNANDO DE ALMEIDA",
      "house": "60",
      "postcode": "2705-739",
      "city": "SÃO JOÃO DAS LAMPAS",
      "lon": "-9.365179242996788",
      "lat": "38.88712871214088"
    },
    {
      "id": "pt.ine.add.PTCONT.2488370",
      "street": "R PRINCIPAL",
      "house": "93",
      "postcode": "2705-840",
      "city": "TERRUGEM SNT",
      "lon": "-9.362283212692526",
      "lat": "38.89095138608466"
    },
    {
      "id": "pt.ine.add.PTCONT.2488371",
      "street": "R PRINCIPAL",
      "house": "95",
      "postcode": "2705-840",
      "city": "TERRUGEM SNT",
      "lon": "-9.362476127935514",
      "lat": "38.891444766161406"
    },
    {
      "id": "pt.ine.add.PTCONT.2650029",
      "street": "AV PROF DR D FERNANDO DE ALMEIDA",
      "house": "82",
      "postcode": "2705-739",
      "city": "SÃO JOÃO DAS LAMPAS",
      "lon": "-9.366339160784735",
      "lat": "38.8882243862998"
    },
    {
      "id": "pt.ine.add.PTCONT.2750953",
      "street": "TV S MIGUEL",
      "house": "3",
      "postcode": "2705-739",
      "city": "SÃO JOÃO DAS LAMPAS",
      "lon": "-9.365620224501505",
      "lat": "38.88730420744773"
    },
    {
      "id": "pt.ine.add.PTCONT.2793215",
      "street": "TV S MIGUEL",
      "house": "2",
      "postcode": "2705-739",
      "city": "SÃO JOÃO DAS LAMPAS",
      "lon": "-9.365307075029905",
      "lat": "38.88785696906094"
    },
    {
      "id": "pt.ine.add.PTCONT.3049440",
      "street": "AV PROF DR D FERNANDO DE ALMEIDA",
      "house": "64",
      "postcode": "2705-739",
      "city": "SÃO JOÃO DAS LAMPAS",
      "lon": "-9.365594844220269",
      "lat": "38.88716936315354"
    },
    {
      "id": "pt.ine.add.PTCONT.3070805",
      "street": "R ROSSIO DE CIMA",
      "house": "11",
      "postcode": "2705-531",
      "city": "SÃO JOÃO DAS LAMPAS",
      "lon": "-9.366394597361905",
      "lat": "38.88876424944517"
    },
    {
      "id": "pt.ine.add.PTCONT.3078468",
      "street": "TV S MIGUEL",
      "house": "6",
      "postcode": "2705-739",
      "city": "SÃO JOÃO DAS LAMPAS",
      "lon": "-9.365528508251211",
      "lat": "38.887332198042536"
    },
    {
      "id": "pt.ine.add.PTCONT.3115280",
      "street": "AV PROF DR D FERNANDO DE ALMEIDA",
      "house": "80",
      "postcode": "2705-739",
      "city": "SÃO JOÃO DAS LAMPAS",
      "lon": "-9.366116019077738",
      "lat": "38.88798354109629"
    },
    {
      "id": "pt.ine.add.PTCONT.3142410",
      "street": "AV PROF DR D FERNANDO DE ALMEIDA",
      "house": "66",
      "postcode": "2705-739",
      "city": "SÃO JOÃO DAS LAMPAS",
      "lon": "-9.365664759640426",
      "lat": "38.8872136625023"
    },
    {
      "id": "pt.ine.add.PTCONT.3236376",
      "street": "R JERONIMOS",
      "house": "7",
      "postcode": "2705-840",
      "city": "TERRUGEM SNT",
      "lon": "-9.362936604839499",
      "lat": "38.89141289412559"
    }
  ]
}