{
  "data": {
    "distrito": "Viseu",
    "concelho": "Santa Comba Dão",
    "freguesia": "São Joaninho",
    "OBJECTID": 18,
    "BGRI2021": "18140500135",
    "DT21": "18",
    "DTMN21": "1814",
    "DTMNFR21": "181405",
    "DTMNFRSEC21": "181405001",
    "SECNUM21": "001",
    "SSNUM21": "35",
    "SECSSNUM21": "00135",
    "OBJECTID_1": 195885,
    "DT": "18",
    "CC": "14",
    "fr": "05",
    "SEC": "001",
    "SS": "35"
  },
  "addresses": [
    {
      "id": "pt.ine.add.PTCONT.5437289",
      "street": "R OLIVAL DO SENHOR",
      "house": "",
      "postcode": "3440-085",
      "city": "SÃO JOANINHO SCD",
      "lon": "-8.128699586945817",
      "lat": "40.44943900622782"
    },
    {
      "id": "pt.ine.add.PTCONT.5438556",
      "street": "R OLIVAL DO SENHOR",
      "house": "2",
      "postcode": "3440-085",
      "city": "SÃO JOANINHO SCD",
      "lon": "-8.127697594078736",
      "lat": "40.4495020021543"
    },
    {
      "id": "pt.ine.add.PTCONT.5449050",
      "street": "R OLIVAL DO SENHOR",
      "house": "10",
      "postcode": "3440-085",
      "city": "SÃO JOANINHO SCD",
      "lon": "-8.128970704223196",
      "lat": "40.44958310420846"
    },
    {
      "id": "pt.ine.add.PTCONT.5482792",
      "street": "R CAMPO DE FUTEBOL",
      "house": "1",
      "postcode": "3440-081",
      "city": "SÃO JOANINHO SCD",
      "lon": "-8.127909766746773",
      "lat": "40.44967311633914"
    },
    {
      "id": "pt.ine.add.PTCONT.5488551",
      "street": "R OLIVAL",
      "house": "",
      "postcode": "3440-085",
      "city": "SÃO JOANINHO SCD",
      "lon": "-8.130656373222457",
      "lat": "40.45045668542577"
    },
    {
      "id": "pt.ine.add.PTCONT.5555617",
      "street": "R CAMPO DE FUTEBOL",
      "house": "9",
      "postcode": "3440-081",
      "city": "SÃO JOANINHO SCD",
      "lon": "-8.129654368449804",
      "lat": "40.45049268181375"
    },
    {
      "id": "pt.ine.add.PTCONT.5556018",
      "street": "R CAMPO FUTEBOL",
      "house": "",
      "postcode": "3440-081",
      "city": "SÃO JOANINHO SCD",
      "lon": "-8.129654368449804",
      "lat": "40.45049268181375"
    },
    {
      "id": "pt.ine.add.PTCONT.5563436",
      "street": "R OLIVAL DO SENHOR",
      "house": "20",
      "postcode": "3440-085",
      "city": "SÃO JOANINHO SCD",
      "lon": "-8.130373481032647",
      "lat": "40.4498082833344"
    },
    {
      "id": "pt.ine.add.PTCONT.5610982",
      "street": "R CAMPO DE FUTEBOL",
      "house": "35",
      "postcode": "3440-081",
      "city": "SÃO JOANINHO SCD",
      "lon": "-8.130703537215565",
      "lat": "40.45015049954606"
    },
    {
      "id": "pt.ine.add.PTCONT.5620487",
      "street": "R OLIVAL DO SENHOR",
      "house": "16",
      "postcode": "3440-085",
      "city": "SÃO JOANINHO SCD",
      "lon": "-8.129536530506602",
      "lat": "40.44964616155674"
    },
    {
      "id": "pt.ine.add.PTCONT.5631684",
      "street": "R CAMPO FUTEBOL",
      "house": "7",
      "postcode": "3440-081",
      "city": "SÃO JOANINHO SCD",
      "lon": "-8.12900602914858",
      "lat": "40.450231501237546"
    }
  ]
}