{
  "data": {
    "distrito": "Viseu",
    "concelho": "Vouzela",
    "freguesia": "Queirã",
    "OBJECTID": 104,
    "BGRI2021": "18240900154",
    "DT21": "18",
    "DTMN21": "1824",
    "DTMNFR21": "182409",
    "DTMNFRSEC21": "182409001",
    "SECNUM21": "001",
    "SSNUM21": "54",
    "SECSSNUM21": "00154",
    "OBJECTID_1": 202964,
    "DT": "18",
    "CC": "24",
    "fr": "09",
    "SEC": "001",
    "SS": "54"
  },
  "addresses": [
    {
      "id": "pt.ine.add.PTCONT.5454279",
      "street": "TV CASAL",
      "house": "2",
      "postcode": "3670-174",
      "city": "QUEIRÃ",
      "lon": "-8.053710850178668",
      "lat": "40.693212463945756"
    },
    {
      "id": "pt.ine.add.PTCONT.5492172",
      "street": "R CALVÁRIO",
      "house": "",
      "postcode": "3670-174",
      "city": "QUEIRÃ",
      "lon": "-8.054501226319786",
      "lat": "40.69516711442155"
    },
    {
      "id": "pt.ine.add.PTCONT.5495633",
      "street": "R CALVÁRIO",
      "house": "",
      "postcode": "3670-174",
      "city": "QUEIRÃ",
      "lon": "-8.053601834814618",
      "lat": "40.69534660078166"
    },
    {
      "id": "pt.ine.add.PTCONT.5496345",
      "street": "TV CASAL",
      "house": "",
      "postcode": "3670-174",
      "city": "QUEIRÃ",
      "lon": "-8.053603932895323",
      "lat": "40.69358160007086"
    },
    {
      "id": "pt.ine.add.PTCONT.5527474",
      "street": "AV S LUZIA",
      "house": "11",
      "postcode": "3670-176",
      "city": "QUEIRÃ",
      "lon": "-8.048346529515257",
      "lat": "40.69708084827817"
    },
    {
      "id": "pt.ine.add.PTCONT.5530907",
      "street": "TV CASAL",
      "house": "1",
      "postcode": "3670-174",
      "city": "QUEIRÃ",
      "lon": "-8.053604478794014",
      "lat": "40.693122339593046"
    },
    {
      "id": "pt.ine.add.PTCONT.5552360",
      "street": "TV EIRAS",
      "house": "2",
      "postcode": "3670-174",
      "city": "QUEIRÃ",
      "lon": "-8.052231547685604",
      "lat": "40.69357164171909"
    },
    {
      "id": "pt.ine.add.PTCONT.5568831",
      "street": "R IGREJA",
      "house": "17",
      "postcode": "3670-174",
      "city": "QUEIRÃ",
      "lon": "-8.054040721863485",
      "lat": "40.69439236027728"
    },
    {
      "id": "pt.ine.add.PTCONT.5583542",
      "street": "AV S LUZIA",
      "house": "13",
      "postcode": "3670-176",
      "city": "QUEIRÃ",
      "lon": "-8.049115618663324",
      "lat": "40.69705439504915"
    },
    {
      "id": "pt.ine.add.PTCONT.5600270",
      "street": "TV EIRAS",
      "house": "",
      "postcode": "3670-174",
      "city": "QUEIRÃ",
      "lon": "-8.051829479752692",
      "lat": "40.693418272412714"
    },
    {
      "id": "pt.ine.add.PTCONT.5616794",
      "street": "R PACO",
      "house": "6",
      "postcode": "3670-174",
      "city": "QUEIRÃ",
      "lon": "-8.052705675287823",
      "lat": "40.69283355345659"
    },
    {
      "id": "pt.ine.add.PTCONT.5620699",
      "street": "TV EIRAS",
      "house": "1",
      "postcode": "3670-174",
      "city": "QUEIRÃ",
      "lon": "-8.052267878736481",
      "lat": "40.69287827331443"
    },
    {
      "id": "pt.ine.add.PTCONT.5648281",
      "street": "R REGADA",
      "house": "1",
      "postcode": "3670-176",
      "city": "QUEIRÃ",
      "lon": "-8.047709151477695",
      "lat": "40.69588269897335"
    },
    {
      "id": "pt.ine.add.PTCONT.5660140",
      "street": "TV CASAL",
      "house": "",
      "postcode": "3670-174",
      "city": "QUEIRÃ",
      "lon": "-8.05380487840657",
      "lat": "40.69373482521845"
    }
  ]
}