{
  "data": {
    "distrito": "Guarda",
    "concelho": "Pinhel",
    "freguesia": "Valbom/Bogalhal",
    "OBJECTID": 161,
    "BGRI2021": "09103100113",
    "DT21": "09",
    "DTMN21": "0910",
    "DTMNFR21": "091031",
    "DTMNFRSEC21": "091031001",
    "SECNUM21": "001",
    "SSNUM21": "13",
    "SECSSNUM21": "00113",
    "OBJECTID_1": 79892,
    "DT": "09",
    "CC": "10",
    "fr": "31",
    "SEC": "001",
    "SS": "13"
  },
  "addresses": [
    {
      "id": "pt.ine.add.PTCONT.1901801",
      "street": "ESTR DE PINHEL",
      "house": "",
      "postcode": "6400-661",
      "city": "VALBOM PNH",
      "lon": "-7.1198017025776865",
      "lat": "40.78253309813354"
    },
    {
      "id": "pt.ine.add.PTCONT.1918484",
      "street": "R DA CALÇADA",
      "house": "",
      "postcode": "6400-661",
      "city": "VALBOM PNH",
      "lon": "-7.1239797058567635",
      "lat": "40.7820024125811"
    },
    {
      "id": "pt.ine.add.PTCONT.1926714",
      "street": "R DA CALÇADA",
      "house": "",
      "postcode": "6400-661",
      "city": "VALBOM PNH",
      "lon": "-7.124323206422184",
      "lat": "40.78200541618765"
    },
    {
      "id": "pt.ine.add.PTCONT.1958357",
      "street": "TV DA CALÇADA",
      "house": "",
      "postcode": "6400-661",
      "city": "VALBOM PNH",
      "lon": "-7.1257248531287924",
      "lat": "40.78253993838365"
    },
    {
      "id": "pt.ine.add.PTCONT.1960364",
      "street": "R DA CALÇADA",
      "house": "",
      "postcode": "6400-661",
      "city": "VALBOM PNH",
      "lon": "-7.1242047579454955",
      "lat": "40.78200438057674"
    },
    {
      "id": "pt.ine.add.PTCONT.1874661",
      "street": "R DA CALÇADA",
      "house": "",
      "postcode": "6400-661",
      "city": "VALBOM PNH",
      "lon": "-7.1240981543217465",
      "lat": "40.78200344842298"
    },
    {
      "id": "pt.ine.add.PTCONT.1883200",
      "street": "TV DA CALÇADA",
      "house": "",
      "postcode": "6400-661",
      "city": "VALBOM PNH",
      "lon": "-7.126360793102757",
      "lat": "40.782005202500955"
    },
    {
      "id": "pt.ine.add.PTCONT.1884194",
      "street": "TV CALFADA",
      "house": "",
      "postcode": "6400-661",
      "city": "VALBOM PNH",
      "lon": "-7.12618532443924",
      "lat": "40.783426424955046"
    },
    {
      "id": "pt.ine.add.PTCONT.1897852",
      "street": "R DA CALÇADA",
      "house": "",
      "postcode": "6400-661",
      "city": "VALBOM PNH",
      "lon": "-7.124441791123005",
      "lat": "40.78199744809816"
    }
  ]
}