{
  "data": {
    "distrito": "Faro",
    "concelho": "Lagos",
    "freguesia": "União das freguesias de Bensafrim e Barão de São João",
    "OBJECTID": 630,
    "BGRI2021": "08070700215",
    "DT21": "08",
    "DTMN21": "0807",
    "DTMNFR21": "080707",
    "DTMNFRSEC21": "080707002",
    "SECNUM21": "002",
    "SSNUM21": "15",
    "SECSSNUM21": "00215",
    "OBJECTID_1": 67845,
    "DT": "08",
    "CC": "07",
    "fr": "07",
    "SEC": "002",
    "SS": "15"
  },
  "addresses": [
    {
      "id": "pt.ine.add.PTCONT.1468353",
      "street": "TV 1 JANEIRO",
      "house": "3",
      "postcode": "8600-013",
      "city": "BARÃO DE SÃO JOÃO",
      "lon": "-8.779252725817935",
      "lat": "37.13881781355013"
    },
    {
      "id": "pt.ine.add.PTCONT.1553008",
      "street": "R ALCANTARA",
      "house": "11",
      "postcode": "8600-013",
      "city": "BARÃO DE SÃO JOÃO",
      "lon": "-8.779299198924502",
      "lat": "37.13898875886462"
    },
    {
      "id": "pt.ine.add.PTCONT.1602010",
      "street": "R MATA",
      "house": "44",
      "postcode": "8600-013",
      "city": "BARÃO DE SÃO JOÃO",
      "lon": "-8.779129158825667",
      "lat": "37.13884551844009"
    },
    {
      "id": "pt.ine.add.PTCONT.1607077",
      "street": "TV 1 DE MAIO",
      "house": "8",
      "postcode": "8600-013",
      "city": "BARÃO DE SÃO JOÃO",
      "lon": "-8.779296899863445",
      "lat": "37.138718457726576"
    },
    {
      "id": "pt.ine.add.PTCONT.1620982",
      "street": "TV 1 DE JANEIRO",
      "house": "5",
      "postcode": "8600-013",
      "city": "BARÃO DE SÃO JOÃO",
      "lon": "-8.779308613924195",
      "lat": "37.138772456601394"
    },
    {
      "id": "pt.ine.add.PTCONT.1664779",
      "street": "R MATA",
      "house": "",
      "postcode": "8600-013",
      "city": "BARÃO DE SÃO JOÃO",
      "lon": "-8.779444738070532",
      "lat": "37.13889786080057"
    },
    {
      "id": "pt.ine.add.PTCONT.1710065",
      "street": "R ALCANTARA",
      "house": "7",
      "postcode": "8600-013",
      "city": "BARÃO DE SÃO JOÃO",
      "lon": "-8.779386473933796",
      "lat": "37.13866390663921"
    },
    {
      "id": "pt.ine.add.PTCONT.1716096",
      "street": "R ALCANTARA",
      "house": "9",
      "postcode": "8600-013",
      "city": "BARÃO DE SÃO JOÃO",
      "lon": "-8.779253645379121",
      "lat": "37.13892593400599"
    },
    {
      "id": "pt.ine.add.PTCONT.1738808",
      "street": "TV PRIMEIRO DE MAIO",
      "house": "1",
      "postcode": "8600-013",
      "city": "BARÃO DE SÃO JOÃO",
      "lon": "-8.779399107813958",
      "lat": "37.13882602595973"
    },
    {
      "id": "pt.ine.add.PTCONT.1772592",
      "street": "TV 1 JANEIRO",
      "house": "1",
      "postcode": "8600-013",
      "city": "BARÃO DE SÃO JOÃO",
      "lon": "-8.779196837644951",
      "lat": "37.13886317047281"
    },
    {
      "id": "pt.ine.add.PTCONT.1816689",
      "street": "TV 1 DE JANEIRO",
      "house": "7",
      "postcode": "8600-013",
      "city": "BARÃO DE SÃO JOÃO",
      "lon": "-8.77938693380638",
      "lat": "37.138717966867375"
    }
  ]
}