{
  "data": {
    "distrito": "Faro",
    "concelho": "Lagos",
    "freguesia": "União das freguesias de Bensafrim e Barão de São João",
    "OBJECTID": 372,
    "BGRI2021": "08070700231",
    "DT21": "08",
    "DTMN21": "0807",
    "DTMNFR21": "080707",
    "DTMNFRSEC21": "080707002",
    "SECNUM21": "002",
    "SSNUM21": "31",
    "SECSSNUM21": "00231",
    "OBJECTID_1": 67941,
    "DT": "08",
    "CC": "07",
    "fr": "07",
    "SEC": "002",
    "SS": "31"
  },
  "addresses": [
    {
      "id": "pt.ine.add.PTCONT.1500744",
      "street": "BC IGREJA",
      "house": "2D",
      "postcode": "8600-013",
      "city": "BARÃO DE SÃO JOÃO",
      "lon": "-8.775005236975774",
      "lat": "37.1396248010815"
    },
    {
      "id": "pt.ine.add.PTCONT.1525252",
      "street": "LAGOA ROSA",
      "house": "",
      "postcode": "8600-016",
      "city": "BARÃO DE SÃO JOÃO",
      "lon": "-8.760922622213974",
      "lat": "37.139294756508676"
    },
    {
      "id": "pt.ine.add.PTCONT.1525253",
      "street": "SIT MEDRONHAL QTA MEDRONHAL",
      "house": "",
      "postcode": "8600-013",
      "city": "BARÃO DE SÃO JOÃO",
      "lon": "-8.767995861691379",
      "lat": "37.142608972019595"
    },
    {
      "id": "pt.ine.add.PTCONT.1538104",
      "street": "SIT MEDRONHAL MONTE FAXELHA",
      "house": "",
      "postcode": "8600-013",
      "city": "BARÃO DE SÃO JOÃO",
      "lon": "-8.766618670993106",
      "lat": "37.144823902163665"
    },
    {
      "id": "pt.ine.add.PTCONT.1586028",
      "street": "SIT MEDRONHAL",
      "house": "",
      "postcode": "8600-013",
      "city": "BARÃO DE SÃO JOÃO",
      "lon": "-8.770058746286647",
      "lat": "37.142985353947125"
    },
    {
      "id": "pt.ine.add.PTCONT.1594908",
      "street": "BC IGREJA",
      "house": "6",
      "postcode": "8600-013",
      "city": "BARÃO DE SÃO JOÃO",
      "lon": "-8.775431837143993",
      "lat": "37.13949634371476"
    },
    {
      "id": "pt.ine.add.PTCONT.1615970",
      "street": "SIT MEDRONHAL QTA JOÃO GIL",
      "house": "",
      "postcode": "8600-013",
      "city": "BARÃO DE SÃO JOÃO",
      "lon": "-8.763330298453658",
      "lat": "37.141904023737546"
    },
    {
      "id": "pt.ine.add.PTCONT.1625034",
      "street": "CASAIS MEDRONHAL",
      "house": "",
      "postcode": "8600-013",
      "city": "BARÃO DE SÃO JOÃO",
      "lon": "-8.76848921658773",
      "lat": "37.14103850895972"
    },
    {
      "id": "pt.ine.add.PTCONT.1654221",
      "street": "SIT MEDRONHAL QTA BELA VISTA",
      "house": "",
      "postcode": "8600-013",
      "city": "BARÃO DE SÃO JOÃO",
      "lon": "-8.767461197069883",
      "lat": "37.143278608384456"
    },
    {
      "id": "pt.ine.add.PTCONT.1663295",
      "street": "QTA CAP RIJO",
      "house": "",
      "postcode": "8600-013",
      "city": "BARÃO DE SÃO JOÃO",
      "lon": "-8.770342970525947",
      "lat": "37.139298549486476"
    },
    {
      "id": "pt.ine.add.PTCONT.1673329",
      "street": "SIT MEDRONHAL",
      "house": "",
      "postcode": "8600-013",
      "city": "BARÃO DE SÃO JOÃO",
      "lon": "-8.768128584876052",
      "lat": "37.14232893690049"
    },
    {
      "id": "pt.ine.add.PTCONT.1687348",
      "street": "SIT MEDRONHAL",
      "house": "",
      "postcode": "8600-013",
      "city": "BARÃO DE SÃO JOÃO",
      "lon": "-8.767236050728554",
      "lat": "37.14462237076152"
    },
    {
      "id": "pt.ine.add.PTCONT.1696004",
      "street": "CIGARRAS",
      "house": "",
      "postcode": "8600-013",
      "city": "BARÃO DE SÃO JOÃO",
      "lon": "-8.768070310760725",
      "lat": "37.14074340864403"
    },
    {
      "id": "pt.ine.add.PTCONT.1711942",
      "street": "SIT MEDRONHAL QTA JESUS E REIS",
      "house": "",
      "postcode": "8600-013",
      "city": "BARÃO DE SÃO JOÃO",
      "lon": "-8.764300727515893",
      "lat": "37.143556784089895"
    },
    {
      "id": "pt.ine.add.PTCONT.1727409",
      "street": "SIT MEDRONHAL",
      "house": "",
      "postcode": "8600-013",
      "city": "BARÃO DE SÃO JOÃO",
      "lon": "-8.76645636545671",
      "lat": "37.14425711100027"
    },
    {
      "id": "pt.ine.add.PTCONT.1738835",
      "street": "CIGARRAS",
      "house": "",
      "postcode": "8600-013",
      "city": "BARÃO DE SÃO JOÃO",
      "lon": "-8.767730114589039",
      "lat": "37.14043887497153"
    },
    {
      "id": "pt.ine.add.PTCONT.1742222",
      "street": "CIGARRAS",
      "house": "",
      "postcode": "8600-013",
      "city": "BARÃO DE SÃO JOÃO",
      "lon": "-8.76484783163425",
      "lat": "37.14031911491806"
    },
    {
      "id": "pt.ine.add.PTCONT.1760264",
      "street": "SIT MEDRONHAL",
      "house": "",
      "postcode": "8600-013",
      "city": "BARÃO DE SÃO JOÃO",
      "lon": "-8.766542439496318",
      "lat": "37.14513066497858"
    },
    {
      "id": "pt.ine.add.PTCONT.1769593",
      "street": "BC IGREJA",
      "house": "2B",
      "postcode": "8600-013",
      "city": "BARÃO DE SÃO JOÃO",
      "lon": "-8.775128654513118",
      "lat": "37.1395790803797"
    },
    {
      "id": "pt.ine.add.PTCONT.1784959",
      "street": "LAGOA ROSA",
      "house": "",
      "postcode": "8600-016",
      "city": "BARÃO DE SÃO JOÃO",
      "lon": "-8.762636814611229",
      "lat": "37.14106973621171"
    },
    {
      "id": "pt.ine.add.PTCONT.1790167",
      "street": "SIT MEDRONHAL",
      "house": "",
      "postcode": "8600-013",
      "city": "BARÃO DE SÃO JOÃO",
      "lon": "-8.763585680177329",
      "lat": "37.14283975322356"
    },
    {
      "id": "pt.ine.add.PTCONT.1797546",
      "street": "SIT MEDRONHAL A CASA ALTA",
      "house": "",
      "postcode": "8600-013",
      "city": "BARÃO DE SÃO JOÃO",
      "lon": "-8.767774453490258",
      "lat": "37.14305167007406"
    },
    {
      "id": "pt.ine.add.PTCONT.1807870",
      "street": "BC IGREJA",
      "house": "2C",
      "postcode": "8600-013",
      "city": "BARÃO DE SÃO JOÃO",
      "lon": "-8.775072611022987",
      "lat": "37.13960641529216"
    },
    {
      "id": "pt.ine.add.PTCONT.1816819",
      "street": "SIT CANADAS",
      "house": "",
      "postcode": "8600-013",
      "city": "BARÃO DE SÃO JOÃO",
      "lon": "-8.772745759679477",
      "lat": "37.13995238151441"
    }
  ]
}