{
  "data": {
    "distrito": "Porto",
    "concelho": "Penafiel",
    "freguesia": "Boelhe",
    "OBJECTID": 375,
    "BGRI2021": "13110200118",
    "DT21": "13",
    "DTMN21": "1311",
    "DTMNFR21": "131102",
    "DTMNFRSEC21": "131102001",
    "SECNUM21": "001",
    "SSNUM21": "18",
    "SECSSNUM21": "00118",
    "OBJECTID_1": 136357,
    "DT": "13",
    "CC": "11",
    "fr": "02",
    "SEC": "001",
    "SS": "18"
  },
  "addresses": [
    {
      "id": "pt.ine.add.PTCONT.3594117",
      "street": "R PADRE AMÉRICO",
      "house": "",
      "postcode": "4575-091",
      "city": "BOELHE",
      "lon": "-8.241324108861846",
      "lat": "41.128857970510616"
    },
    {
      "id": "pt.ine.add.PTCONT.3632224",
      "street": "R MOURIL",
      "house": "2",
      "postcode": "4575-095",
      "city": "BOELHE",
      "lon": "-8.24211064338863",
      "lat": "41.12919039296892"
    },
    {
      "id": "pt.ine.add.PTCONT.3632225",
      "street": "R MOURIL",
      "house": "2",
      "postcode": "4575-095",
      "city": "BOELHE",
      "lon": "-8.24211064338863",
      "lat": "41.12919039296892"
    },
    {
      "id": "pt.ine.add.PTCONT.3632230",
      "street": "R MOURIL",
      "house": "2",
      "postcode": "4575-095",
      "city": "BOELHE",
      "lon": "-8.24211064338863",
      "lat": "41.12919039296892"
    },
    {
      "id": "pt.ine.add.PTCONT.3800826",
      "street": "R PRINCIPAL DO ESTREMADOURO",
      "house": "257",
      "postcode": "4575-091",
      "city": "BOELHE",
      "lon": "-8.240800826787758",
      "lat": "41.129290673560575"
    },
    {
      "id": "pt.ine.add.PTCONT.3814568",
      "street": "R NOVA DO ESTREMADOURO",
      "house": "142",
      "postcode": "4575-091",
      "city": "BOELHE",
      "lon": "-8.241669005005729",
      "lat": "41.12857850863558"
    },
    {
      "id": "pt.ine.add.PTCONT.3850434",
      "street": "R PRINCIPAL DO ESTREMADOURO",
      "house": "679",
      "postcode": "4575-091",
      "city": "BOELHE",
      "lon": "-8.241038488622495",
      "lat": "41.12897529605876"
    },
    {
      "id": "pt.ine.add.PTCONT.3850435",
      "street": "R NOVA DO ESTREMADOURO",
      "house": "66",
      "postcode": "4575-091",
      "city": "BOELHE",
      "lon": "-8.241430473887807",
      "lat": "41.128362626788494"
    },
    {
      "id": "pt.ine.add.PTCONT.3895722",
      "street": "R PADRE AMÉRICO",
      "house": "",
      "postcode": "4575-091",
      "city": "BOELHE",
      "lon": "-8.241228956427653",
      "lat": "41.12893009530362"
    },
    {
      "id": "pt.ine.add.PTCONT.3979958",
      "street": "R PRINCIPAL DO ESTREMADOURO",
      "house": "771",
      "postcode": "4575-091",
      "city": "BOELHE",
      "lon": "-8.240753485466492",
      "lat": "41.12947080642184"
    },
    {
      "id": "pt.ine.add.PTCONT.3979960",
      "street": "R PRINCIPAL DO ESTREMADOURO",
      "house": "691",
      "postcode": "4575-091",
      "city": "BOELHE",
      "lon": "-8.241098195309167",
      "lat": "41.129074288852145"
    },
    {
      "id": "pt.ine.add.PTCONT.4018822",
      "street": "R PRINCIPAL DO ESTREMADOURO",
      "house": "629",
      "postcode": "4575-091",
      "city": "BOELHE",
      "lon": "-8.240811322146035",
      "lat": "41.12842623831027"
    },
    {
      "id": "pt.ine.add.PTCONT.4018823",
      "street": "R PRINCIPAL DO ESTREMADOURO",
      "house": "629",
      "postcode": "4575-091",
      "city": "BOELHE",
      "lon": "-8.240811322146035",
      "lat": "41.12842623831027"
    },
    {
      "id": "pt.ine.add.PTCONT.4018824",
      "street": "R MOURIL",
      "house": "",
      "postcode": "4575-095",
      "city": "BOELHE",
      "lon": "-8.241098534877787",
      "lat": "41.12928139045014"
    },
    {
      "id": "pt.ine.add.PTCONT.4032758",
      "street": "R PADRE AMÉRICO",
      "house": "",
      "postcode": "4575-091",
      "city": "BOELHE",
      "lon": "-8.241085887858604",
      "lat": "41.128831180737734"
    },
    {
      "id": "pt.ine.add.PTCONT.4124557",
      "street": "R PRINCIPAL ESTREMADOURO",
      "house": "",
      "postcode": "4575-091",
      "city": "BOELHE",
      "lon": "-8.241383445803754",
      "lat": "41.12873185271404"
    },
    {
      "id": "pt.ine.add.PTCONT.4180086",
      "street": "ESTREMADOURO",
      "house": "",
      "postcode": "4575-091",
      "city": "BOELHE",
      "lon": "-8.24097991768117",
      "lat": "41.12956964336215"
    }
  ]
}