{
  "data": {
    "distrito": "Porto",
    "concelho": "Penafiel",
    "freguesia": "Boelhe",
    "OBJECTID": 653,
    "BGRI2021": "13110200123",
    "DT21": "13",
    "DTMN21": "1311",
    "DTMNFR21": "131102",
    "DTMNFRSEC21": "131102001",
    "SECNUM21": "001",
    "SSNUM21": "23",
    "SECSSNUM21": "00123",
    "OBJECTID_1": 136782,
    "DT": "13",
    "CC": "11",
    "fr": "02",
    "SEC": "001",
    "SS": "23"
  },
  "addresses": [
    {
      "id": "pt.ine.add.PTCONT.3609196",
      "street": "R CARVALHINHAS",
      "house": "77",
      "postcode": "4575-088",
      "city": "BOELHE",
      "lon": "-8.244769196939748",
      "lat": "41.13088067965057"
    },
    {
      "id": "pt.ine.add.PTCONT.3664398",
      "street": "TV SAMARDA",
      "house": "68",
      "postcode": "4575-101",
      "city": "BOELHE",
      "lon": "-8.245650554668819",
      "lat": "41.13092484416948"
    },
    {
      "id": "pt.ine.add.PTCONT.3777880",
      "street": "R DA FONTE",
      "house": "83",
      "postcode": "4575-111",
      "city": "BOELHE",
      "lon": "-8.245182161758276",
      "lat": "41.13128699965431"
    },
    {
      "id": "pt.ine.add.PTCONT.3800800",
      "street": "R SAMARDA",
      "house": "145",
      "postcode": "4575-101",
      "city": "BOELHE",
      "lon": "-8.24613904853794",
      "lat": "41.131050427919966"
    },
    {
      "id": "pt.ine.add.PTCONT.3936352",
      "street": "TV CARVALHINHAS",
      "house": "60",
      "postcode": "4575-088",
      "city": "BOELHE",
      "lon": "-8.245233057871381",
      "lat": "41.130529056407596"
    },
    {
      "id": "pt.ine.add.PTCONT.3943941",
      "street": "TV CARVALHINHAS",
      "house": "80",
      "postcode": "4575-088",
      "city": "BOELHE",
      "lon": "-8.245483026821999",
      "lat": "41.13045677741814"
    },
    {
      "id": "pt.ine.add.PTCONT.3961236",
      "street": "R FONTE SN",
      "house": "SN",
      "postcode": "4575-111",
      "city": "BOELHE",
      "lon": "-8.244888732148295",
      "lat": "41.13114169214498"
    },
    {
      "id": "pt.ine.add.PTCONT.3961234",
      "street": "R FONTE",
      "house": "56",
      "postcode": "4575-111",
      "city": "BOELHE",
      "lon": "-8.244888732148295",
      "lat": "41.13114169214498"
    },
    {
      "id": "pt.ine.add.PTCONT.3961235",
      "street": "R FONTE",
      "house": "56",
      "postcode": "4575-111",
      "city": "BOELHE",
      "lon": "-8.244888732148295",
      "lat": "41.13114169214498"
    },
    {
      "id": "pt.ine.add.PTCONT.3964661",
      "street": "R FONTE",
      "house": "56",
      "postcode": "4575-111",
      "city": "BOELHE",
      "lon": "-8.244888732148295",
      "lat": "41.13114169214498"
    },
    {
      "id": "pt.ine.add.PTCONT.4065872",
      "street": "TV SAMARDA",
      "house": "66",
      "postcode": "4575-101",
      "city": "BOELHE",
      "lon": "-8.245579007157769",
      "lat": "41.130870887472106"
    },
    {
      "id": "pt.ine.add.PTCONT.4078629",
      "street": "R CARVALHINHAS",
      "house": "",
      "postcode": "4575-088",
      "city": "BOELHE",
      "lon": "-8.24467352674697",
      "lat": "41.13064665719739"
    },
    {
      "id": "pt.ine.add.PTCONT.4104872",
      "street": "TV CARVALHINHAS",
      "house": "34",
      "postcode": "4575-088",
      "city": "BOELHE",
      "lon": "-8.244887861022406",
      "lat": "41.130628440576565"
    },
    {
      "id": "pt.ine.add.PTCONT.4164176",
      "street": "TV CARVALHINHAS",
      "house": "44",
      "postcode": "4575-088",
      "city": "BOELHE",
      "lon": "-8.245185620529778",
      "lat": "41.13064616014106"
    },
    {
      "id": "pt.ine.add.PTCONT.4250729",
      "street": "TV SAMARDA",
      "house": "80",
      "postcode": "4575-101",
      "city": "BOELHE",
      "lon": "-8.245769739167136",
      "lat": "41.13097875424611"
    },
    {
      "id": "pt.ine.add.PTCONT.4250730",
      "street": "TV SAMARDA",
      "house": "80",
      "postcode": "4575-101",
      "city": "BOELHE",
      "lon": "-8.245769739167136",
      "lat": "41.13097875424611"
    },
    {
      "id": "pt.ine.add.PTCONT.4268648",
      "street": "R CARVALHINHAS",
      "house": "73",
      "postcode": "4575-088",
      "city": "BOELHE",
      "lon": "-8.244530951998833",
      "lat": "41.13084489260832"
    },
    {
      "id": "pt.ine.add.PTCONT.4275492",
      "street": "R FONTE",
      "house": "",
      "postcode": "4575-111",
      "city": "BOELHE",
      "lon": "-8.245174339572005",
      "lat": "41.13101535267899"
    },
    {
      "id": "pt.ine.add.PTCONT.4361109",
      "street": "R SAMARDA",
      "house": "117",
      "postcode": "4575-101",
      "city": "BOELHE",
      "lon": "-8.245556095844606",
      "lat": "41.13140217108292"
    },
    {
      "id": "pt.ine.add.PTCONT.4364072",
      "street": "R SAMARDA",
      "house": "117",
      "postcode": "4575-101",
      "city": "BOELHE",
      "lon": "-8.245556095844606",
      "lat": "41.13140217108292"
    },
    {
      "id": "pt.ine.add.PTCONT.4386031",
      "street": "TV SAMARDA",
      "house": "120",
      "postcode": "4575-101",
      "city": "BOELHE",
      "lon": "-8.245877600528749",
      "lat": "41.13137484353847"
    }
  ]
}