{
  "data": {
    "distrito": "Porto",
    "concelho": "Penafiel",
    "freguesia": "Boelhe",
    "OBJECTID": 673,
    "BGRI2021": "13110200126",
    "DT21": "13",
    "DTMN21": "1311",
    "DTMNFR21": "131102",
    "DTMNFRSEC21": "131102001",
    "SECNUM21": "001",
    "SSNUM21": "26",
    "SECSSNUM21": "00126",
    "OBJECTID_1": 136563,
    "DT": "13",
    "CC": "11",
    "fr": "02",
    "SEC": "001",
    "SS": "26"
  },
  "addresses": [
    {
      "id": "pt.ine.add.PTCONT.3583190",
      "street": "R CALVARIO",
      "house": "",
      "postcode": "4575-087",
      "city": "BOELHE",
      "lon": "-8.243686986694655",
      "lat": "41.131791170686505"
    },
    {
      "id": "pt.ine.add.PTCONT.3599999",
      "street": "CC CALVÁRIO",
      "house": "25",
      "postcode": "4575-087",
      "city": "BOELHE",
      "lon": "-8.244055600573436",
      "lat": "41.13144864804778"
    },
    {
      "id": "pt.ine.add.PTCONT.3774554",
      "street": "R CARVALHINHAS",
      "house": "149",
      "postcode": "4575-088",
      "city": "BOELHE",
      "lon": "-8.243852930435805",
      "lat": "41.131322781065556"
    },
    {
      "id": "pt.ine.add.PTCONT.3876133",
      "street": "LG CALVÁRIO",
      "house": "",
      "postcode": "4575-087",
      "city": "BOELHE",
      "lon": "-8.243436950362709",
      "lat": "41.13182742812136"
    },
    {
      "id": "pt.ine.add.PTCONT.3916735",
      "street": "LG CALVÁRIO",
      "house": "46",
      "postcode": "4575-087",
      "city": "BOELHE",
      "lon": "-8.243377614579455",
      "lat": "41.13195354690619"
    },
    {
      "id": "pt.ine.add.PTCONT.4078614",
      "street": "R CARVALHINHAS",
      "house": "109",
      "postcode": "4575-088",
      "city": "BOELHE",
      "lon": "-8.244281421326395",
      "lat": "41.131178297519284"
    },
    {
      "id": "pt.ine.add.PTCONT.4250728",
      "street": "R CALVÁRIO",
      "house": "41",
      "postcode": "4575-087",
      "city": "BOELHE",
      "lon": "-8.243627016762886",
      "lat": "41.13153910427341"
    },
    {
      "id": "pt.ine.add.PTCONT.4340772",
      "street": "CC CALVÁRIO",
      "house": "",
      "postcode": "4575-087",
      "city": "BOELHE",
      "lon": "-8.244627323355024",
      "lat": "41.13149311816702"
    },
    {
      "id": "pt.ine.add.PTCONT.4348139",
      "street": "CC CALVÁRIO",
      "house": "",
      "postcode": "4575-087",
      "city": "BOELHE",
      "lon": "-8.243567832630394",
      "lat": "41.131755267287566"
    }
  ]
}