{
  "data": {
    "distrito": "Porto",
    "concelho": "Penafiel",
    "freguesia": "Boelhe",
    "OBJECTID": 689,
    "BGRI2021": "13110200136",
    "DT21": "13",
    "DTMN21": "1311",
    "DTMNFR21": "131102",
    "DTMNFRSEC21": "131102001",
    "SECNUM21": "001",
    "SSNUM21": "36",
    "SECSSNUM21": "00136",
    "OBJECTID_1": 137432,
    "DT": "13",
    "CC": "11",
    "fr": "02",
    "SEC": "001",
    "SS": "36"
  },
  "addresses": [
    {
      "id": "pt.ine.add.PTCONT.3748839",
      "street": "R RECOVEIRA",
      "house": "",
      "postcode": "4575-080",
      "city": "BOELHE",
      "lon": "-8.243260599066227",
      "lat": "41.133196269600965"
    },
    {
      "id": "pt.ine.add.PTCONT.4005444",
      "street": "R CALVÁRIO",
      "house": "20",
      "postcode": "4575-087",
      "city": "BOELHE",
      "lon": "-8.24301049705466",
      "lat": "41.1331965084669"
    },
    {
      "id": "pt.ine.add.PTCONT.4005624",
      "street": "R CALVÁRIO",
      "house": "20",
      "postcode": "4575-087",
      "city": "BOELHE",
      "lon": "-8.24301049705466",
      "lat": "41.1331965084669"
    },
    {
      "id": "pt.ine.add.PTCONT.4005625",
      "street": "R CALVARIO",
      "house": "20",
      "postcode": "4575-087",
      "city": "BOELHE",
      "lon": "-8.243081714178802",
      "lat": "41.13305236970658"
    },
    {
      "id": "pt.ine.add.PTCONT.4104855",
      "street": "R ARCA",
      "house": "24",
      "postcode": "4575-096",
      "city": "BOELHE",
      "lon": "-8.243237261697345",
      "lat": "41.13348443349781"
    },
    {
      "id": "pt.ine.add.PTCONT.4104856",
      "street": "R CALVARIO",
      "house": "24",
      "postcode": "4575-087",
      "city": "BOELHE",
      "lon": "-8.243237261697345",
      "lat": "41.13348443349781"
    },
    {
      "id": "pt.ine.add.PTCONT.4160334",
      "street": "R ARCA",
      "house": "22",
      "postcode": "4575-096",
      "city": "BOELHE",
      "lon": "-8.243356433787785",
      "lat": "41.13352934163394"
    },
    {
      "id": "pt.ine.add.PTCONT.4229176",
      "street": "R CALVÁRIO",
      "house": "",
      "postcode": "4575-087",
      "city": "BOELHE",
      "lon": "-8.242998842873979",
      "lat": "41.133349594803235"
    }
  ]
}