{
  "data": {
    "distrito": "Faro",
    "concelho": "Olhão",
    "freguesia": "Olhão",
    "OBJECTID": 397,
    "BGRI2021": "08100300505",
    "DT21": "08",
    "DTMN21": "0810",
    "DTMNFR21": "081003",
    "DTMNFRSEC21": "081003005",
    "SECNUM21": "005",
    "SSNUM21": "05",
    "SECSSNUM21": "00505",
    "OBJECTID_1": 70751,
    "DT": "08",
    "CC": "10",
    "fr": "03",
    "SEC": "005",
    "SS": "05"
  },
  "addresses": [
    {
      "id": "pt.ine.add.PTCONT.1535834",
      "street": "R ALEXANDRE HERCULANO",
      "house": "46",
      "postcode": "8700-428",
      "city": "OLHÃO",
      "lon": "-7.84072812001467",
      "lat": "37.02429610141119"
    },
    {
      "id": "pt.ine.add.PTCONT.1548857",
      "street": "AV 5 DE OUTUBRO",
      "house": "66",
      "postcode": "8700-302",
      "city": "OLHÃO",
      "lon": "-7.840616949974671",
      "lat": "37.02398045104352"
    },
    {
      "id": "pt.ine.add.PTCONT.1581795",
      "street": "TV ALEXANDRE HERCULANO",
      "house": "5",
      "postcode": "8700-188",
      "city": "OLHÃO",
      "lon": "-7.840413769615676",
      "lat": "37.02421422970399"
    },
    {
      "id": "pt.ine.add.PTCONT.1581903",
      "street": "TV ALEXANDRE HERCULANO",
      "house": "5",
      "postcode": "8700-188",
      "city": "OLHÃO",
      "lon": "-7.840413769615676",
      "lat": "37.02421422970399"
    },
    {
      "id": "pt.ine.add.PTCONT.1590538",
      "street": "R MAJOR CALDAS",
      "house": "7",
      "postcode": "8700-428",
      "city": "OLHÃO",
      "lon": "-7.840761522996759",
      "lat": "37.0243772804948"
    },
    {
      "id": "pt.ine.add.PTCONT.1651048",
      "street": "R ALEXANDRE HERCULANO",
      "house": "36",
      "postcode": "8700-444",
      "city": "OLHÃO",
      "lon": "-7.840402220582351",
      "lat": "37.02429529800815"
    },
    {
      "id": "pt.ine.add.PTCONT.1669381",
      "street": "R 7 COTOVELOS",
      "house": "27",
      "postcode": "8700-444",
      "city": "OLHÃO",
      "lon": "-7.840412870815158",
      "lat": "37.02444850709964"
    },
    {
      "id": "pt.ine.add.PTCONT.1755923",
      "street": "R MAJ CALDAS",
      "house": "7",
      "postcode": "8700-428",
      "city": "OLHÃO",
      "lon": "-7.840862629794191",
      "lat": "37.02438654028616"
    },
    {
      "id": "pt.ine.add.PTCONT.1826327",
      "street": "R ALEXANDRE HERCULANO",
      "house": "52",
      "postcode": "8700-540",
      "city": "OLHÃO",
      "lon": "-7.840840464613495",
      "lat": "37.02430538890866"
    },
    {
      "id": "pt.ine.add.PTCONT.1826328",
      "street": "R ALEXANDRE HERCULANO",
      "house": "52",
      "postcode": "8700-540",
      "city": "OLHÃO",
      "lon": "-7.840840464613495",
      "lat": "37.02430538890866"
    },
    {
      "id": "pt.ine.add.PTCONT.1826329",
      "street": "R ALEXANDRE HERCULANO",
      "house": "52",
      "postcode": "8700-540",
      "city": "OLHÃO",
      "lon": "-7.840840464613495",
      "lat": "37.02430538890866"
    }
  ]
}