{
  "data": {
    "distrito": "Santarém",
    "concelho": "Cartaxo",
    "freguesia": "Pontével",
    "OBJECTID": 211,
    "BGRI2021": "14060400414",
    "DT21": "14",
    "DTMN21": "1406",
    "DTMNFR21": "140604",
    "DTMNFRSEC21": "140604004",
    "SECNUM21": "004",
    "SSNUM21": "14",
    "SECSSNUM21": "00414",
    "OBJECTID_1": 149436,
    "DT": "14",
    "CC": "06",
    "fr": "04",
    "SEC": "004",
    "SS": "14"
  },
  "addresses": [
    {
      "id": "pt.ine.add.PTCONT.4432687",
      "street": "ESTR VÁRZEAS",
      "house": "",
      "postcode": "2070-465",
      "city": "PONTÉVEL",
      "lon": "-8.820008159250964",
      "lat": "39.152513338046155"
    },
    {
      "id": "pt.ine.add.PTCONT.4507198",
      "street": "EN 365 CASAL ANGELINO",
      "house": "",
      "postcode": "2070-387",
      "city": "PONTÉVEL",
      "lon": "-8.823663955641527",
      "lat": "39.152527763089225"
    },
    {
      "id": "pt.ine.add.PTCONT.4530253",
      "street": "R CEDROS",
      "house": "",
      "postcode": "2070-216",
      "city": "PONTÉVEL",
      "lon": "-8.823095547103968",
      "lat": "39.15236899683008"
    },
    {
      "id": "pt.ine.add.PTCONT.4558920",
      "street": "EN 365",
      "house": "",
      "postcode": "2070-387",
      "city": "PONTÉVEL",
      "lon": "-8.82344698245309",
      "lat": "39.1528172847542"
    },
    {
      "id": "pt.ine.add.PTCONT.4577582",
      "street": "R CEDROS",
      "house": "",
      "postcode": "2070-216",
      "city": "PONTÉVEL",
      "lon": "-8.823811256029789",
      "lat": "39.152211631806566"
    },
    {
      "id": "pt.ine.add.PTCONT.4585983",
      "street": "ESTR VÁRZEAS",
      "house": "",
      "postcode": "2070-465",
      "city": "PONTÉVEL",
      "lon": "-8.824583037643212",
      "lat": "39.151873782060555"
    },
    {
      "id": "pt.ine.add.PTCONT.4594081",
      "street": "EN 365 FÁBRICA FERNANDO FERREIRA",
      "house": "",
      "postcode": "2070-387",
      "city": "PONTÉVEL",
      "lon": "-8.82221580469823",
      "lat": "39.15350012475647"
    },
    {
      "id": "pt.ine.add.PTCONT.4594380",
      "street": "ESTR VÁRZEAS",
      "house": "",
      "postcode": "2070-465",
      "city": "PONTÉVEL",
      "lon": "-8.821409026388201",
      "lat": "39.153811143373204"
    }
  ]
}