{
  "data": {
    "distrito": "Vila Real",
    "concelho": "Vila Real",
    "freguesia": "Mateus",
    "OBJECTID": 110,
    "BGRI2021": "17141500407",
    "DT21": "17",
    "DTMN21": "1714",
    "DTMNFR21": "171415",
    "DTMNFRSEC21": "171415004",
    "SECNUM21": "004",
    "SSNUM21": "07",
    "SECSSNUM21": "00407",
    "OBJECTID_1": 187251,
    "DT": "17",
    "CC": "14",
    "fr": "15",
    "SEC": "004",
    "SS": "07"
  },
  "addresses": [
    {
      "id": "pt.ine.add.PTCONT.5288332",
      "street": "R MARRAO",
      "house": "",
      "postcode": "5000-281",
      "city": "VILA REAL",
      "lon": "-7.722730900303925",
      "lat": "41.29655776365929"
    },
    {
      "id": "pt.ine.add.PTCONT.5291476",
      "street": "R MARRAO",
      "house": "",
      "postcode": "5000-281",
      "city": "VILA REAL",
      "lon": "-7.722493419050799",
      "lat": "41.29634982158203"
    },
    {
      "id": "pt.ine.add.PTCONT.5295658",
      "street": "TV MORGADO DE MATEUS",
      "house": "2",
      "postcode": "5000-275",
      "city": "VILA REAL",
      "lon": "-7.723892745033201",
      "lat": "41.2940497438809"
    },
    {
      "id": "pt.ine.add.PTCONT.5295659",
      "street": "TV MORGADO DE MATEUS",
      "house": "4",
      "postcode": "5000-275",
      "city": "VILA REAL",
      "lon": "-7.723892745033201",
      "lat": "41.2940497438809"
    },
    {
      "id": "pt.ine.add.PTCONT.5297539",
      "street": "R SILVESTRE VAZ",
      "house": "",
      "postcode": "5000-281",
      "city": "VILA REAL",
      "lon": "-7.7223128093112825",
      "lat": "41.296592289005986"
    },
    {
      "id": "pt.ine.add.PTCONT.5298327",
      "street": "R SILVESTRE VAZ",
      "house": "",
      "postcode": "5000-281",
      "city": "VILA REAL",
      "lon": "-7.721857600070626",
      "lat": "41.296833775456356"
    },
    {
      "id": "pt.ine.add.PTCONT.5300608",
      "street": "R SILVESTRE VAZ",
      "house": "",
      "postcode": "5000-281",
      "city": "VILA REAL",
      "lon": "-7.719960484587641",
      "lat": "41.29663789544697"
    },
    {
      "id": "pt.ine.add.PTCONT.5300609",
      "street": "R SILVESTRE VAZ",
      "house": "",
      "postcode": "5000-281",
      "city": "VILA REAL",
      "lon": "-7.719960484587641",
      "lat": "41.29663789544697"
    },
    {
      "id": "pt.ine.add.PTCONT.5300610",
      "street": "R SILVESTRE VAZ A",
      "house": "A",
      "postcode": "5000-281",
      "city": "VILA REAL",
      "lon": "-7.719960484587641",
      "lat": "41.29663789544697"
    },
    {
      "id": "pt.ine.add.PTCONT.5300611",
      "street": "R SILVESTRE VAZ",
      "house": "6A",
      "postcode": "5000-281",
      "city": "VILA REAL",
      "lon": "-7.719960484587641",
      "lat": "41.29663789544697"
    },
    {
      "id": "pt.ine.add.PTCONT.5300612",
      "street": "R SILVESTRE VAZ",
      "house": "",
      "postcode": "5000-281",
      "city": "VILA REAL",
      "lon": "-7.719960484587641",
      "lat": "41.29663789544697"
    },
    {
      "id": "pt.ine.add.PTCONT.5300613",
      "street": "R SILVESTRE VAZ A",
      "house": "A",
      "postcode": "5000-281",
      "city": "VILA REAL",
      "lon": "-7.719960484587641",
      "lat": "41.29663789544697"
    },
    {
      "id": "pt.ine.add.PTCONT.5300614",
      "street": "R SILVESTRE VAZ",
      "house": "6 A",
      "postcode": "5000-281",
      "city": "VILA REAL",
      "lon": "-7.719960484587641",
      "lat": "41.29663789544697"
    },
    {
      "id": "pt.ine.add.PTCONT.5300768",
      "street": "R SILVESTRE VAZ",
      "house": "",
      "postcode": "5000-281",
      "city": "VILA REAL",
      "lon": "-7.719960484587641",
      "lat": "41.29663789544697"
    },
    {
      "id": "pt.ine.add.PTCONT.5301721",
      "street": "R MANUEL SANTOS GOMES B",
      "house": "B2",
      "postcode": "5000-715",
      "city": "VILA REAL",
      "lon": "-7.723277857944556",
      "lat": "41.293102121207184"
    },
    {
      "id": "pt.ine.add.PTCONT.5301722",
      "street": "R MANUEL SANTOS GOMES",
      "house": "8 17",
      "postcode": "5000-715",
      "city": "VILA REAL",
      "lon": "-7.723277857944556",
      "lat": "41.293102121207184"
    },
    {
      "id": "pt.ine.add.PTCONT.5301723",
      "street": "R MANUEL SANTOS GOMES B",
      "house": "B2",
      "postcode": "5000-715",
      "city": "VILA REAL",
      "lon": "-7.723277857944556",
      "lat": "41.293102121207184"
    },
    {
      "id": "pt.ine.add.PTCONT.5301724",
      "street": "R MANUEL SANTOS GOMES B",
      "house": "B2",
      "postcode": "5000-715",
      "city": "VILA REAL",
      "lon": "-7.723277857944556",
      "lat": "41.293102121207184"
    },
    {
      "id": "pt.ine.add.PTCONT.5301725",
      "street": "R MANUEL SANTOS GOMES B",
      "house": "B1",
      "postcode": "5000-715",
      "city": "VILA REAL",
      "lon": "-7.723277857944556",
      "lat": "41.293102121207184"
    },
    {
      "id": "pt.ine.add.PTCONT.5301726",
      "street": "R MANUEL SANTOS GOMES",
      "house": "82",
      "postcode": "5000-715",
      "city": "VILA REAL",
      "lon": "-7.723277857944556",
      "lat": "41.293102121207184"
    },
    {
      "id": "pt.ine.add.PTCONT.5301887",
      "street": "TV MORGADO DE MATEUS",
      "house": "6",
      "postcode": "5000-275",
      "city": "VILA REAL",
      "lon": "-7.723701953496245",
      "lat": "41.294013048923674"
    },
    {
      "id": "pt.ine.add.PTCONT.5301907",
      "street": "TV MORGADO DE MATEUS",
      "house": "8",
      "postcode": "5000-275",
      "city": "VILA REAL",
      "lon": "-7.723701953496245",
      "lat": "41.294013048923674"
    },
    {
      "id": "pt.ine.add.PTCONT.5302784",
      "street": "R SILVESTRE VAZ",
      "house": "43",
      "postcode": "5000-281",
      "city": "VILA REAL",
      "lon": "-7.724136440545498",
      "lat": "41.297085005833665"
    },
    {
      "id": "pt.ine.add.PTCONT.5311182",
      "street": "R CAVERNELHE",
      "house": "B",
      "postcode": "5000-281",
      "city": "VILA REAL",
      "lon": "-7.720273283374833",
      "lat": "41.296260843757715"
    },
    {
      "id": "pt.ine.add.PTCONT.5311183",
      "street": "R CAVERNELHE",
      "house": "ED1 ENTB",
      "postcode": "5000-281",
      "city": "VILA REAL",
      "lon": "-7.720273283374833",
      "lat": "41.296260843757715"
    },
    {
      "id": "pt.ine.add.PTCONT.5311184",
      "street": "R CAVERNELHE",
      "house": "B",
      "postcode": "5000-281",
      "city": "VILA REAL",
      "lon": "-7.720273283374833",
      "lat": "41.296260843757715"
    },
    {
      "id": "pt.ine.add.PTCONT.5311197",
      "street": "R CAVERNELHE ENTR B",
      "house": "ENTR B",
      "postcode": "5000-281",
      "city": "VILA REAL",
      "lon": "-7.720273283374833",
      "lat": "41.296260843757715"
    },
    {
      "id": "pt.ine.add.PTCONT.5311198",
      "street": "R CAVERNELHE",
      "house": "B",
      "postcode": "5000-281",
      "city": "VILA REAL",
      "lon": "-7.720273283374833",
      "lat": "41.296260843757715"
    },
    {
      "id": "pt.ine.add.PTCONT.5311199",
      "street": "R CAVERNELHE",
      "house": "B",
      "postcode": "5000-281",
      "city": "VILA REAL",
      "lon": "-7.720273283374833",
      "lat": "41.296260843757715"
    },
    {
      "id": "pt.ine.add.PTCONT.5312153",
      "street": "R CAVERNELHO",
      "house": "D4",
      "postcode": "5000-265",
      "city": "VILA REAL",
      "lon": "-7.722965711997511",
      "lat": "41.293380138028965"
    },
    {
      "id": "pt.ine.add.PTCONT.5312152",
      "street": "R CAVERNELHO",
      "house": "D4",
      "postcode": "5000-265",
      "city": "VILA REAL",
      "lon": "-7.722965711997511",
      "lat": "41.293380138028965"
    },
    {
      "id": "pt.ine.add.PTCONT.5312154",
      "street": "R CAVERNELHO",
      "house": "D4",
      "postcode": "5000-265",
      "city": "VILA REAL",
      "lon": "-7.722965711997511",
      "lat": "41.293380138028965"
    },
    {
      "id": "pt.ine.add.PTCONT.5312155",
      "street": "R CAVERNELHO",
      "house": "D4",
      "postcode": "5000-265",
      "city": "VILA REAL",
      "lon": "-7.722965711997511",
      "lat": "41.293380138028965"
    },
    {
      "id": "pt.ine.add.PTCONT.5312156",
      "street": "R CAVERNELHO",
      "house": "4",
      "postcode": "5000-265",
      "city": "VILA REAL",
      "lon": "-7.722965711997511",
      "lat": "41.293380138028965"
    },
    {
      "id": "pt.ine.add.PTCONT.5312438",
      "street": "R CAVERNELHO",
      "house": "D4",
      "postcode": "5000-265",
      "city": "VILA REAL",
      "lon": "-7.722965711997511",
      "lat": "41.293380138028965"
    },
    {
      "id": "pt.ine.add.PTCONT.5314250",
      "street": "R CAVERNELHO",
      "house": "H8",
      "postcode": "5000-265",
      "city": "VILA REAL",
      "lon": "-7.72292713301563",
      "lat": "41.293821203683216"
    },
    {
      "id": "pt.ine.add.PTCONT.5314251",
      "street": "R CAVERNELHO ENTR H",
      "house": "ENTR H8",
      "postcode": "5000-265",
      "city": "VILA REAL",
      "lon": "-7.72292713301563",
      "lat": "41.293821203683216"
    },
    {
      "id": "pt.ine.add.PTCONT.5314252",
      "street": "R CAVERNELHO",
      "house": "H8",
      "postcode": "5000-265",
      "city": "VILA REAL",
      "lon": "-7.72292713301563",
      "lat": "41.293821203683216"
    },
    {
      "id": "pt.ine.add.PTCONT.5314253",
      "street": "R CAVERNELHO",
      "house": "H8",
      "postcode": "5000-265",
      "city": "VILA REAL",
      "lon": "-7.72292713301563",
      "lat": "41.293821203683216"
    },
    {
      "id": "pt.ine.add.PTCONT.5314421",
      "street": "R CAVERNELHO",
      "house": "48",
      "postcode": "5000-265",
      "city": "VILA REAL",
      "lon": "-7.72292713301563",
      "lat": "41.293821203683216"
    },
    {
      "id": "pt.ine.add.PTCONT.5317399",
      "street": "R CAVERNELHO",
      "house": "",
      "postcode": "5000-265",
      "city": "VILA REAL",
      "lon": "-7.723238999445551",
      "lat": "41.29358820672061"
    },
    {
      "id": "pt.ine.add.PTCONT.5317400",
      "street": "R CAVERNELHO",
      "house": "6",
      "postcode": "5000-265",
      "city": "VILA REAL",
      "lon": "-7.723238999445551",
      "lat": "41.29358820672061"
    },
    {
      "id": "pt.ine.add.PTCONT.5317401",
      "street": "R CAVERNELHO",
      "house": "6F",
      "postcode": "5000-265",
      "city": "VILA REAL",
      "lon": "-7.723238999445551",
      "lat": "41.29358820672061"
    },
    {
      "id": "pt.ine.add.PTCONT.5318301",
      "street": "R SILVESTRE VAZ",
      "house": "41",
      "postcode": "5000-281",
      "city": "VILA REAL",
      "lon": "-7.723909879035072",
      "lat": "41.29703918000522"
    },
    {
      "id": "pt.ine.add.PTCONT.5318302",
      "street": "R CAVERNELHO I",
      "house": "I9",
      "postcode": "5000-265",
      "city": "VILA REAL",
      "lon": "-7.72316601580853",
      "lat": "41.29380404632313"
    },
    {
      "id": "pt.ine.add.PTCONT.5318303",
      "street": "R CAVERNELHO I",
      "house": "I9",
      "postcode": "5000-265",
      "city": "VILA REAL",
      "lon": "-7.72316601580853",
      "lat": "41.29380404632313"
    },
    {
      "id": "pt.ine.add.PTCONT.5318304",
      "street": "R CAVERNELHO",
      "house": "",
      "postcode": "5000-265",
      "city": "VILA REAL",
      "lon": "-7.72316601580853",
      "lat": "41.29380404632313"
    },
    {
      "id": "pt.ine.add.PTCONT.5322493",
      "street": "R SILVESTRE VAZ",
      "house": "37",
      "postcode": "5000-281",
      "city": "VILA REAL",
      "lon": "-7.723563927027449",
      "lat": "41.29699292903987"
    },
    {
      "id": "pt.ine.add.PTCONT.5322512",
      "street": "R SILVESTRE VAZ",
      "house": "",
      "postcode": "5000-281",
      "city": "VILA REAL",
      "lon": "-7.721225170310878",
      "lat": "41.29677748952589"
    },
    {
      "id": "pt.ine.add.PTCONT.5322680",
      "street": "BR DO MARRAO",
      "house": "",
      "postcode": "5000-717",
      "city": "VILA REAL",
      "lon": "-7.724748816477834",
      "lat": "41.29652892309279"
    },
    {
      "id": "pt.ine.add.PTCONT.5322681",
      "street": "BR DO MARRAO",
      "house": "",
      "postcode": "5000-717",
      "city": "VILA REAL",
      "lon": "-7.724748816477834",
      "lat": "41.29652892309279"
    },
    {
      "id": "pt.ine.add.PTCONT.5322682",
      "street": "BR DO MARRAO",
      "house": "",
      "postcode": "5000-717",
      "city": "VILA REAL",
      "lon": "-7.724748816477834",
      "lat": "41.29652892309279"
    },
    {
      "id": "pt.ine.add.PTCONT.5322683",
      "street": "BR DO MARRAO",
      "house": "",
      "postcode": "5000-717",
      "city": "VILA REAL",
      "lon": "-7.724748816477834",
      "lat": "41.29652892309279"
    },
    {
      "id": "pt.ine.add.PTCONT.5322684",
      "street": "BR DO MARRAO",
      "house": "",
      "postcode": "5000-717",
      "city": "VILA REAL",
      "lon": "-7.724748816477834",
      "lat": "41.29652892309279"
    },
    {
      "id": "pt.ine.add.PTCONT.5322685",
      "street": "BR DO MARRAO",
      "house": "",
      "postcode": "5000-717",
      "city": "VILA REAL",
      "lon": "-7.724748816477834",
      "lat": "41.29652892309279"
    },
    {
      "id": "pt.ine.add.PTCONT.5325609",
      "street": "R SILVESTRE VAZ N A",
      "house": "N A",
      "postcode": "5000-281",
      "city": "VILA REAL",
      "lon": "-7.723229745486744",
      "lat": "41.296973731364965"
    },
    {
      "id": "pt.ine.add.PTCONT.5327209",
      "street": "R SILVESTRE VAZ",
      "house": "",
      "postcode": "5000-281",
      "city": "VILA REAL",
      "lon": "-7.724637714215395",
      "lat": "41.29711379803949"
    },
    {
      "id": "pt.ine.add.PTCONT.5331261",
      "street": "R MARRAO",
      "house": "",
      "postcode": "5000-281",
      "city": "VILA REAL",
      "lon": "-7.7229453510793",
      "lat": "41.29663056108012"
    },
    {
      "id": "pt.ine.add.PTCONT.5333264",
      "street": "QTA CAVERNELHO C",
      "house": "C3",
      "postcode": "5000-265",
      "city": "VILA REAL",
      "lon": "-7.7230986132364565",
      "lat": "41.293128495376024"
    },
    {
      "id": "pt.ine.add.PTCONT.5333265",
      "street": "QTA CAVERNELHO ENTR C",
      "house": "ENTR C",
      "postcode": "5000-265",
      "city": "VILA REAL",
      "lon": "-7.7230986132364565",
      "lat": "41.293128495376024"
    },
    {
      "id": "pt.ine.add.PTCONT.5333266",
      "street": "QTA CAVERNELHO",
      "house": "3",
      "postcode": "5000-265",
      "city": "VILA REAL",
      "lon": "-7.7230986132364565",
      "lat": "41.293128495376024"
    },
    {
      "id": "pt.ine.add.PTCONT.5333267",
      "street": "QTA CAVERNELHO",
      "house": "",
      "postcode": "5000-265",
      "city": "VILA REAL",
      "lon": "-7.7230986132364565",
      "lat": "41.293128495376024"
    },
    {
      "id": "pt.ine.add.PTCONT.5333268",
      "street": "QTA CAVERNELHO C",
      "house": "C",
      "postcode": "5000-265",
      "city": "VILA REAL",
      "lon": "-7.7230986132364565",
      "lat": "41.293128495376024"
    },
    {
      "id": "pt.ine.add.PTCONT.5333269",
      "street": "QTA CAVERNELHO C",
      "house": "C3",
      "postcode": "5000-265",
      "city": "VILA REAL",
      "lon": "-7.7230986132364565",
      "lat": "41.293128495376024"
    },
    {
      "id": "pt.ine.add.PTCONT.5333270",
      "street": "R CAVERNELHO",
      "house": "",
      "postcode": "5000-281",
      "city": "VILA REAL",
      "lon": "-7.721131187704562",
      "lat": "41.296534041436495"
    },
    {
      "id": "pt.ine.add.PTCONT.5333271",
      "street": "R CAVERNELHO",
      "house": "",
      "postcode": "5000-281",
      "city": "VILA REAL",
      "lon": "-7.721131187704562",
      "lat": "41.296534041436495"
    },
    {
      "id": "pt.ine.add.PTCONT.5333272",
      "street": "R CAVERNELHO",
      "house": "",
      "postcode": "5000-281",
      "city": "VILA REAL",
      "lon": "-7.721131187704562",
      "lat": "41.296534041436495"
    },
    {
      "id": "pt.ine.add.PTCONT.5333273",
      "street": "R CAVERNELHO",
      "house": "",
      "postcode": "5000-281",
      "city": "VILA REAL",
      "lon": "-7.721131187704562",
      "lat": "41.296534041436495"
    },
    {
      "id": "pt.ine.add.PTCONT.5333462",
      "street": "R CAVERNELHO",
      "house": "",
      "postcode": "5000-281",
      "city": "VILA REAL",
      "lon": "-7.721131187704562",
      "lat": "41.296534041436495"
    },
    {
      "id": "pt.ine.add.PTCONT.5333471",
      "street": "R CAVERNELHO",
      "house": "",
      "postcode": "5000-281",
      "city": "VILA REAL",
      "lon": "-7.721131187704562",
      "lat": "41.296534041436495"
    },
    {
      "id": "pt.ine.add.PTCONT.5334280",
      "street": "R SILVESTRE VAZ",
      "house": "",
      "postcode": "5000-281",
      "city": "VILA REAL",
      "lon": "-7.720306772700959",
      "lat": "41.29663013360567"
    },
    {
      "id": "pt.ine.add.PTCONT.5334281",
      "street": "R SILVESTRE VAZ",
      "house": "",
      "postcode": "5000-281",
      "city": "VILA REAL",
      "lon": "-7.720306772700959",
      "lat": "41.29663013360567"
    },
    {
      "id": "pt.ine.add.PTCONT.5334289",
      "street": "R SILVESTRE VAZ",
      "house": "",
      "postcode": "5000-281",
      "city": "VILA REAL",
      "lon": "-7.720306772700959",
      "lat": "41.29663013360567"
    },
    {
      "id": "pt.ine.add.PTCONT.5334290",
      "street": "R SILVESTRE VAZ",
      "house": "",
      "postcode": "5000-281",
      "city": "VILA REAL",
      "lon": "-7.720306772700959",
      "lat": "41.29663013360567"
    },
    {
      "id": "pt.ine.add.PTCONT.5334291",
      "street": "R SILVESTRE VAZ",
      "house": "",
      "postcode": "5000-281",
      "city": "VILA REAL",
      "lon": "-7.720306772700959",
      "lat": "41.29663013360567"
    },
    {
      "id": "pt.ine.add.PTCONT.5338433",
      "street": "R MARRAO",
      "house": "",
      "postcode": "5000-281",
      "city": "VILA REAL",
      "lon": "-7.721959840896891",
      "lat": "41.29576264791583"
    },
    {
      "id": "pt.ine.add.PTCONT.5344395",
      "street": "R SILVESTRE VAZ",
      "house": "",
      "postcode": "5000-281",
      "city": "VILA REAL",
      "lon": "-7.720938633385696",
      "lat": "41.29677646394268"
    },
    {
      "id": "pt.ine.add.PTCONT.5354508",
      "street": "R CAVERNELHO",
      "house": "51",
      "postcode": "5000-265",
      "city": "VILA REAL",
      "lon": "-7.720715988392453",
      "lat": "41.29610936016552"
    },
    {
      "id": "pt.ine.add.PTCONT.5355077",
      "street": "R CAVERNELHE",
      "house": "1",
      "postcode": "5000-281",
      "city": "VILA REAL",
      "lon": "-7.720511608323993",
      "lat": "41.296333731328716"
    },
    {
      "id": "pt.ine.add.PTCONT.5355078",
      "street": "R CAVERNELHE",
      "house": "ENT A",
      "postcode": "5000-281",
      "city": "VILA REAL",
      "lon": "-7.720511608323993",
      "lat": "41.296333731328716"
    },
    {
      "id": "pt.ine.add.PTCONT.5355079",
      "street": "R CAVERNELHE",
      "house": "",
      "postcode": "5000-281",
      "city": "VILA REAL",
      "lon": "-7.720511608323993",
      "lat": "41.296333731328716"
    },
    {
      "id": "pt.ine.add.PTCONT.5355080",
      "street": "R CAVERNELHE A",
      "house": "A",
      "postcode": "5000-281",
      "city": "VILA REAL",
      "lon": "-7.720511608323993",
      "lat": "41.296333731328716"
    },
    {
      "id": "pt.ine.add.PTCONT.5355626",
      "street": "R CAVERNELHE",
      "house": "ENT A",
      "postcode": "5000-281",
      "city": "VILA REAL",
      "lon": "-7.720511608323993",
      "lat": "41.296333731328716"
    },
    {
      "id": "pt.ine.add.PTCONT.5355642",
      "street": "R CAVERNELHE A",
      "house": "A",
      "postcode": "5000-281",
      "city": "VILA REAL",
      "lon": "-7.720511608323993",
      "lat": "41.296333731328716"
    },
    {
      "id": "pt.ine.add.PTCONT.5356946",
      "street": "R MANUEL DOS SANTOS GOMES",
      "house": "",
      "postcode": "5000-715",
      "city": "VILA REAL",
      "lon": "-7.723504799657589",
      "lat": "41.293084920626924"
    },
    {
      "id": "pt.ine.add.PTCONT.5356947",
      "street": "R MANUEL DOS SANTOS GOMES",
      "house": "",
      "postcode": "5000-715",
      "city": "VILA REAL",
      "lon": "-7.723504799657589",
      "lat": "41.293084920626924"
    },
    {
      "id": "pt.ine.add.PTCONT.5356948",
      "street": "R MANUEL DOS SANTOS GOMES",
      "house": "",
      "postcode": "5000-715",
      "city": "VILA REAL",
      "lon": "-7.723504799657589",
      "lat": "41.293084920626924"
    },
    {
      "id": "pt.ine.add.PTCONT.5356949",
      "street": "R MANUEL DOS SANTOS GOMES",
      "house": "",
      "postcode": "5000-715",
      "city": "VILA REAL",
      "lon": "-7.723504799657589",
      "lat": "41.293084920626924"
    },
    {
      "id": "pt.ine.add.PTCONT.5357819",
      "street": "R MANUEL DOS SANTOS GOMES",
      "house": "",
      "postcode": "5000-715",
      "city": "VILA REAL",
      "lon": "-7.723504799657589",
      "lat": "41.293084920626924"
    },
    {
      "id": "pt.ine.add.PTCONT.5357824",
      "street": "R MANUEL DOS SANTOS GOMES",
      "house": "",
      "postcode": "5000-715",
      "city": "VILA REAL",
      "lon": "-7.723504799657589",
      "lat": "41.293084920626924"
    },
    {
      "id": "pt.ine.add.PTCONT.5359151",
      "street": "R CAVERNELHO E",
      "house": "E 5",
      "postcode": "5000-265",
      "city": "VILA REAL",
      "lon": "-7.7232040858944755",
      "lat": "41.29344401608288"
    },
    {
      "id": "pt.ine.add.PTCONT.5359152",
      "street": "R CAVERNELHO E",
      "house": "E5",
      "postcode": "5000-265",
      "city": "VILA REAL",
      "lon": "-7.7232040858944755",
      "lat": "41.29344401608288"
    },
    {
      "id": "pt.ine.add.PTCONT.5359153",
      "street": "R CAVERNELHO E",
      "house": "E5",
      "postcode": "5000-265",
      "city": "VILA REAL",
      "lon": "-7.7232040858944755",
      "lat": "41.29344401608288"
    },
    {
      "id": "pt.ine.add.PTCONT.5359154",
      "street": "R CAVERNELHO",
      "house": "ENT E 5",
      "postcode": "5000-265",
      "city": "VILA REAL",
      "lon": "-7.7232040858944755",
      "lat": "41.29344401608288"
    },
    {
      "id": "pt.ine.add.PTCONT.5359155",
      "street": "R CAVERNELHO",
      "house": "15",
      "postcode": "5000-265",
      "city": "VILA REAL",
      "lon": "-7.7232040858944755",
      "lat": "41.29344401608288"
    },
    {
      "id": "pt.ine.add.PTCONT.5362178",
      "street": "BR DO MARRÃO",
      "house": "",
      "postcode": "5000-717",
      "city": "VILA REAL",
      "lon": "-7.724856267468061",
      "lat": "41.296529304211774"
    },
    {
      "id": "pt.ine.add.PTCONT.5362179",
      "street": "BR DO MARRÃO",
      "house": "",
      "postcode": "5000-717",
      "city": "VILA REAL",
      "lon": "-7.724856267468061",
      "lat": "41.296529304211774"
    },
    {
      "id": "pt.ine.add.PTCONT.5362180",
      "street": "BR DO MARRÃO",
      "house": "",
      "postcode": "5000-717",
      "city": "VILA REAL",
      "lon": "-7.724856267468061",
      "lat": "41.296529304211774"
    },
    {
      "id": "pt.ine.add.PTCONT.5362181",
      "street": "BR DO MARRÃO",
      "house": "",
      "postcode": "5000-717",
      "city": "VILA REAL",
      "lon": "-7.724856267468061",
      "lat": "41.296529304211774"
    },
    {
      "id": "pt.ine.add.PTCONT.5362182",
      "street": "BR DO MARRÃO",
      "house": "",
      "postcode": "5000-717",
      "city": "VILA REAL",
      "lon": "-7.724856267468061",
      "lat": "41.296529304211774"
    },
    {
      "id": "pt.ine.add.PTCONT.5363263",
      "street": "R SILVESTRE VAZ",
      "house": "33",
      "postcode": "5000-281",
      "city": "VILA REAL",
      "lon": "-7.724279597291834",
      "lat": "41.29710352261807"
    },
    {
      "id": "pt.ine.add.PTCONT.5364142",
      "street": "R SILVESTRE VAZ D",
      "house": "D",
      "postcode": "5000-281",
      "city": "VILA REAL",
      "lon": "-7.721726440243606",
      "lat": "41.296806294393676"
    },
    {
      "id": "pt.ine.add.PTCONT.5369995",
      "street": "R SILVESTRE VAZ",
      "house": "",
      "postcode": "5000-281",
      "city": "VILA REAL",
      "lon": "-7.720497626645938",
      "lat": "41.29665783026341"
    },
    {
      "id": "pt.ine.add.PTCONT.5369996",
      "street": "R SILVESTRE VAZ",
      "house": "",
      "postcode": "5000-281",
      "city": "VILA REAL",
      "lon": "-7.720497626645938",
      "lat": "41.29665783026341"
    },
    {
      "id": "pt.ine.add.PTCONT.5369997",
      "street": "R SILVESTRE VAZ",
      "house": "",
      "postcode": "5000-281",
      "city": "VILA REAL",
      "lon": "-7.720497626645938",
      "lat": "41.29665783026341"
    },
    {
      "id": "pt.ine.add.PTCONT.5370037",
      "street": "R SILVESTRE VAZ",
      "house": "",
      "postcode": "5000-281",
      "city": "VILA REAL",
      "lon": "-7.720497626645938",
      "lat": "41.29665783026341"
    },
    {
      "id": "pt.ine.add.PTCONT.5370823",
      "street": "R SILVESTRE VAZ",
      "house": "",
      "postcode": "5000-281",
      "city": "VILA REAL",
      "lon": "-7.720497626645938",
      "lat": "41.29665783026341"
    },
    {
      "id": "pt.ine.add.PTCONT.5374082",
      "street": "TV MORGADO DE MATEUS",
      "house": "10",
      "postcode": "5000-275",
      "city": "VILA REAL",
      "lon": "-7.723463295390436",
      "lat": "41.293994191616015"
    },
    {
      "id": "pt.ine.add.PTCONT.5374083",
      "street": "TV MORGADO DE MATEUS",
      "house": "12",
      "postcode": "5000-275",
      "city": "VILA REAL",
      "lon": "-7.723463295390436",
      "lat": "41.293994191616015"
    },
    {
      "id": "pt.ine.add.PTCONT.5377037",
      "street": "R MARRAO",
      "house": "",
      "postcode": "5000-281",
      "city": "VILA REAL",
      "lon": "-7.722267143749829",
      "lat": "41.29625897283517"
    },
    {
      "id": "pt.ine.add.PTCONT.5379198",
      "street": "R SILVESTRE VAZ",
      "house": "5",
      "postcode": "5000-281",
      "city": "VILA REAL",
      "lon": "-7.724709292683126",
      "lat": "41.29712305614266"
    },
    {
      "id": "pt.ine.add.PTCONT.5379199",
      "street": "R SILVESTRE VAZ",
      "house": "7",
      "postcode": "5000-281",
      "city": "VILA REAL",
      "lon": "-7.724458740036744",
      "lat": "41.29709515455742"
    },
    {
      "id": "pt.ine.add.PTCONT.5379200",
      "street": "R SILVESTRE VAZ",
      "house": "9",
      "postcode": "5000-281",
      "city": "VILA REAL",
      "lon": "-7.724458740036744",
      "lat": "41.29709515455742"
    },
    {
      "id": "pt.ine.add.PTCONT.5381431",
      "street": "R CAVERNELHE",
      "house": "55",
      "postcode": "5000-281",
      "city": "VILA REAL",
      "lon": "-7.72171732995021",
      "lat": "41.29635605482238"
    },
    {
      "id": "pt.ine.add.PTCONT.5383453",
      "street": "R SILVESTRE VAZ",
      "house": "39",
      "postcode": "5000-281",
      "city": "VILA REAL",
      "lon": "-7.7238144788858",
      "lat": "41.29702083256961"
    },
    {
      "id": "pt.ine.add.PTCONT.5388823",
      "street": "R SILVESTRE VAZ",
      "house": "",
      "postcode": "5000-281",
      "city": "VILA REAL",
      "lon": "-7.722383031266121",
      "lat": "41.29681764307906"
    },
    {
      "id": "pt.ine.add.PTCONT.5388824",
      "street": "R SILVESTRE VAZ",
      "house": "",
      "postcode": "5000-281",
      "city": "VILA REAL",
      "lon": "-7.722383031266121",
      "lat": "41.29681764307906"
    },
    {
      "id": "pt.ine.add.PTCONT.5388825",
      "street": "R SILVESTRE VAZ",
      "house": "",
      "postcode": "5000-281",
      "city": "VILA REAL",
      "lon": "-7.722383031266121",
      "lat": "41.29681764307906"
    },
    {
      "id": "pt.ine.add.PTCONT.5388826",
      "street": "R SILVESTRE VAZ",
      "house": "",
      "postcode": "5000-281",
      "city": "VILA REAL",
      "lon": "-7.722383031266121",
      "lat": "41.29681764307906"
    },
    {
      "id": "pt.ine.add.PTCONT.5393228",
      "street": "R SILVESTRE VAZ",
      "house": "6",
      "postcode": "5000-281",
      "city": "VILA REAL",
      "lon": "-7.719985157993854",
      "lat": "41.29651192603609"
    },
    {
      "id": "pt.ine.add.PTCONT.5393229",
      "street": "R CAVERNELHE",
      "house": "",
      "postcode": "5000-281",
      "city": "VILA REAL",
      "lon": "-7.719985157993854",
      "lat": "41.29651192603609"
    },
    {
      "id": "pt.ine.add.PTCONT.5393230",
      "street": "R CAVERNELHE B",
      "house": "B",
      "postcode": "5000-281",
      "city": "VILA REAL",
      "lon": "-7.719985157993854",
      "lat": "41.29651192603609"
    },
    {
      "id": "pt.ine.add.PTCONT.5397387",
      "street": "R SILVESTRE VAZ",
      "house": "",
      "postcode": "5000-281",
      "city": "VILA REAL",
      "lon": "-7.722107924476145",
      "lat": "41.29689769844685"
    },
    {
      "id": "pt.ine.add.PTCONT.5399532",
      "street": "R CAVERNELHE",
      "house": "",
      "postcode": "5000-281",
      "city": "VILA REAL",
      "lon": "-7.720904856994842",
      "lat": "41.296452193958096"
    },
    {
      "id": "pt.ine.add.PTCONT.5399533",
      "street": "R CAVERNELHE",
      "house": "",
      "postcode": "5000-281",
      "city": "VILA REAL",
      "lon": "-7.720904856994842",
      "lat": "41.296452193958096"
    },
    {
      "id": "pt.ine.add.PTCONT.5399534",
      "street": "R CAVERNELHE ENTRADA B",
      "house": "",
      "postcode": "5000-281",
      "city": "VILA REAL",
      "lon": "-7.720904856994842",
      "lat": "41.296452193958096"
    },
    {
      "id": "pt.ine.add.PTCONT.5399535",
      "street": "R CAVERNELHE",
      "house": "",
      "postcode": "5000-281",
      "city": "VILA REAL",
      "lon": "-7.720904856994842",
      "lat": "41.296452193958096"
    },
    {
      "id": "pt.ine.add.PTCONT.5399671",
      "street": "R CAVERNELHE",
      "house": "",
      "postcode": "5000-281",
      "city": "VILA REAL",
      "lon": "-7.720904856994842",
      "lat": "41.296452193958096"
    },
    {
      "id": "pt.ine.add.PTCONT.5399762",
      "street": "R CAVERNELHO",
      "house": "ENT B",
      "postcode": "5000-281",
      "city": "VILA REAL",
      "lon": "-7.720904856994842",
      "lat": "41.296452193958096"
    },
    {
      "id": "pt.ine.add.PTCONT.5400717",
      "street": "R SILVESTRE VAZ",
      "house": "",
      "postcode": "5000-281",
      "city": "VILA REAL",
      "lon": "-7.72076000146964",
      "lat": "41.29670379109689"
    },
    {
      "id": "pt.ine.add.PTCONT.5400718",
      "street": "R SILVESTRE VAZ",
      "house": "",
      "postcode": "5000-281",
      "city": "VILA REAL",
      "lon": "-7.72076000146964",
      "lat": "41.29670379109689"
    },
    {
      "id": "pt.ine.add.PTCONT.5400843",
      "street": "R SILVESTRE VAZ",
      "house": "",
      "postcode": "5000-281",
      "city": "VILA REAL",
      "lon": "-7.72076000146964",
      "lat": "41.29670379109689"
    },
    {
      "id": "pt.ine.add.PTCONT.5402206",
      "street": "R SILVESTRE VAZ",
      "house": "9A",
      "postcode": "5000-281",
      "city": "VILA REAL",
      "lon": "-7.724554196664782",
      "lat": "41.29710449751975"
    },
    {
      "id": "pt.ine.add.PTCONT.5402259",
      "street": "R SILVESTRE VAZ B",
      "house": "B",
      "postcode": "5000-281",
      "city": "VILA REAL",
      "lon": "-7.721583398081824",
      "lat": "41.296769766564324"
    },
    {
      "id": "pt.ine.add.PTCONT.5409946",
      "street": "R SILVESTRE VAZ",
      "house": "",
      "postcode": "5000-281",
      "city": "VILA REAL",
      "lon": "-7.7228356995166",
      "lat": "41.29698133179815"
    },
    {
      "id": "pt.ine.add.PTCONT.5411323",
      "street": "R CAVERNELHO",
      "house": "ENT G7",
      "postcode": "5000-265",
      "city": "VILA REAL",
      "lon": "-7.722760219688587",
      "lat": "41.29378459224435"
    },
    {
      "id": "pt.ine.add.PTCONT.5411324",
      "street": "R CAVERNELHO",
      "house": "706",
      "postcode": "5000-265",
      "city": "VILA REAL",
      "lon": "-7.722760219688587",
      "lat": "41.29378459224435"
    },
    {
      "id": "pt.ine.add.PTCONT.5411325",
      "street": "R CAVERNELHO",
      "house": "67",
      "postcode": "5000-265",
      "city": "VILA REAL",
      "lon": "-7.722760219688587",
      "lat": "41.29378459224435"
    },
    {
      "id": "pt.ine.add.PTCONT.5411326",
      "street": "R CAVERNELHO G",
      "house": "G7",
      "postcode": "5000-265",
      "city": "VILA REAL",
      "lon": "-7.722760219688587",
      "lat": "41.29378459224435"
    },
    {
      "id": "pt.ine.add.PTCONT.5411333",
      "street": "R CAVERNELHO G",
      "house": "G7",
      "postcode": "5000-265",
      "city": "VILA REAL",
      "lon": "-7.722760219688587",
      "lat": "41.29378459224435"
    },
    {
      "id": "pt.ine.add.PTCONT.5411334",
      "street": "R SILVESTRE VAZ",
      "house": "",
      "postcode": "5000-281",
      "city": "VILA REAL",
      "lon": "-7.721654919142605",
      "lat": "41.29678803050116"
    },
    {
      "id": "pt.ine.add.PTCONT.5422331",
      "street": "R SILVESTRE VAZ",
      "house": "",
      "postcode": "5000-281",
      "city": "VILA REAL",
      "lon": "-7.721786022336548",
      "lat": "41.29682451558287"
    },
    {
      "id": "pt.ine.add.PTCONT.5423272",
      "street": "BR DO MARRÃO",
      "house": "",
      "postcode": "5000-717",
      "city": "VILA REAL",
      "lon": "-7.724856267468061",
      "lat": "41.296529304211774"
    },
    {
      "id": "pt.ine.add.PTCONT.5423858",
      "street": "R CAVERNELHO",
      "house": "5",
      "postcode": "5000-265",
      "city": "VILA REAL",
      "lon": "-7.7232040858944755",
      "lat": "41.29344401608288"
    },
    {
      "id": "pt.ine.add.PTCONT.5424670",
      "street": "R CAVERNELHO G",
      "house": "G7",
      "postcode": "5000-265",
      "city": "VILA REAL",
      "lon": "-7.722760219688587",
      "lat": "41.29378459224435"
    },
    {
      "id": "pt.ine.add.PTCONT.5424827",
      "street": "R SILVESTRE VAZ",
      "house": "7",
      "postcode": "5000-281",
      "city": "VILA REAL",
      "lon": "-7.724458740036744",
      "lat": "41.29709515455742"
    },
    {
      "id": "pt.ine.add.PTCONT.5426492",
      "street": "CAVERNELHO",
      "house": "H8",
      "postcode": "5000-265",
      "city": "VILA REAL",
      "lon": "-7.72292713301563",
      "lat": "41.293821203683216"
    }
  ]
}