{
  "data": {
    "distrito": "Guarda",
    "concelho": "Aguiar da Beira",
    "freguesia": "Pinheiro",
    "OBJECTID": 295,
    "BGRI2021": "09011000111",
    "DT21": "09",
    "DTMN21": "0901",
    "DTMNFR21": "090110",
    "DTMNFRSEC21": "090110001",
    "SECNUM21": "001",
    "SSNUM21": "11",
    "SECSSNUM21": "00111",
    "OBJECTID_1": 74927,
    "DT": "09",
    "CC": "01",
    "fr": "10",
    "SEC": "001",
    "SS": "11"
  },
  "addresses": [
    {
      "id": "pt.ine.add.PTCONT.1913815",
      "street": "AV PRINCIPAL",
      "house": "51",
      "postcode": "3570-180",
      "city": "PINHEIRO AGB",
      "lon": "-7.594416066975565",
      "lat": "40.78650831303462"
    },
    {
      "id": "pt.ine.add.PTCONT.1913816",
      "street": "AV PRINCIPAL",
      "house": "51",
      "postcode": "3570-180",
      "city": "PINHEIRO AGB",
      "lon": "-7.594416066975565",
      "lat": "40.78650831303462"
    },
    {
      "id": "pt.ine.add.PTCONT.1925637",
      "street": "R DO TORGAL",
      "house": "5",
      "postcode": "3570-180",
      "city": "PINHEIRO AGB",
      "lon": "-7.599041346214071",
      "lat": "40.78443166776127"
    },
    {
      "id": "pt.ine.add.PTCONT.1851888",
      "street": "EN 229",
      "house": "37",
      "postcode": "3570-180",
      "city": "PINHEIRO AGB",
      "lon": "-7.599790347478783",
      "lat": "40.784101949971046"
    },
    {
      "id": "pt.ine.add.PTCONT.1852926",
      "street": "R DE S GERALDO",
      "house": "20",
      "postcode": "3570-180",
      "city": "PINHEIRO AGB",
      "lon": "-7.601278056250782",
      "lat": "40.784730155308104"
    },
    {
      "id": "pt.ine.add.PTCONT.1857556",
      "street": "R DO VALE",
      "house": "",
      "postcode": "3570-180",
      "city": "PINHEIRO AGB",
      "lon": "-7.599632235357277",
      "lat": "40.784614499303736"
    },
    {
      "id": "pt.ine.add.PTCONT.1863775",
      "street": "R DO VALE",
      "house": "3",
      "postcode": "3570-180",
      "city": "PINHEIRO AGB",
      "lon": "-7.600033581040876",
      "lat": "40.78479645235987"
    }
  ]
}