{
  "data": {
    "distrito": "Évora",
    "concelho": "Alandroal",
    "freguesia": "Terena (São Pedro)",
    "OBJECTID": 50,
    "BGRI2021": "07010500121",
    "DT21": "07",
    "DTMN21": "0701",
    "DTMNFR21": "070105",
    "DTMNFRSEC21": "070105001",
    "SECNUM21": "001",
    "SSNUM21": "21",
    "SECSSNUM21": "00121",
    "OBJECTID_1": 58423,
    "DT": "07",
    "CC": "01",
    "fr": "05",
    "SEC": "001",
    "SS": "21"
  },
  "addresses": [
    {
      "id": "pt.ine.add.PTCONT.1378261",
      "street": "MTE GARCOA",
      "house": "",
      "postcode": "7250-066",
      "city": "TERENA",
      "lon": "-7.429804839006436",
      "lat": "38.597102601874425"
    },
    {
      "id": "pt.ine.add.PTCONT.1382051",
      "street": "MTE COSTA",
      "house": "",
      "postcode": "7250-066",
      "city": "TERENA",
      "lon": "-7.407644616268884",
      "lat": "38.60455223715622"
    },
    {
      "id": "pt.ine.add.PTCONT.1393205",
      "street": "",
      "house": "",
      "postcode": "7250-066",
      "city": "TERENA",
      "lon": "-7.43296577708117",
      "lat": "38.60257152917017"
    },
    {
      "id": "pt.ine.add.PTCONT.1395510",
      "street": "MTE PORTELA",
      "house": "",
      "postcode": "7250-066",
      "city": "TERENA",
      "lon": "-7.437158217394142",
      "lat": "38.60589354443445"
    },
    {
      "id": "pt.ine.add.PTCONT.1395511",
      "street": "MTE VALE CLARAS",
      "house": "",
      "postcode": "7250-066",
      "city": "TERENA",
      "lon": "-7.437035437397879",
      "lat": "38.603154316709876"
    },
    {
      "id": "pt.ine.add.PTCONT.1418542",
      "street": "QTA PINHA",
      "house": "",
      "postcode": "7250-069",
      "city": "TERENA",
      "lon": "-7.442417830210936",
      "lat": "38.60931179492666"
    },
    {
      "id": "pt.ine.add.PTCONT.1437408",
      "street": "MTE INVERNO",
      "house": "",
      "postcode": "7250-066",
      "city": "TERENA",
      "lon": "-7.427540587285662",
      "lat": "38.59974639739075"
    },
    {
      "id": "pt.ine.add.PTCONT.1437556",
      "street": "",
      "house": "",
      "postcode": "7250-066",
      "city": "TERENA",
      "lon": "-7.435169599329587",
      "lat": "38.59904446339112"
    },
    {
      "id": "pt.ine.add.PTCONT.1449207",
      "street": "MTE GODINHOS",
      "house": "",
      "postcode": "7250-069",
      "city": "TERENA",
      "lon": "-7.438625380827868",
      "lat": "38.60851464238934"
    },
    {
      "id": "pt.ine.add.PTCONT.1451415",
      "street": "MTE VICENTES",
      "house": "",
      "postcode": "7250-066",
      "city": "TERENA",
      "lon": "-7.416938294264693",
      "lat": "38.60622195302105"
    },
    {
      "id": "pt.ine.add.PTCONT.1452961",
      "street": "MTE FEITEIRAS",
      "house": "",
      "postcode": "7250-065",
      "city": "TERENA",
      "lon": "-7.450974746850971",
      "lat": "38.59800262103606"
    }
  ]
}