{
  "data": {
    "distrito": "Castelo Branco",
    "concelho": "Oleiros",
    "freguesia": "Oleiros-Amieira",
    "OBJECTID": 99,
    "BGRI2021": "05061400201",
    "DT21": "05",
    "DTMN21": "0506",
    "DTMNFR21": "050614",
    "DTMNFRSEC21": "050614002",
    "SECNUM21": "002",
    "SSNUM21": "01",
    "SECSSNUM21": "00201",
    "OBJECTID_1": 44918,
    "DT": "05",
    "CC": "06",
    "fr": "14",
    "SEC": "002",
    "SS": "01"
  },
  "addresses": [
    {
      "id": "pt.ine.add.PTCONT.950849",
      "street": "R S JOAO DEUS",
      "house": "37",
      "postcode": "6160-415",
      "city": "OLEIROS",
      "lon": "-7.914095756380212",
      "lat": "39.9168567173283"
    },
    {
      "id": "pt.ine.add.PTCONT.950850",
      "street": "R S JOAO DE DEUS",
      "house": "",
      "postcode": "6160-415",
      "city": "OLEIROS",
      "lon": "-7.914095756380212",
      "lat": "39.9168567173283"
    },
    {
      "id": "pt.ine.add.PTCONT.956874",
      "street": "R MISERICÓRDIA",
      "house": "30",
      "postcode": "6160-413",
      "city": "OLEIROS",
      "lon": "-7.914270597181088",
      "lat": "39.91704618007008"
    },
    {
      "id": "pt.ine.add.PTCONT.962868",
      "street": "R S JOÃO DE DEUS",
      "house": "31",
      "postcode": "6160-415",
      "city": "OLEIROS",
      "lon": "-7.914166076888335",
      "lat": "39.91681181853732"
    },
    {
      "id": "pt.ine.add.PTCONT.962869",
      "street": "R S JOÃO DE DEUS",
      "house": "31",
      "postcode": "6160-415",
      "city": "OLEIROS",
      "lon": "-7.914166076888335",
      "lat": "39.91681181853732"
    },
    {
      "id": "pt.ine.add.PTCONT.966817",
      "street": "R S JOÃO DE DEUS",
      "house": "1",
      "postcode": "6160-415",
      "city": "OLEIROS",
      "lon": "-7.915126219974906",
      "lat": "39.91648039366806"
    },
    {
      "id": "pt.ine.add.PTCONT.975475",
      "street": "R JACINTO DOMINGUES",
      "house": "6",
      "postcode": "6160-423",
      "city": "OLEIROS",
      "lon": "-7.915008801658011",
      "lat": "39.91662427396244"
    },
    {
      "id": "pt.ine.add.PTCONT.986025",
      "street": "R JACINTO DOMINGUES",
      "house": "3",
      "postcode": "6160-423",
      "city": "OLEIROS",
      "lon": "-7.91507917845282",
      "lat": "39.916561362086355"
    },
    {
      "id": "pt.ine.add.PTCONT.1003772",
      "street": "R MISERICÓRDIA",
      "house": "14",
      "postcode": "6160-413",
      "city": "OLEIROS",
      "lon": "-7.9148329019950605",
      "lat": "39.916768044066465"
    },
    {
      "id": "pt.ine.add.PTCONT.1003773",
      "street": "R MISERICÓRDIA",
      "house": "14",
      "postcode": "6160-413",
      "city": "OLEIROS",
      "lon": "-7.9148329019950605",
      "lat": "39.916768044066465"
    },
    {
      "id": "pt.ine.add.PTCONT.1003774",
      "street": "R MISERICÓRDIA",
      "house": "14",
      "postcode": "6160-413",
      "city": "OLEIROS",
      "lon": "-7.9148329019950605",
      "lat": "39.916768044066465"
    },
    {
      "id": "pt.ine.add.PTCONT.1008670",
      "street": "R S JOÃO DE DEUS",
      "house": "",
      "postcode": "6160-415",
      "city": "OLEIROS",
      "lon": "-7.9142715144803475",
      "lat": "39.916757979664176"
    },
    {
      "id": "pt.ine.add.PTCONT.1017731",
      "street": "R MISERICÓRDIA",
      "house": "12",
      "postcode": "6160-413",
      "city": "OLEIROS",
      "lon": "-7.914961645598845",
      "lat": "39.91674126738395"
    },
    {
      "id": "pt.ine.add.PTCONT.1017732",
      "street": "R JACINTO DOMINGUES",
      "house": "1",
      "postcode": "6160-423",
      "city": "OLEIROS",
      "lon": "-7.9150442899932605",
      "lat": "39.91649825226097"
    },
    {
      "id": "pt.ine.add.PTCONT.1022895",
      "street": "TV S JOÃO DE DEUS",
      "house": "1",
      "postcode": "6160-510",
      "city": "OLEIROS",
      "lon": "-7.914692376285492",
      "lat": "39.91682181736506"
    },
    {
      "id": "pt.ine.add.PTCONT.1028116",
      "street": "LG VISCONDES",
      "house": "1",
      "postcode": "6160-407",
      "city": "OLEIROS",
      "lon": "-7.915266687579109",
      "lat": "39.91644463236576"
    },
    {
      "id": "pt.ine.add.PTCONT.1054039",
      "street": "R S JOÃO DE DEUS",
      "house": "9",
      "postcode": "6160-415",
      "city": "OLEIROS",
      "lon": "-7.914962245670567",
      "lat": "39.91655213585049"
    },
    {
      "id": "pt.ine.add.PTCONT.1058587",
      "street": "R MISERICÓRDIA",
      "house": "26",
      "postcode": "6160-413",
      "city": "OLEIROS",
      "lon": "-7.914188580275351",
      "lat": "39.91709105684136"
    },
    {
      "id": "pt.ine.add.PTCONT.1077982",
      "street": "R S JOSE",
      "house": "",
      "postcode": "6160-416",
      "city": "OLEIROS",
      "lon": "-7.914130013096815",
      "lat": "39.917117965206494"
    },
    {
      "id": "pt.ine.add.PTCONT.1087327",
      "street": "R S JOSE",
      "house": "7",
      "postcode": "6160-416",
      "city": "OLEIROS",
      "lon": "-7.914060122653057",
      "lat": "39.91702777003847"
    },
    {
      "id": "pt.ine.add.PTCONT.1089310",
      "street": "R S JOÃO DE DEUS",
      "house": "21",
      "postcode": "6160-415",
      "city": "OLEIROS",
      "lon": "-7.9143651984418355",
      "lat": "39.916722131157464"
    },
    {
      "id": "pt.ine.add.PTCONT.1089913",
      "street": "R MISERICÓRDIA",
      "house": "10",
      "postcode": "6160-413",
      "city": "OLEIROS",
      "lon": "-7.91519605417877",
      "lat": "39.91658860073182"
    },
    {
      "id": "pt.ine.add.PTCONT.1096672",
      "street": "R DA MISERICORDIA",
      "house": "",
      "postcode": "6160-312",
      "city": "OLEIROS",
      "lon": "-7.914961645598845",
      "lat": "39.91674126738395"
    },
    {
      "id": "pt.ine.add.PTCONT.1096809",
      "street": "R S JOÃO DE DEUS",
      "house": "3",
      "postcode": "6160-415",
      "city": "OLEIROS",
      "lon": "-7.915184786221626",
      "lat": "39.91645348479429"
    }
  ]
}