{
  "data": {
    "distrito": "Évora",
    "concelho": "Redondo",
    "freguesia": "Montoito",
    "OBJECTID": 189,
    "BGRI2021": "07100100209",
    "DT21": "07",
    "DTMN21": "0710",
    "DTMNFR21": "071001",
    "DTMNFRSEC21": "071001002",
    "SECNUM21": "002",
    "SSNUM21": "09",
    "SECSSNUM21": "00209",
    "OBJECTID_1": 63041,
    "DT": "07",
    "CC": "10",
    "fr": "01",
    "SEC": "002",
    "SS": "09"
  },
  "addresses": [
    {
      "id": "pt.ine.add.PTCONT.1392394",
      "street": "R LADEIRA",
      "house": "26-28",
      "postcode": "7200-053",
      "city": "MONTOITO",
      "lon": "-7.5968622299564",
      "lat": "38.50832718182913"
    },
    {
      "id": "pt.ine.add.PTCONT.1392395",
      "street": "R LADEIRA",
      "house": "26-28",
      "postcode": "7200-053",
      "city": "MONTOITO",
      "lon": "-7.5968622299564",
      "lat": "38.50832718182913"
    },
    {
      "id": "pt.ine.add.PTCONT.1414077",
      "street": "R DR BENTO DE JESUS CARAÇA",
      "house": "61",
      "postcode": "7200-053",
      "city": "MONTOITO",
      "lon": "-7.596920821180517",
      "lat": "38.50815629006251"
    },
    {
      "id": "pt.ine.add.PTCONT.1416500",
      "street": "R ROSSIO",
      "house": "86",
      "postcode": "7200-053",
      "city": "MONTOITO",
      "lon": "-7.596397911660891",
      "lat": "38.508335227129265"
    },
    {
      "id": "pt.ine.add.PTCONT.1418977",
      "street": "R DA LADEIRA",
      "house": "32",
      "postcode": "7200-053",
      "city": "MONTOITO",
      "lon": "-7.596815370137536",
      "lat": "38.50846209359296"
    },
    {
      "id": "pt.ine.add.PTCONT.1424741",
      "street": "R ORIENTAL",
      "house": "13",
      "postcode": "7200-053",
      "city": "MONTOITO",
      "lon": "-7.596267017608451",
      "lat": "38.50819833694931"
    },
    {
      "id": "pt.ine.add.PTCONT.1426704",
      "street": "R LADEIRA",
      "house": "30",
      "postcode": "7200-053",
      "city": "MONTOITO",
      "lon": "-7.596838766663163",
      "lat": "38.50839914177237"
    },
    {
      "id": "pt.ine.add.PTCONT.1430687",
      "street": "R ROSSIO",
      "house": "84",
      "postcode": "7200-053",
      "city": "MONTOITO",
      "lon": "-7.596494901219304",
      "lat": "38.50838855823226"
    },
    {
      "id": "pt.ine.add.PTCONT.1434667",
      "street": "R DA LADEIRA",
      "house": "34",
      "postcode": "7200-053",
      "city": "MONTOITO",
      "lon": "-7.596762749155838",
      "lat": "38.508537180140074"
    },
    {
      "id": "pt.ine.add.PTCONT.1440591",
      "street": "R ORIENTAL",
      "house": "9",
      "postcode": "7200-053",
      "city": "MONTOITO",
      "lon": "-7.596347936977887",
      "lat": "38.50810862362793"
    },
    {
      "id": "pt.ine.add.PTCONT.1446723",
      "street": "R ORIENTAL",
      "house": "1",
      "postcode": "7200-053",
      "city": "MONTOITO",
      "lon": "-7.596532570084869",
      "lat": "38.50794731809885"
    },
    {
      "id": "pt.ine.add.PTCONT.1464678",
      "street": "R ORIENTAL",
      "house": "3",
      "postcode": "7200-053",
      "city": "MONTOITO",
      "lon": "-7.596463249194038",
      "lat": "38.508019067853716"
    }
  ]
}