{
  "data": {
    "distrito": "Leiria",
    "concelho": "Castanheira de Pêra",
    "freguesia": "União das freguesias de Castanheira de Pêra e Coentral",
    "OBJECTID": 171,
    "BGRI2021": "10070300415",
    "DT21": "10",
    "DTMN21": "1007",
    "DTMNFR21": "100703",
    "DTMNFRSEC21": "100703004",
    "SECNUM21": "004",
    "SSNUM21": "15",
    "SECSSNUM21": "00415",
    "OBJECTID_1": 88741,
    "DT": "10",
    "CC": "07",
    "fr": "03",
    "SEC": "004",
    "SS": "15"
  },
  "addresses": [
    {
      "id": "pt.ine.add.PTCONT.2012388",
      "street": "PCT 15 DE NOVEMBRO",
      "house": "",
      "postcode": "3280-041",
      "city": "CASTANHEIRA DE PÊRA",
      "lon": "-8.208749621706092",
      "lat": "40.003201758835154"
    },
    {
      "id": "pt.ine.add.PTCONT.2022246",
      "street": "R DR JOSE FERNANDES CARVALHO",
      "house": "",
      "postcode": "3280-039",
      "city": "CASTANHEIRA DE PÊRA",
      "lon": "-8.20808367198621",
      "lat": "40.00464318220458"
    },
    {
      "id": "pt.ine.add.PTCONT.2036366",
      "street": "R JOÃO BEBIANO",
      "house": "",
      "postcode": "3280-041",
      "city": "CASTANHEIRA DE PÊRA",
      "lon": "-8.209429329910366",
      "lat": "40.0036246042688"
    },
    {
      "id": "pt.ine.add.PTCONT.2063398",
      "street": "R JOÃO BEBIANO",
      "house": "50",
      "postcode": "3280-041",
      "city": "CASTANHEIRA DE PÊRA",
      "lon": "-8.208972230022768",
      "lat": "40.00329167526185"
    },
    {
      "id": "pt.ine.add.PTCONT.2065278",
      "street": "R JOÃO BEBIANO",
      "house": "50",
      "postcode": "3280-041",
      "city": "CASTANHEIRA DE PÊRA",
      "lon": "-8.208972230022768",
      "lat": "40.00329167526185"
    },
    {
      "id": "pt.ine.add.PTCONT.2078714",
      "street": "R JOÃO BEBIANO",
      "house": "52",
      "postcode": "3280-041",
      "city": "CASTANHEIRA DE PÊRA",
      "lon": "-8.209241833019904",
      "lat": "40.00351665328209"
    },
    {
      "id": "pt.ine.add.PTCONT.2092110",
      "street": "R JOÃO BEBIANO",
      "house": "68",
      "postcode": "3280-041",
      "city": "CASTANHEIRA DE PÊRA",
      "lon": "-8.209581734369477",
      "lat": "40.00376860287748"
    },
    {
      "id": "pt.ine.add.PTCONT.2092111",
      "street": "R JOÃO BEBIANO",
      "house": "68",
      "postcode": "3280-041",
      "city": "CASTANHEIRA DE PÊRA",
      "lon": "-8.209581734369477",
      "lat": "40.00376860287748"
    },
    {
      "id": "pt.ine.add.PTCONT.2092112",
      "street": "R JOÃO BEBIANO",
      "house": "68",
      "postcode": "3280-041",
      "city": "CASTANHEIRA DE PÊRA",
      "lon": "-8.209581734369477",
      "lat": "40.00376860287748"
    },
    {
      "id": "pt.ine.add.PTCONT.2092113",
      "street": "R JOÃO BEBIANO",
      "house": "68",
      "postcode": "3280-041",
      "city": "CASTANHEIRA DE PÊRA",
      "lon": "-8.209581734369477",
      "lat": "40.00376860287748"
    },
    {
      "id": "pt.ine.add.PTCONT.2117537",
      "street": "",
      "house": "",
      "postcode": "3280-012",
      "city": "CASTANHEIRA DE PÊRA",
      "lon": "-8.208362071695149",
      "lat": "40.002211329842396"
    },
    {
      "id": "pt.ine.add.PTCONT.2130454",
      "street": "R DR JOSE FERNANDES CARVALHO CASA DA OBRA",
      "house": "",
      "postcode": "3280-039",
      "city": "CASTANHEIRA DE PÊRA",
      "lon": "-8.208821151005687",
      "lat": "40.00434549848428"
    },
    {
      "id": "pt.ine.add.PTCONT.2131316",
      "street": "R DR JOSE FERNANDES CARVALHO CASA DA OBRA",
      "house": "",
      "postcode": "3280-039",
      "city": "CASTANHEIRA DE PÊRA",
      "lon": "-8.20971144196776",
      "lat": "40.004561062038874"
    },
    {
      "id": "pt.ine.add.PTCONT.2262309",
      "street": "R JOÃO BEBIANO",
      "house": "52",
      "postcode": "3280-041",
      "city": "CASTANHEIRA DE PÊRA",
      "lon": "-8.209241833019904",
      "lat": "40.00351665328209"
    }
  ]
}