{
  "data": {
    "distrito": "Leiria",
    "concelho": "Castanheira de Pêra",
    "freguesia": "União das freguesias de Castanheira de Pêra e Coentral",
    "OBJECTID": 178,
    "BGRI2021": "10070300423",
    "DT21": "10",
    "DTMN21": "1007",
    "DTMNFR21": "100703",
    "DTMNFRSEC21": "100703004",
    "SECNUM21": "004",
    "SSNUM21": "23",
    "SECSSNUM21": "00423",
    "OBJECTID_1": 88842,
    "DT": "10",
    "CC": "07",
    "fr": "03",
    "SEC": "004",
    "SS": "23"
  },
  "addresses": [
    {
      "id": "pt.ine.add.PTCONT.2063400",
      "street": "LG 4 JULHO",
      "house": "1",
      "postcode": "3280-019",
      "city": "CASTANHEIRA DE PÊRA",
      "lon": "-8.212886910190774",
      "lat": "40.00604494092017"
    },
    {
      "id": "pt.ine.add.PTCONT.2066247",
      "street": "R EIRA VELHA",
      "house": "9",
      "postcode": "3280-025",
      "city": "CASTANHEIRA DE PÊRA",
      "lon": "-8.21307420957716",
      "lat": "40.005972762334444"
    },
    {
      "id": "pt.ine.add.PTCONT.2107131",
      "street": "R OUTEIRO",
      "house": "",
      "postcode": "3280-033",
      "city": "CASTANHEIRA DE PÊRA",
      "lon": "-8.213320529543957",
      "lat": "40.00629681488309"
    },
    {
      "id": "pt.ine.add.PTCONT.2107132",
      "street": "R OUTEIRO",
      "house": "",
      "postcode": "3280-033",
      "city": "CASTANHEIRA DE PÊRA",
      "lon": "-8.213320529543957",
      "lat": "40.00629681488309"
    },
    {
      "id": "pt.ine.add.PTCONT.2131317",
      "street": "R EIRA VELHA",
      "house": "5",
      "postcode": "3280-025",
      "city": "CASTANHEIRA DE PÊRA",
      "lon": "-8.213308565105171",
      "lat": "40.006080674654996"
    },
    {
      "id": "pt.ine.add.PTCONT.2162098",
      "street": "TV FONTE DO CIMO",
      "house": "4",
      "postcode": "3280-049",
      "city": "CASTANHEIRA DE PÊRA",
      "lon": "-8.213542931940198",
      "lat": "40.00619759267941"
    },
    {
      "id": "pt.ine.add.PTCONT.2228710",
      "street": "R EIRA VELHA",
      "house": "7",
      "postcode": "3280-025",
      "city": "CASTANHEIRA DE PÊRA",
      "lon": "-8.213121171044634",
      "lat": "40.006071797991815"
    },
    {
      "id": "pt.ine.add.PTCONT.2265917",
      "street": "TV FONTE DO CIMO",
      "house": "4",
      "postcode": "3280-049",
      "city": "CASTANHEIRA DE PÊRA",
      "lon": "-8.213542931940198",
      "lat": "40.00619759267941"
    }
  ]
}