{
  "data": {
    "distrito": "Vila Real",
    "concelho": "Chaves",
    "freguesia": "Vilar de Nantes",
    "OBJECTID": 605,
    "BGRI2021": "17034400101",
    "DT21": "17",
    "DTMN21": "1703",
    "DTMNFR21": "170344",
    "DTMNFRSEC21": "170344001",
    "SECNUM21": "001",
    "SSNUM21": "01",
    "SECSSNUM21": "00101",
    "OBJECTID_1": 180563,
    "DT": "17",
    "CC": "03",
    "fr": "44",
    "SEC": "001",
    "SS": "01"
  },
  "addresses": [
    {
      "id": "pt.ine.add.PTCONT.5315150",
      "street": "BR VALE ZIRMA",
      "house": "",
      "postcode": "5400-580",
      "city": "CHAVES",
      "lon": "-7.4520673969118985",
      "lat": "41.703604783687354"
    },
    {
      "id": "pt.ine.add.PTCONT.5318095",
      "street": "BR VALA DE ZIRMA",
      "house": "4",
      "postcode": "5400-580",
      "city": "CHAVES",
      "lon": "-7.451980072182893",
      "lat": "41.70391038366523"
    },
    {
      "id": "pt.ine.add.PTCONT.5321075",
      "street": "R DA CARVALHADA",
      "house": "",
      "postcode": "5400-580",
      "city": "CHAVES",
      "lon": "-7.45503859983217",
      "lat": "41.70439665100066"
    },
    {
      "id": "pt.ine.add.PTCONT.5345292",
      "street": "QTA VALA ZIRMA",
      "house": "",
      "postcode": "5400-580",
      "city": "CHAVES",
      "lon": "-7.453075483622623",
      "lat": "41.70370979158045"
    },
    {
      "id": "pt.ine.add.PTCONT.5346298",
      "street": "BR VALA DE ZIRMA",
      "house": "3",
      "postcode": "5400-580",
      "city": "CHAVES",
      "lon": "-7.451907135878625",
      "lat": "41.70399098244698"
    },
    {
      "id": "pt.ine.add.PTCONT.5352501",
      "street": "BR VALA DE ZIRMA",
      "house": "10",
      "postcode": "5400-580",
      "city": "CHAVES",
      "lon": "-7.452010370020111",
      "lat": "41.70331633508073"
    },
    {
      "id": "pt.ine.add.PTCONT.5397135",
      "street": "BR VALA DE ZIRMA",
      "house": "5",
      "postcode": "5400-580",
      "city": "CHAVES",
      "lon": "-7.452041374842633",
      "lat": "41.70379370206182"
    }
  ]
}