{
  "data": {
    "distrito": "Porto",
    "concelho": "Felgueiras",
    "freguesia": "Idães",
    "OBJECTID": 96,
    "BGRI2021": "13030600110",
    "DT21": "13",
    "DTMN21": "1303",
    "DTMNFR21": "130306",
    "DTMNFRSEC21": "130306001",
    "SECNUM21": "001",
    "SSNUM21": "10",
    "SECSSNUM21": "00110",
    "OBJECTID_1": 127558,
    "DT": "13",
    "CC": "03",
    "fr": "06",
    "SEC": "001",
    "SS": "10"
  },
  "addresses": [
    {
      "id": "pt.ine.add.PTCONT.3614379",
      "street": "R SAMARIM",
      "house": "",
      "postcode": "4650-178",
      "city": "IDÃES",
      "lon": "-8.266355487370987",
      "lat": "41.3222256412643"
    },
    {
      "id": "pt.ine.add.PTCONT.3666144",
      "street": "TV SAMARIM",
      "house": "",
      "postcode": "4650-178",
      "city": "IDÃES",
      "lon": "-8.265531809857688",
      "lat": "41.32245169499923"
    },
    {
      "id": "pt.ine.add.PTCONT.3676395",
      "street": "TV SAMARIM",
      "house": "97",
      "postcode": "4650-178",
      "city": "IDÃES",
      "lon": "-8.265244771883841",
      "lat": "41.32226293819826"
    },
    {
      "id": "pt.ine.add.PTCONT.3707997",
      "street": "R CARQUEIJAL",
      "house": "",
      "postcode": "4650-142",
      "city": "IDÃES",
      "lon": "-8.266141576487284",
      "lat": "41.32275713217792"
    },
    {
      "id": "pt.ine.add.PTCONT.3734284",
      "street": "R SAMARIM",
      "house": "1668",
      "postcode": "4650-178",
      "city": "IDÃES",
      "lon": "-8.267181392191285",
      "lat": "41.323089078369264"
    },
    {
      "id": "pt.ine.add.PTCONT.3924555",
      "street": "R BALTEIRO",
      "house": "11",
      "postcode": "4650-149",
      "city": "IDÃES",
      "lon": "-8.265902969544118",
      "lat": "41.32289246959878"
    },
    {
      "id": "pt.ine.add.PTCONT.3947156",
      "street": "R SAMARIM",
      "house": "",
      "postcode": "4650-178",
      "city": "IDÃES",
      "lon": "-8.26652319862797",
      "lat": "41.32246855842778"
    },
    {
      "id": "pt.ine.add.PTCONT.3991753",
      "street": "R CARQUEIJAL BAIXO",
      "house": "179",
      "postcode": "4650-178",
      "city": "IDÃES",
      "lon": "-8.265591621041487",
      "lat": "41.32249664680778"
    },
    {
      "id": "pt.ine.add.PTCONT.4020511",
      "street": "R ANTONIO FERREIRA CARVALHO",
      "house": "189 B",
      "postcode": "4650-149",
      "city": "IDÃES",
      "lon": "-8.2651489657035",
      "lat": "41.32213699035756"
    },
    {
      "id": "pt.ine.add.PTCONT.4116215",
      "street": "TV SAMARIM",
      "house": "",
      "postcode": "4650-178",
      "city": "IDÃES",
      "lon": "-8.265196850566085",
      "lat": "41.32219096018178"
    },
    {
      "id": "pt.ine.add.PTCONT.4233500",
      "street": "TV SAMARIM",
      "house": "",
      "postcode": "4650-178",
      "city": "IDÃES",
      "lon": "-8.265388299767695",
      "lat": "41.3223618187424"
    },
    {
      "id": "pt.ine.add.PTCONT.4240527",
      "street": "TV SAMARIM",
      "house": "",
      "postcode": "4650-178",
      "city": "IDÃES",
      "lon": "-8.265112988514131",
      "lat": "41.32206499860238"
    },
    {
      "id": "pt.ine.add.PTCONT.4285115",
      "street": "CARQUEJAL",
      "house": "",
      "postcode": "4650-178",
      "city": "IDÃES",
      "lon": "-8.265460054763414",
      "lat": "41.32240675689344"
    }
  ]
}