{
  "data": {
    "distrito": "Évora",
    "concelho": "Estremoz",
    "freguesia": "Glória",
    "OBJECTID": 112,
    "BGRI2021": "07040200119",
    "DT21": "07",
    "DTMN21": "0704",
    "DTMNFR21": "070402",
    "DTMNFRSEC21": "070402001",
    "SECNUM21": "001",
    "SSNUM21": "19",
    "SECSSNUM21": "00119",
    "OBJECTID_1": 59328,
    "DT": "07",
    "CC": "04",
    "fr": "02",
    "SEC": "001",
    "SS": "19"
  },
  "addresses": [
    {
      "id": "pt.ine.add.PTCONT.1395228",
      "street": "MTE NOVO TIBERIOS",
      "house": "",
      "postcode": "7100-040",
      "city": "GLÓRIA",
      "lon": "-7.573108292544784",
      "lat": "38.79298313701995"
    },
    {
      "id": "pt.ine.add.PTCONT.1395229",
      "street": "MTE NOVO TIBERIOS",
      "house": "",
      "postcode": "7100-040",
      "city": "GLÓRIA",
      "lon": "-7.573108292544784",
      "lat": "38.79298313701995"
    },
    {
      "id": "pt.ine.add.PTCONT.1399256",
      "street": "MTE DA MINA DA MOSTARDEIRA",
      "house": "",
      "postcode": "7100-040",
      "city": "GLÓRIA",
      "lon": "-7.593403906889956",
      "lat": "38.80173530638892"
    },
    {
      "id": "pt.ine.add.PTCONT.1403769",
      "street": "MTE DA MINA DA MOSTARDEIRA",
      "house": "",
      "postcode": "7100-040",
      "city": "GLÓRIA",
      "lon": "-7.593082407632736",
      "lat": "38.80162572527993"
    },
    {
      "id": "pt.ine.add.PTCONT.1424090",
      "street": "MTE DO VALONGO",
      "house": "",
      "postcode": "7100-040",
      "city": "GLÓRIA",
      "lon": "-7.594095901053329",
      "lat": "38.79545093219459"
    },
    {
      "id": "pt.ine.add.PTCONT.1424503",
      "street": "HRD MONTINHO",
      "house": "",
      "postcode": "7100-040",
      "city": "GLÓRIA",
      "lon": "-7.582582737620028",
      "lat": "38.79128961696238"
    },
    {
      "id": "pt.ine.add.PTCONT.1431643",
      "street": "HRD MONTINHO",
      "house": "",
      "postcode": "7100-040",
      "city": "GLÓRIA",
      "lon": "-7.582892733881939",
      "lat": "38.79139016484647"
    },
    {
      "id": "pt.ine.add.PTCONT.1433114",
      "street": "MTE DOS TIBÉRIOS",
      "house": "",
      "postcode": "7100-040",
      "city": "GLÓRIA",
      "lon": "-7.5706554872876675",
      "lat": "38.79019689848316"
    },
    {
      "id": "pt.ine.add.PTCONT.1455727",
      "street": "HRD MONTINHO",
      "house": "",
      "postcode": "7100-040",
      "city": "GLÓRIA",
      "lon": "-7.582668707824481",
      "lat": "38.79058739906775"
    },
    {
      "id": "pt.ine.add.PTCONT.1459014",
      "street": "MTE DOS TIBÉRIOS",
      "house": "",
      "postcode": "7100-040",
      "city": "GLÓRIA",
      "lon": "-7.57057378910989",
      "lat": "38.79034063294477"
    },
    {
      "id": "pt.ine.add.PTCONT.1461240",
      "street": "MTE DA MINA DA MOSTARDEIRA",
      "house": "",
      "postcode": "7100-040",
      "city": "GLÓRIA",
      "lon": "-7.593428016521425",
      "lat": "38.8015912901833"
    },
    {
      "id": "pt.ine.add.PTCONT.1462002",
      "street": "MTE NOVO DOS TIBERIOS",
      "house": "",
      "postcode": "7100-040",
      "city": "GLÓRIA",
      "lon": "-7.573026948483062",
      "lat": "38.793081834934384"
    }
  ]
}