{
  "data": {
    "distrito": "Évora",
    "concelho": "Estremoz",
    "freguesia": "Glória",
    "OBJECTID": 76,
    "BGRI2021": "07040200127",
    "DT21": "07",
    "DTMN21": "0704",
    "DTMNFR21": "070402",
    "DTMNFRSEC21": "070402001",
    "SECNUM21": "001",
    "SSNUM21": "27",
    "SECSSNUM21": "00127",
    "OBJECTID_1": 59513,
    "DT": "07",
    "CC": "04",
    "fr": "02",
    "SEC": "001",
    "SS": "27"
  },
  "addresses": [
    {
      "id": "pt.ine.add.PTCONT.1391318",
      "street": "MTE MATO",
      "house": "",
      "postcode": "7100-040",
      "city": "GLÓRIA",
      "lon": "-7.541102398779928",
      "lat": "38.81475072485418"
    },
    {
      "id": "pt.ine.add.PTCONT.1411807",
      "street": "MTE SESMO",
      "house": "",
      "postcode": "7100-040",
      "city": "GLÓRIA",
      "lon": "-7.529815407407",
      "lat": "38.82062921087505"
    },
    {
      "id": "pt.ine.add.PTCONT.1436337",
      "street": "MTE AZINHEIRAS",
      "house": "",
      "postcode": "7100-040",
      "city": "GLÓRIA",
      "lon": "-7.54186955494364",
      "lat": "38.81108837875006"
    },
    {
      "id": "pt.ine.add.PTCONT.1457529",
      "street": "MTE MATO",
      "house": "",
      "postcode": "7100-040",
      "city": "GLÓRIA",
      "lon": "-7.541010814869905",
      "lat": "38.81468720520645"
    },
    {
      "id": "pt.ine.add.PTCONT.1457530",
      "street": "ESTR HORTA DA BANDEIRA",
      "house": "",
      "postcode": "7100-040",
      "city": "GLÓRIA",
      "lon": "-7.5449780477314246",
      "lat": "38.8110950596819"
    }
  ]
}