{
  "data": {
    "distrito": "Leiria",
    "concelho": "Marinha Grande",
    "freguesia": "Marinha Grande",
    "OBJECTID": 459,
    "BGRI2021": "10100100218",
    "DT21": "10",
    "DTMN21": "1010",
    "DTMNFR21": "101001",
    "DTMNFRSEC21": "101001002",
    "SECNUM21": "002",
    "SSNUM21": "18",
    "SECSSNUM21": "00218",
    "OBJECTID_1": 92455,
    "DT": "10",
    "CC": "10",
    "fr": "01",
    "SEC": "002",
    "SS": "18"
  },
  "addresses": [
    {
      "id": "pt.ine.add.PTCONT.2013676",
      "street": "LG ALEGRIA",
      "house": "46",
      "postcode": "2430-266",
      "city": "MARINHA GRANDE",
      "lon": "-8.931847110009846",
      "lat": "39.75190197754904"
    },
    {
      "id": "pt.ine.add.PTCONT.2033299",
      "street": "LG FLORES",
      "house": "26",
      "postcode": "2430-254",
      "city": "MARINHA GRANDE",
      "lon": "-8.931822319478352",
      "lat": "39.75177605820305"
    },
    {
      "id": "pt.ine.add.PTCONT.2037887",
      "street": "TV FLORES",
      "house": "4",
      "postcode": "2430-254",
      "city": "MARINHA GRANDE",
      "lon": "-8.931809404204516",
      "lat": "39.751668069983474"
    },
    {
      "id": "pt.ine.add.PTCONT.2055607",
      "street": "TV FLORES",
      "house": "13",
      "postcode": "2430-254",
      "city": "MARINHA GRANDE",
      "lon": "-8.932228693119189",
      "lat": "39.751602139090345"
    },
    {
      "id": "pt.ine.add.PTCONT.2055608",
      "street": "TV FLORES",
      "house": "13",
      "postcode": "2430-254",
      "city": "MARINHA GRANDE",
      "lon": "-8.932228693119189",
      "lat": "39.751602139090345"
    },
    {
      "id": "pt.ine.add.PTCONT.2055609",
      "street": "TV FLORES",
      "house": "13",
      "postcode": "2430-254",
      "city": "MARINHA GRANDE",
      "lon": "-8.932228693119189",
      "lat": "39.751602139090345"
    },
    {
      "id": "pt.ine.add.PTCONT.2055610",
      "street": "TV FLORES",
      "house": "13",
      "postcode": "2430-254",
      "city": "MARINHA GRANDE",
      "lon": "-8.932228693119189",
      "lat": "39.751602139090345"
    },
    {
      "id": "pt.ine.add.PTCONT.2055611",
      "street": "TV FLORES",
      "house": "13",
      "postcode": "2430-254",
      "city": "MARINHA GRANDE",
      "lon": "-8.932228693119189",
      "lat": "39.751602139090345"
    },
    {
      "id": "pt.ine.add.PTCONT.2055612",
      "street": "TV FLORES",
      "house": "13",
      "postcode": "2430-254",
      "city": "MARINHA GRANDE",
      "lon": "-8.932228693119189",
      "lat": "39.751602139090345"
    },
    {
      "id": "pt.ine.add.PTCONT.2055613",
      "street": "TV FLORES",
      "house": "13",
      "postcode": "2430-254",
      "city": "MARINHA GRANDE",
      "lon": "-8.932228693119189",
      "lat": "39.751602139090345"
    },
    {
      "id": "pt.ine.add.PTCONT.2055614",
      "street": "TV FLORES",
      "house": "13",
      "postcode": "2430-254",
      "city": "MARINHA GRANDE",
      "lon": "-8.932228693119189",
      "lat": "39.751602139090345"
    },
    {
      "id": "pt.ine.add.PTCONT.2056555",
      "street": "TV FLORES",
      "house": "13",
      "postcode": "2430-254",
      "city": "MARINHA GRANDE",
      "lon": "-8.932228693119189",
      "lat": "39.751602139090345"
    },
    {
      "id": "pt.ine.add.PTCONT.2079285",
      "street": "LG FLORES",
      "house": "24",
      "postcode": "2430-266",
      "city": "MARINHA GRANDE",
      "lon": "-8.931834818744846",
      "lat": "39.7518480235855"
    },
    {
      "id": "pt.ine.add.PTCONT.2079286",
      "street": "TV FLORES",
      "house": "1",
      "postcode": "2430-254",
      "city": "MARINHA GRANDE",
      "lon": "-8.931866907824359",
      "lat": "39.75159562288623"
    },
    {
      "id": "pt.ine.add.PTCONT.2167123",
      "street": "R FLORES",
      "house": "11",
      "postcode": "2430-269",
      "city": "MARINHA GRANDE",
      "lon": "-8.932425993561719",
      "lat": "39.75151071632473"
    },
    {
      "id": "pt.ine.add.PTCONT.2167124",
      "street": "R FLORES",
      "house": "9",
      "postcode": "2430-269",
      "city": "MARINHA GRANDE",
      "lon": "-8.932601729154781",
      "lat": "39.75157255097607"
    },
    {
      "id": "pt.ine.add.PTCONT.2197835",
      "street": "R FLORES",
      "house": "7",
      "postcode": "2430-269",
      "city": "MARINHA GRANDE",
      "lon": "-8.932802048994496",
      "lat": "39.751742293072915"
    },
    {
      "id": "pt.ine.add.PTCONT.2219841",
      "street": "TV FLORES",
      "house": "17",
      "postcode": "2430-254",
      "city": "MARINHA GRANDE",
      "lon": "-8.932029415446303",
      "lat": "39.751522453066755"
    },
    {
      "id": "pt.ine.add.PTCONT.2239667",
      "street": "R COMEND SANTOS BAROSA",
      "house": "4",
      "postcode": "2430-268",
      "city": "MARINHA GRANDE",
      "lon": "-8.931859609327056",
      "lat": "39.75197394292677"
    }
  ]
}