{
  "data": {
    "distrito": "Viana do Castelo",
    "concelho": "Ponte de Lima",
    "freguesia": "Gondufe",
    "OBJECTID": 1363,
    "BGRI2021": "16072800114",
    "DT21": "16",
    "DTMN21": "1607",
    "DTMNFR21": "160728",
    "DTMNFRSEC21": "160728001",
    "SECNUM21": "001",
    "SSNUM21": "14",
    "SECSSNUM21": "00114",
    "OBJECTID_1": 176127,
    "DT": "16",
    "CC": "07",
    "fr": "28",
    "SEC": "001",
    "SS": "14"
  },
  "addresses": [
    {
      "id": "pt.ine.add.PTCONT.5154613",
      "street": "R TALAIA",
      "house": "",
      "postcode": "4990-650",
      "city": "GONDUFE",
      "lon": "-8.514531461707085",
      "lat": "41.76343127880407"
    },
    {
      "id": "pt.ine.add.PTCONT.5178786",
      "street": "R ATALAIA",
      "house": "",
      "postcode": "4990-650",
      "city": "GONDUFE",
      "lon": "-8.514611691519494",
      "lat": "41.7627647597311"
    },
    {
      "id": "pt.ine.add.PTCONT.5184230",
      "street": "R BARREIRO",
      "house": "",
      "postcode": "4990-650",
      "city": "GONDUFE",
      "lon": "-8.515118977682649",
      "lat": "41.76516698557541"
    },
    {
      "id": "pt.ine.add.PTCONT.5206455",
      "street": "R POÇO DO INFERNO",
      "house": "",
      "postcode": "4990-650",
      "city": "GONDUFE",
      "lon": "-8.51901243234376",
      "lat": "41.76267803562366"
    },
    {
      "id": "pt.ine.add.PTCONT.5209736",
      "street": "R ATALAIA",
      "house": "",
      "postcode": "4990-650",
      "city": "GONDUFE",
      "lon": "-8.514791160458849",
      "lat": "41.7626111056073"
    },
    {
      "id": "pt.ine.add.PTCONT.5247192",
      "street": "R POÇO DO INFERNO",
      "house": "",
      "postcode": "4990-650",
      "city": "GONDUFE",
      "lon": "-8.520083147951345",
      "lat": "41.76275546508284"
    },
    {
      "id": "pt.ine.add.PTCONT.5248744",
      "street": "R ATALAIA",
      "house": "",
      "postcode": "4990-650",
      "city": "GONDUFE",
      "lon": "-8.514374601247662",
      "lat": "41.76334176529405"
    }
  ]
}