{
  "data": {
    "distrito": "Leiria",
    "concelho": "Alcobaça",
    "freguesia": "União das freguesias de Alcobaça e Vestiaria",
    "OBJECTID": 525,
    "BGRI2021": "10012100308",
    "DT21": "10",
    "DTMN21": "1001",
    "DTMNFR21": "100121",
    "DTMNFRSEC21": "100121003",
    "SECNUM21": "003",
    "SSNUM21": "08",
    "SECSSNUM21": "00308",
    "OBJECTID_1": 83825,
    "DT": "10",
    "CC": "01",
    "fr": "21",
    "SEC": "003",
    "SS": "08"
  },
  "addresses": [
    {
      "id": "pt.ine.add.PTCONT.2007151",
      "street": "ESTR GOTO",
      "house": "C",
      "postcode": "2460-003",
      "city": "ALCOBAÇA",
      "lon": "-8.9666928642231",
      "lat": "39.55441329027852"
    },
    {
      "id": "pt.ine.add.PTCONT.2007152",
      "street": "R GOTO C",
      "house": "C",
      "postcode": "2460-003",
      "city": "ALCOBAÇA",
      "lon": "-8.9666928642231",
      "lat": "39.55441329027852"
    },
    {
      "id": "pt.ine.add.PTCONT.2007153",
      "street": "ESTR GOTO",
      "house": "C",
      "postcode": "2460-003",
      "city": "ALCOBAÇA",
      "lon": "-8.9666928642231",
      "lat": "39.55441329027852"
    },
    {
      "id": "pt.ine.add.PTCONT.2007154",
      "street": "ESTR GOTO",
      "house": "C",
      "postcode": "2460-003",
      "city": "ALCOBAÇA",
      "lon": "-8.9666928642231",
      "lat": "39.55441329027852"
    },
    {
      "id": "pt.ine.add.PTCONT.2007243",
      "street": "LAD GOTO C",
      "house": "C",
      "postcode": "2460-003",
      "city": "ALCOBAÇA",
      "lon": "-8.9666928642231",
      "lat": "39.55441329027852"
    },
    {
      "id": "pt.ine.add.PTCONT.2007244",
      "street": "ESTR GOTO",
      "house": "C",
      "postcode": "2460-003",
      "city": "ALCOBAÇA",
      "lon": "-8.9666928642231",
      "lat": "39.55441329027852"
    },
    {
      "id": "pt.ine.add.PTCONT.2007245",
      "street": "ESTR GOTO",
      "house": "C",
      "postcode": "2460-003",
      "city": "ALCOBAÇA",
      "lon": "-8.9666928642231",
      "lat": "39.55441329027852"
    },
    {
      "id": "pt.ine.add.PTCONT.2007246",
      "street": "ESTR GOTO",
      "house": "C",
      "postcode": "2460-003",
      "city": "ALCOBAÇA",
      "lon": "-8.9666928642231",
      "lat": "39.55441329027852"
    },
    {
      "id": "pt.ine.add.PTCONT.2007247",
      "street": "ESTR GOTO",
      "house": "C",
      "postcode": "2460-003",
      "city": "ALCOBAÇA",
      "lon": "-8.9666928642231",
      "lat": "39.55441329027852"
    },
    {
      "id": "pt.ine.add.PTCONT.2017023",
      "street": "ESTR GOTO",
      "house": "",
      "postcode": "2460-003",
      "city": "ALCOBAÇA",
      "lon": "-8.96684872170539",
      "lat": "39.552854011213256"
    },
    {
      "id": "pt.ine.add.PTCONT.2027953",
      "street": "R FAZENDAS BATISTA",
      "house": "4",
      "postcode": "2460-003",
      "city": "ALCOBAÇA",
      "lon": "-8.967932954822157",
      "lat": "39.55012620043292"
    },
    {
      "id": "pt.ine.add.PTCONT.2030143",
      "street": "ESTR GOTO",
      "house": "",
      "postcode": "2460-003",
      "city": "ALCOBAÇA",
      "lon": "-8.966735718574343",
      "lat": "39.55216130490258"
    },
    {
      "id": "pt.ine.add.PTCONT.2045505",
      "street": "ESTR GOTO",
      "house": "B",
      "postcode": "2460-003",
      "city": "ALCOBAÇA",
      "lon": "-8.966656453364958",
      "lat": "39.554287457484065"
    },
    {
      "id": "pt.ine.add.PTCONT.2045506",
      "street": "ESTR GOTO",
      "house": "B",
      "postcode": "2460-003",
      "city": "ALCOBAÇA",
      "lon": "-8.966656453364958",
      "lat": "39.554287457484065"
    },
    {
      "id": "pt.ine.add.PTCONT.2045507",
      "street": "ESTR GOTO",
      "house": "B",
      "postcode": "2460-003",
      "city": "ALCOBAÇA",
      "lon": "-8.966656453364958",
      "lat": "39.554287457484065"
    },
    {
      "id": "pt.ine.add.PTCONT.2045508",
      "street": "ESTR GOTO",
      "house": "B",
      "postcode": "2460-003",
      "city": "ALCOBAÇA",
      "lon": "-8.966656453364958",
      "lat": "39.554287457484065"
    },
    {
      "id": "pt.ine.add.PTCONT.2045509",
      "street": "ESTR GOTO",
      "house": "B",
      "postcode": "2460-003",
      "city": "ALCOBAÇA",
      "lon": "-8.966656453364958",
      "lat": "39.554287457484065"
    },
    {
      "id": "pt.ine.add.PTCONT.2045510",
      "street": "ESTR GOTO",
      "house": "B",
      "postcode": "2460-003",
      "city": "ALCOBAÇA",
      "lon": "-8.966656453364958",
      "lat": "39.554287457484065"
    },
    {
      "id": "pt.ine.add.PTCONT.2045511",
      "street": "LAD GOTO B",
      "house": "B",
      "postcode": "2460-003",
      "city": "ALCOBAÇA",
      "lon": "-8.966656453364958",
      "lat": "39.554287457484065"
    },
    {
      "id": "pt.ine.add.PTCONT.2045512",
      "street": "ESTR GOTO",
      "house": "9",
      "postcode": "2460-003",
      "city": "ALCOBAÇA",
      "lon": "-8.966656453364958",
      "lat": "39.554287457484065"
    },
    {
      "id": "pt.ine.add.PTCONT.2045517",
      "street": "ESTR GOTO",
      "house": "B",
      "postcode": "2460-003",
      "city": "ALCOBAÇA",
      "lon": "-8.966656453364958",
      "lat": "39.554287457484065"
    },
    {
      "id": "pt.ine.add.PTCONT.2080491",
      "street": "LAD GOTO SN",
      "house": "SN",
      "postcode": "2460-003",
      "city": "ALCOBAÇA",
      "lon": "-8.966760818199452",
      "lat": "39.5523142389969"
    },
    {
      "id": "pt.ine.add.PTCONT.2133071",
      "street": "LAD GOTO",
      "house": "36 BL A",
      "postcode": "2460-003",
      "city": "ALCOBAÇA",
      "lon": "-8.966620042642198",
      "lat": "39.55416162467413"
    },
    {
      "id": "pt.ine.add.PTCONT.2133072",
      "street": "ESTR GOTO",
      "house": "A",
      "postcode": "2460-003",
      "city": "ALCOBAÇA",
      "lon": "-8.966620042642198",
      "lat": "39.55416162467413"
    },
    {
      "id": "pt.ine.add.PTCONT.2133073",
      "street": "ESTR GOTO",
      "house": "A",
      "postcode": "2460-003",
      "city": "ALCOBAÇA",
      "lon": "-8.966620042642198",
      "lat": "39.55416162467413"
    },
    {
      "id": "pt.ine.add.PTCONT.2133074",
      "street": "ESTR GOTO",
      "house": "A",
      "postcode": "2460-003",
      "city": "ALCOBAÇA",
      "lon": "-8.966620042642198",
      "lat": "39.55416162467413"
    },
    {
      "id": "pt.ine.add.PTCONT.2133075",
      "street": "LAD GOTO",
      "house": "8200 9",
      "postcode": "2460-003",
      "city": "ALCOBAÇA",
      "lon": "-8.966620042642198",
      "lat": "39.55416162467413"
    },
    {
      "id": "pt.ine.add.PTCONT.2133076",
      "street": "ESTR GOTO",
      "house": "A",
      "postcode": "2460-003",
      "city": "ALCOBAÇA",
      "lon": "-8.966620042642198",
      "lat": "39.55416162467413"
    },
    {
      "id": "pt.ine.add.PTCONT.2133077",
      "street": "LAD GOTO",
      "house": "36",
      "postcode": "2460-003",
      "city": "ALCOBAÇA",
      "lon": "-8.966620042642198",
      "lat": "39.55416162467413"
    },
    {
      "id": "pt.ine.add.PTCONT.2133078",
      "street": "ESTR GOTO",
      "house": "A",
      "postcode": "2460-003",
      "city": "ALCOBAÇA",
      "lon": "-8.966620042642198",
      "lat": "39.55416162467413"
    },
    {
      "id": "pt.ine.add.PTCONT.2133079",
      "street": "ESTR GOTO",
      "house": "A",
      "postcode": "2460-003",
      "city": "ALCOBAÇA",
      "lon": "-8.966620042642198",
      "lat": "39.55416162467413"
    },
    {
      "id": "pt.ine.add.PTCONT.2133080",
      "street": "ESTR GOTO",
      "house": "A",
      "postcode": "2460-003",
      "city": "ALCOBAÇA",
      "lon": "-8.966620042642198",
      "lat": "39.55416162467413"
    },
    {
      "id": "pt.ine.add.PTCONT.2146321",
      "street": "LAD GOTO",
      "house": "28 B",
      "postcode": "2460-003",
      "city": "ALCOBAÇA",
      "lon": "-8.967027768098562",
      "lat": "39.554203733361355"
    },
    {
      "id": "pt.ine.add.PTCONT.2146322",
      "street": "LAD GOTO",
      "house": "28",
      "postcode": "2460-003",
      "city": "ALCOBAÇA",
      "lon": "-8.967027768098562",
      "lat": "39.554203733361355"
    },
    {
      "id": "pt.ine.add.PTCONT.2146323",
      "street": "ESTR BOAVISTA",
      "house": "28",
      "postcode": "2460-003",
      "city": "ALCOBAÇA",
      "lon": "-8.967027768098562",
      "lat": "39.554203733361355"
    },
    {
      "id": "pt.ine.add.PTCONT.2146324",
      "street": "LAD GOTO",
      "house": "28",
      "postcode": "2460-003",
      "city": "ALCOBAÇA",
      "lon": "-8.967027768098562",
      "lat": "39.554203733361355"
    },
    {
      "id": "pt.ine.add.PTCONT.2146325",
      "street": "LAD GOTO",
      "house": "28 B",
      "postcode": "2460-003",
      "city": "ALCOBAÇA",
      "lon": "-8.967027768098562",
      "lat": "39.554203733361355"
    },
    {
      "id": "pt.ine.add.PTCONT.2146326",
      "street": "LAD GOTO",
      "house": "28",
      "postcode": "2460-003",
      "city": "ALCOBAÇA",
      "lon": "-8.967027768098562",
      "lat": "39.554203733361355"
    },
    {
      "id": "pt.ine.add.PTCONT.2146327",
      "street": "LAD GOTO",
      "house": "28 B",
      "postcode": "2460-003",
      "city": "ALCOBAÇA",
      "lon": "-8.967027768098562",
      "lat": "39.554203733361355"
    },
    {
      "id": "pt.ine.add.PTCONT.2146336",
      "street": "LAD GOTO",
      "house": "28 B",
      "postcode": "2460-003",
      "city": "ALCOBAÇA",
      "lon": "-8.967027768098562",
      "lat": "39.554203733361355"
    },
    {
      "id": "pt.ine.add.PTCONT.2146337",
      "street": "ESTR GOTO",
      "house": "28 B",
      "postcode": "2460-003",
      "city": "ALCOBAÇA",
      "lon": "-8.967027768098562",
      "lat": "39.554203733361355"
    },
    {
      "id": "pt.ine.add.PTCONT.2148207",
      "street": "LAD GOTO",
      "house": "28",
      "postcode": "2460-003",
      "city": "ALCOBAÇA",
      "lon": "-8.967027768098562",
      "lat": "39.554203733361355"
    },
    {
      "id": "pt.ine.add.PTCONT.2157130",
      "street": "R FAZENDAS BATISTA",
      "house": "2",
      "postcode": "2460-003",
      "city": "ALCOBAÇA",
      "lon": "-8.966799806599237",
      "lat": "39.55168348935323"
    },
    {
      "id": "pt.ine.add.PTCONT.2157131",
      "street": "R FAZENDAS BATISTA",
      "house": "2",
      "postcode": "2460-003",
      "city": "ALCOBAÇA",
      "lon": "-8.966799806599237",
      "lat": "39.55168348935323"
    },
    {
      "id": "pt.ine.add.PTCONT.2208039",
      "street": "ESTR GOTO",
      "house": "12",
      "postcode": "2460-003",
      "city": "ALCOBAÇA",
      "lon": "-8.966786456934578",
      "lat": "39.55251220278016"
    },
    {
      "id": "pt.ine.add.PTCONT.2212577",
      "street": "ESTR GOTO",
      "house": "26A",
      "postcode": "2460-003",
      "city": "ALCOBAÇA",
      "lon": "-8.96699135675337",
      "lat": "39.55407790067255"
    },
    {
      "id": "pt.ine.add.PTCONT.2212578",
      "street": "ESTR GOTO",
      "house": "26A",
      "postcode": "2460-003",
      "city": "ALCOBAÇA",
      "lon": "-8.96699135675337",
      "lat": "39.55407790067255"
    },
    {
      "id": "pt.ine.add.PTCONT.2212579",
      "street": "ESTR GOTO",
      "house": "26A",
      "postcode": "2460-003",
      "city": "ALCOBAÇA",
      "lon": "-8.96699135675337",
      "lat": "39.55407790067255"
    },
    {
      "id": "pt.ine.add.PTCONT.2212580",
      "street": "LAD GOTO",
      "house": "26",
      "postcode": "2460-003",
      "city": "ALCOBAÇA",
      "lon": "-8.96699135675337",
      "lat": "39.55407790067255"
    },
    {
      "id": "pt.ine.add.PTCONT.2212586",
      "street": "LAD GOTO",
      "house": "26",
      "postcode": "2460-003",
      "city": "ALCOBAÇA",
      "lon": "-8.96699135675337",
      "lat": "39.55407790067255"
    },
    {
      "id": "pt.ine.add.PTCONT.2212587",
      "street": "LAD GOTO",
      "house": "26",
      "postcode": "2460-003",
      "city": "ALCOBAÇA",
      "lon": "-8.96699135675337",
      "lat": "39.55407790067255"
    },
    {
      "id": "pt.ine.add.PTCONT.2212588",
      "street": "ESTR GOTO",
      "house": "26A",
      "postcode": "2460-003",
      "city": "ALCOBAÇA",
      "lon": "-8.96699135675337",
      "lat": "39.55407790067255"
    },
    {
      "id": "pt.ine.add.PTCONT.2212589",
      "street": "LAD GOTO",
      "house": "26",
      "postcode": "2460-003",
      "city": "ALCOBAÇA",
      "lon": "-8.96699135675337",
      "lat": "39.55407790067255"
    },
    {
      "id": "pt.ine.add.PTCONT.2212590",
      "street": "ESTR GOTO",
      "house": "26A",
      "postcode": "2460-003",
      "city": "ALCOBAÇA",
      "lon": "-8.96699135675337",
      "lat": "39.55407790067255"
    },
    {
      "id": "pt.ine.add.PTCONT.2212591",
      "street": "ESTR GOTO",
      "house": "26A",
      "postcode": "2460-003",
      "city": "ALCOBAÇA",
      "lon": "-8.96699135675337",
      "lat": "39.55407790067255"
    },
    {
      "id": "pt.ine.add.PTCONT.2212592",
      "street": "LAD GOTO BLA",
      "house": "BLA 26",
      "postcode": "2460-003",
      "city": "ALCOBAÇA",
      "lon": "-8.96699135675337",
      "lat": "39.55407790067255"
    },
    {
      "id": "pt.ine.add.PTCONT.2212593",
      "street": "ESTR GOTO",
      "house": "26A",
      "postcode": "2460-003",
      "city": "ALCOBAÇA",
      "lon": "-8.96699135675337",
      "lat": "39.55407790067255"
    },
    {
      "id": "pt.ine.add.PTCONT.2266442",
      "street": "LAD GOTO",
      "house": "28",
      "postcode": "2460-003",
      "city": "ALCOBAÇA",
      "lon": "-8.967027768098562",
      "lat": "39.554203733361355"
    },
    {
      "id": "pt.ine.add.PTCONT.2268560",
      "street": "ESTR GOTO",
      "house": "B",
      "postcode": "2460-003",
      "city": "ALCOBAÇA",
      "lon": "-8.966656453364958",
      "lat": "39.554287457484065"
    }
  ]
}