{
  "data": {
    "distrito": "Braga",
    "concelho": "Amares",
    "freguesia": "Lago",
    "OBJECTID": 50,
    "BGRI2021": "03011300115",
    "DT21": "03",
    "DTMN21": "0301",
    "DTMNFR21": "030113",
    "DTMNFRSEC21": "030113001",
    "SECNUM21": "001",
    "SSNUM21": "15",
    "SECSSNUM21": "00115",
    "OBJECTID_1": 19610,
    "DT": "03",
    "CC": "01",
    "fr": "13",
    "SEC": "001",
    "SS": "15"
  },
  "addresses": [
    {
      "id": "pt.ine.add.PTCONT.464427",
      "street": "TV RECTA",
      "house": "64",
      "postcode": "4720-529",
      "city": "LAGO",
      "lon": "-8.406518184522573",
      "lat": "41.61572086979211"
    },
    {
      "id": "pt.ine.add.PTCONT.512343",
      "street": "TV RECTA",
      "house": "55",
      "postcode": "4720-529",
      "city": "LAGO",
      "lon": "-8.406913961032425",
      "lat": "41.61568391322076"
    },
    {
      "id": "pt.ine.add.PTCONT.526907",
      "street": "AV TELHEIRA",
      "house": "104",
      "postcode": "4720-529",
      "city": "LAGO",
      "lon": "-8.40666029453102",
      "lat": "41.61527935251115"
    },
    {
      "id": "pt.ine.add.PTCONT.628438",
      "street": "AV TELHEIRA",
      "house": "236",
      "postcode": "4720-529",
      "city": "LAGO",
      "lon": "-8.408124136040245",
      "lat": "41.61530287095814"
    },
    {
      "id": "pt.ine.add.PTCONT.715749",
      "street": "AV TELHEIRA",
      "house": "170",
      "postcode": "4720-529",
      "city": "LAGO",
      "lon": "-8.407499908835126",
      "lat": "41.61522332963857"
    },
    {
      "id": "pt.ine.add.PTCONT.722080",
      "street": "AV TELHEIRA",
      "house": "72",
      "postcode": "4720-529",
      "city": "LAGO",
      "lon": "-8.40618008025143",
      "lat": "41.61520846491297"
    },
    {
      "id": "pt.ine.add.PTCONT.733541",
      "street": "AV PONTEZINHAS",
      "house": "533",
      "postcode": "4720-543",
      "city": "LAGO",
      "lon": "-8.408198265005316",
      "lat": "41.61580689840846"
    },
    {
      "id": "pt.ine.add.PTCONT.754759",
      "street": "AV TELHEIRA",
      "house": "128",
      "postcode": "4720-529",
      "city": "LAGO",
      "lon": "-8.406984576874596",
      "lat": "41.61535961334483"
    },
    {
      "id": "pt.ine.add.PTCONT.762379",
      "street": "LG PACO",
      "house": "85",
      "postcode": "4720-524",
      "city": "LAGO",
      "lon": "-8.410222357170142",
      "lat": "41.614973700702215"
    },
    {
      "id": "pt.ine.add.PTCONT.811882",
      "street": "LG PACO",
      "house": "85",
      "postcode": "4720-524",
      "city": "LAGO",
      "lon": "-8.4097311053839",
      "lat": "41.61512794598959"
    }
  ]
}