{
  "data": {
    "distrito": "Beja",
    "concelho": "Odemira",
    "freguesia": "São Teotónio",
    "OBJECTID": 576,
    "BGRI2021": "02112100810",
    "DT21": "02",
    "DTMN21": "0211",
    "DTMNFR21": "021121",
    "DTMNFRSEC21": "021121008",
    "SECNUM21": "008",
    "SSNUM21": "10",
    "SECSSNUM21": "00810",
    "OBJECTID_1": 17331,
    "DT": "02",
    "CC": "11",
    "fr": "21",
    "SEC": "008",
    "SS": "10"
  },
  "addresses": [
    {
      "id": "pt.ine.add.PTCONT.457657",
      "street": "MTE STO ANTONIO",
      "house": "",
      "postcode": "7630-572",
      "city": "SÃO TEOTÓNIO",
      "lon": "-8.699741102819175",
      "lat": "37.51341854572164"
    },
    {
      "id": "pt.ine.add.PTCONT.396692",
      "street": "DO SOBREIRINHO",
      "house": "",
      "postcode": "7630-671",
      "city": "SÃO TEOTÓNIO",
      "lon": "-8.702479937598548",
      "lat": "37.513630622994555"
    },
    {
      "id": "pt.ine.add.PTCONT.402202",
      "street": "MTE CERRO DA BICA",
      "house": "",
      "postcode": "7630-560",
      "city": "SÃO TEOTÓNIO",
      "lon": "-8.701410871702373",
      "lat": "37.51584320276602"
    },
    {
      "id": "pt.ine.add.PTCONT.415100",
      "street": "MTE STO ANTONIO",
      "house": "",
      "postcode": "7630-572",
      "city": "SÃO TEOTÓNIO",
      "lon": "-8.699741102819175",
      "lat": "37.51341854572164"
    },
    {
      "id": "pt.ine.add.PTCONT.450249",
      "street": "DO SOBREIRINHO",
      "house": "",
      "postcode": "7630-625",
      "city": "SÃO TEOTÓNIO",
      "lon": "-8.702334612358383",
      "lat": "37.51385657155402"
    },
    {
      "id": "pt.ine.add.PTCONT.452561",
      "street": "MTE DE SANTO ANTÓNIO",
      "house": "",
      "postcode": "7630-572",
      "city": "SÃO TEOTÓNIO",
      "lon": "-8.699764677354622",
      "lat": "37.5135445715835"
    },
    {
      "id": "pt.ine.add.PTCONT.452562",
      "street": "MTE DE SANTO ANTÓNIO",
      "house": "",
      "postcode": "7630-572",
      "city": "SÃO TEOTÓNIO",
      "lon": "-8.700014529513046",
      "lat": "37.51367852152578"
    }
  ]
}