{
  "data": {
    "distrito": "Beja",
    "concelho": "Odemira",
    "freguesia": "São Teotónio",
    "OBJECTID": 233,
    "BGRI2021": "02112100819",
    "DT21": "02",
    "DTMN21": "0211",
    "DTMNFR21": "021121",
    "DTMNFRSEC21": "021121008",
    "SECNUM21": "008",
    "SSNUM21": "19",
    "SECSSNUM21": "00819",
    "OBJECTID_1": 17142,
    "DT": "02",
    "CC": "11",
    "fr": "21",
    "SEC": "008",
    "SS": "19"
  },
  "addresses": [
    {
      "id": "pt.ine.add.PTCONT.357061",
      "street": "MTE NOVO DAS ALPENDURADAS",
      "house": "",
      "postcode": "7630-732",
      "city": "ZAMBUJEIRA DO MAR",
      "lon": "-8.763911211177223",
      "lat": "37.52193197264672"
    },
    {
      "id": "pt.ine.add.PTCONT.358774",
      "street": "MTE BENCANIZ",
      "house": "",
      "postcode": "7630-731",
      "city": "ZAMBUJEIRA DO MAR",
      "lon": "-8.76600078995591",
      "lat": "37.524236333412325"
    },
    {
      "id": "pt.ine.add.PTCONT.361913",
      "street": "EN 502-2",
      "house": "",
      "postcode": "7630-736",
      "city": "ZAMBUJEIRA DO MAR",
      "lon": "-8.758042370292566",
      "lat": "37.52490039549242"
    },
    {
      "id": "pt.ine.add.PTCONT.362026",
      "street": "EN 502-2",
      "house": "",
      "postcode": "7630-736",
      "city": "ZAMBUJEIRA DO MAR",
      "lon": "-8.758042370292566",
      "lat": "37.52490039549242"
    },
    {
      "id": "pt.ine.add.PTCONT.368371",
      "street": "EN 502-2",
      "house": "",
      "postcode": "7630-736",
      "city": "ZAMBUJEIRA DO MAR",
      "lon": "-8.757919215195232",
      "lat": "37.52505421512502"
    },
    {
      "id": "pt.ine.add.PTCONT.372489",
      "street": "EN 393-1 - MTE DAS ALPENDURADAS",
      "house": "",
      "postcode": "7630-740",
      "city": "ZAMBUJEIRA DO MAR",
      "lon": "-8.76757387232321",
      "lat": "37.52698491568478"
    },
    {
      "id": "pt.ine.add.PTCONT.378135",
      "street": "MTE DA FAZENDA",
      "house": "",
      "postcode": "7630-731",
      "city": "ZAMBUJEIRA DO MAR",
      "lon": "-8.770744358489264",
      "lat": "37.52333685960443"
    },
    {
      "id": "pt.ine.add.PTCONT.386079",
      "street": "MTE ALPENDURADAS",
      "house": "",
      "postcode": "7630-732",
      "city": "ZAMBUJEIRA DO MAR",
      "lon": "-8.76061293669488",
      "lat": "37.52791408501306"
    },
    {
      "id": "pt.ine.add.PTCONT.390930",
      "street": "MTE PINHAL NOVO DAS ALPENDURADAS",
      "house": "",
      "postcode": "7630-732",
      "city": "ZAMBUJEIRA DO MAR",
      "lon": "-8.7604242362286",
      "lat": "37.525644597850395"
    },
    {
      "id": "pt.ine.add.PTCONT.404781",
      "street": "MTE BENCANIZ",
      "house": "",
      "postcode": "7630-732",
      "city": "ZAMBUJEIRA DO MAR",
      "lon": "-8.765283700214994",
      "lat": "37.524087545744116"
    },
    {
      "id": "pt.ine.add.PTCONT.406438",
      "street": "MTE CASA NOVA DA CRUZ",
      "house": "",
      "postcode": "7630-732",
      "city": "ZAMBUJEIRA DO MAR",
      "lon": "-8.766366855781502",
      "lat": "37.52070249683252"
    },
    {
      "id": "pt.ine.add.PTCONT.411307",
      "street": "MTE CASA NOVA DAS ALPENDURADAS",
      "house": "",
      "postcode": "7630-732",
      "city": "ZAMBUJEIRA DO MAR",
      "lon": "-8.758336742544866",
      "lat": "37.52357438444341"
    },
    {
      "id": "pt.ine.add.PTCONT.411351",
      "street": "MTE DA FAZENDA",
      "house": "",
      "postcode": "7630-731",
      "city": "ZAMBUJEIRA DO MAR",
      "lon": "-8.771104647584826",
      "lat": "37.52313669648867"
    },
    {
      "id": "pt.ine.add.PTCONT.412872",
      "street": "MTE BENCANIZ",
      "house": "",
      "postcode": "7630-731",
      "city": "ZAMBUJEIRA DO MAR",
      "lon": "-8.76546859699527",
      "lat": "37.524176115004636"
    },
    {
      "id": "pt.ine.add.PTCONT.428908",
      "street": "MTE DA FAZENDA",
      "house": "",
      "postcode": "7630-731",
      "city": "ZAMBUJEIRA DO MAR",
      "lon": "-8.771160208866398",
      "lat": "37.52301926788647"
    },
    {
      "id": "pt.ine.add.PTCONT.432168",
      "street": "MTE BENCANIZ",
      "house": "",
      "postcode": "7630-731",
      "city": "ZAMBUJEIRA DO MAR",
      "lon": "-8.765366257475321",
      "lat": "37.52411359375481"
    },
    {
      "id": "pt.ine.add.PTCONT.433015",
      "street": "MTE DA FAZENDA",
      "house": "",
      "postcode": "7630-731",
      "city": "ZAMBUJEIRA DO MAR",
      "lon": "-8.771048779269698",
      "lat": "37.523218087200924"
    },
    {
      "id": "pt.ine.add.PTCONT.433016",
      "street": "MTE DA FAZENDA",
      "house": "",
      "postcode": "7630-731",
      "city": "ZAMBUJEIRA DO MAR",
      "lon": "-8.770823694334833",
      "lat": "37.523354451003165"
    },
    {
      "id": "pt.ine.add.PTCONT.433017",
      "street": "MTE DA FAZENDA",
      "house": "",
      "postcode": "7630-731",
      "city": "ZAMBUJEIRA DO MAR",
      "lon": "-8.770823694334833",
      "lat": "37.523354451003165"
    },
    {
      "id": "pt.ine.add.PTCONT.442122",
      "street": "EN 393-1 - MTE DAS ALPENDURADAS",
      "house": "",
      "postcode": "7630-740",
      "city": "ZAMBUJEIRA DO MAR",
      "lon": "-8.76734793065716",
      "lat": "37.52702216880868"
    },
    {
      "id": "pt.ine.add.PTCONT.448461",
      "street": "BR NOVO",
      "house": "",
      "postcode": "7630-791",
      "city": "ZAMBUJEIRA DO MAR",
      "lon": "-8.762149962148175",
      "lat": "37.52638323869036"
    },
    {
      "id": "pt.ine.add.PTCONT.448462",
      "street": "BR NOVO",
      "house": "",
      "postcode": "7630-791",
      "city": "ZAMBUJEIRA DO MAR",
      "lon": "-8.762149962148175",
      "lat": "37.52638323869036"
    }
  ]
}