{
  "data": {
    "distrito": "Beja",
    "concelho": "Odemira",
    "freguesia": "São Teotónio",
    "OBJECTID": 217,
    "BGRI2021": "02112100834",
    "DT21": "02",
    "DTMN21": "0211",
    "DTMNFR21": "021121",
    "DTMNFRSEC21": "021121008",
    "SECNUM21": "008",
    "SSNUM21": "34",
    "SECSSNUM21": "00834",
    "OBJECTID_1": 17952,
    "DT": "02",
    "CC": "11",
    "fr": "21",
    "SEC": "008",
    "SS": "34"
  },
  "addresses": [
    {
      "id": "pt.ine.add.PTCONT.457941",
      "street": "QTA BOGALHEIRA",
      "house": "",
      "postcode": "7630-585",
      "city": "SÃO TEOTÓNIO",
      "lon": "-8.714447306173549",
      "lat": "37.55304465398718"
    },
    {
      "id": "pt.ine.add.PTCONT.458662",
      "street": "CASAS NOVAS DAS CERCAS",
      "house": "",
      "postcode": "7630-585",
      "city": "SÃO TEOTÓNIO",
      "lon": "-8.711238350911055",
      "lat": "37.55515970735444"
    },
    {
      "id": "pt.ine.add.PTCONT.353755",
      "street": "MTE CARAPETINHO",
      "house": "",
      "postcode": "7630-579",
      "city": "SÃO TEOTÓNIO",
      "lon": "-8.69755672085148",
      "lat": "37.56276715823042"
    },
    {
      "id": "pt.ine.add.PTCONT.355356",
      "street": "MTE NOVO DA ALCARIA",
      "house": "",
      "postcode": "7630-584",
      "city": "SÃO TEOTÓNIO",
      "lon": "-8.720684719517182",
      "lat": "37.56913239109839"
    },
    {
      "id": "pt.ine.add.PTCONT.356102",
      "street": "ESTAÇÃO METEREOLOGICA",
      "house": "",
      "postcode": "7630-585",
      "city": "SÃO TEOTÓNIO",
      "lon": "-8.727836243829017",
      "lat": "37.546067410369744"
    },
    {
      "id": "pt.ine.add.PTCONT.356103",
      "street": "ESTAÇÃO METEREOLOGICA",
      "house": "",
      "postcode": "7630-585",
      "city": "SÃO TEOTÓNIO",
      "lon": "-8.727836243829017",
      "lat": "37.546067410369744"
    },
    {
      "id": "pt.ine.add.PTCONT.356104",
      "street": "ESTAÇÃO METEREOLOGICA",
      "house": "",
      "postcode": "7630-585",
      "city": "SÃO TEOTÓNIO",
      "lon": "-8.727836243829017",
      "lat": "37.546067410369744"
    },
    {
      "id": "pt.ine.add.PTCONT.356161",
      "street": "MTE NOVO DO RESMONAL",
      "house": "",
      "postcode": "7630-585",
      "city": "SÃO TEOTÓNIO",
      "lon": "-8.723192641591465",
      "lat": "37.55415453271288"
    },
    {
      "id": "pt.ine.add.PTCONT.356162",
      "street": "CENTRAL DA BOGALHEIRA",
      "house": "",
      "postcode": "7630-585",
      "city": "SÃO TEOTÓNIO",
      "lon": "-8.711120186614885",
      "lat": "37.54718655632555"
    },
    {
      "id": "pt.ine.add.PTCONT.357004",
      "street": "ALCARIA FORMOSA",
      "house": "",
      "postcode": "7630-563",
      "city": "SÃO TEOTÓNIO",
      "lon": "-8.719933971528432",
      "lat": "37.56289230774554"
    },
    {
      "id": "pt.ine.add.PTCONT.357009",
      "street": "CENTRAL DA BOGALHEIRA",
      "house": "",
      "postcode": "7630-585",
      "city": "SÃO TEOTÓNIO",
      "lon": "-8.710761844714204",
      "lat": "37.54767484290002"
    },
    {
      "id": "pt.ine.add.PTCONT.358713",
      "street": "MTE BAMBU DO PARQUE - HERDADE DAS FONTES",
      "house": "",
      "postcode": "7630-584",
      "city": "SÃO TEOTÓNIO",
      "lon": "-8.711673492702355",
      "lat": "37.564599899190135"
    },
    {
      "id": "pt.ine.add.PTCONT.358839",
      "street": "MTE BAMBU DO PARQUE - HERDADE DAS FONTES",
      "house": "",
      "postcode": "7630-584",
      "city": "SÃO TEOTÓNIO",
      "lon": "-8.711673492702355",
      "lat": "37.564599899190135"
    },
    {
      "id": "pt.ine.add.PTCONT.358872",
      "street": "MTE BAMBU DO PARQUE - HERDADE DAS FONTES",
      "house": "",
      "postcode": "7630-584",
      "city": "SÃO TEOTÓNIO",
      "lon": "-8.711673492702355",
      "lat": "37.564599899190135"
    },
    {
      "id": "pt.ine.add.PTCONT.359565",
      "street": "VALE DO LINHO",
      "house": "",
      "postcode": "7630-563",
      "city": "SÃO TEOTÓNIO",
      "lon": "-8.723835873468818",
      "lat": "37.55965633455932"
    },
    {
      "id": "pt.ine.add.PTCONT.360857",
      "street": "",
      "house": "",
      "postcode": "7630-584",
      "city": "SÃO TEOTÓNIO",
      "lon": "-8.71795052265331",
      "lat": "37.56688449935047"
    },
    {
      "id": "pt.ine.add.PTCONT.362023",
      "street": "MONTINHO DO REGADIO",
      "house": "",
      "postcode": "7630-585",
      "city": "SÃO TEOTÓNIO",
      "lon": "-8.719142381295088",
      "lat": "37.54708394454199"
    },
    {
      "id": "pt.ine.add.PTCONT.363620",
      "street": "MALHÃO DE SILVEIRINHA",
      "house": "",
      "postcode": "7630-585",
      "city": "SÃO TEOTÓNIO",
      "lon": "-8.720859165059085",
      "lat": "37.55243627933498"
    },
    {
      "id": "pt.ine.add.PTCONT.364340",
      "street": "CASAS NOVAS DA TAGARIÇA",
      "house": "",
      "postcode": "7630-585",
      "city": "SÃO TEOTÓNIO",
      "lon": "-8.722940366627135",
      "lat": "37.55229976294037"
    },
    {
      "id": "pt.ine.add.PTCONT.365920",
      "street": "HRD DO PASCOAL",
      "house": "",
      "postcode": "7630-579",
      "city": "SÃO TEOTÓNIO",
      "lon": "-8.722096922627212",
      "lat": "37.55441227970025"
    },
    {
      "id": "pt.ine.add.PTCONT.369215",
      "street": "MONTINHO DO RASMONAL",
      "house": "",
      "postcode": "7630-585",
      "city": "SÃO TEOTÓNIO",
      "lon": "-8.721997566386696",
      "lat": "37.54753825234995"
    },
    {
      "id": "pt.ine.add.PTCONT.369217",
      "street": "CENTRAL DA BOGALHEIRA",
      "house": "",
      "postcode": "7630-585",
      "city": "SÃO TEOTÓNIO",
      "lon": "-8.710452988432527",
      "lat": "37.54724387972538"
    },
    {
      "id": "pt.ine.add.PTCONT.371586",
      "street": "MALHÃO DE SILVEIRINHA",
      "house": "",
      "postcode": "7630-585",
      "city": "SÃO TEOTÓNIO",
      "lon": "-8.720383881122606",
      "lat": "37.5524386443028"
    },
    {
      "id": "pt.ine.add.PTCONT.372501",
      "street": "CERRO DA VIGIA",
      "house": "",
      "postcode": "7630-585",
      "city": "SÃO TEOTÓNIO",
      "lon": "-8.723193630222537",
      "lat": "37.54997395387184"
    },
    {
      "id": "pt.ine.add.PTCONT.373021",
      "street": "",
      "house": "CP 3707",
      "postcode": "7630-584",
      "city": "SÃO TEOTÓNIO",
      "lon": "-8.723622114020621",
      "lat": "37.57128910355533"
    },
    {
      "id": "pt.ine.add.PTCONT.373417",
      "street": "",
      "house": "CP 3707",
      "postcode": "7630-584",
      "city": "SÃO TEOTÓNIO",
      "lon": "-8.723622114020621",
      "lat": "37.57128910355533"
    },
    {
      "id": "pt.ine.add.PTCONT.375017",
      "street": "MALHÃO DA SILVEIRINHA",
      "house": "",
      "postcode": "7630-585",
      "city": "SÃO TEOTÓNIO",
      "lon": "-8.72698159189309",
      "lat": "37.545314883209706"
    },
    {
      "id": "pt.ine.add.PTCONT.375739",
      "street": "MTE DA PEREIRA",
      "house": "",
      "postcode": "7630-585",
      "city": "SÃO TEOTÓNIO",
      "lon": "-8.724736328930424",
      "lat": "37.55616501453604"
    },
    {
      "id": "pt.ine.add.PTCONT.375852",
      "street": "MTE DA PEREIRA",
      "house": "",
      "postcode": "7630-585",
      "city": "SÃO TEOTÓNIO",
      "lon": "-8.724736328930424",
      "lat": "37.55616501453604"
    },
    {
      "id": "pt.ine.add.PTCONT.376555",
      "street": "MTE BAMBU DO PARQUE - HERDADE DAS FONTES",
      "house": "",
      "postcode": "7630-584",
      "city": "SÃO TEOTÓNIO",
      "lon": "-8.715675881165893",
      "lat": "37.5654902109383"
    },
    {
      "id": "pt.ine.add.PTCONT.376556",
      "street": "MTE BAMBU DO PARQUE - HERDADE DAS FONTES",
      "house": "",
      "postcode": "7630-584",
      "city": "SÃO TEOTÓNIO",
      "lon": "-8.715675881165893",
      "lat": "37.5654902109383"
    },
    {
      "id": "pt.ine.add.PTCONT.377102",
      "street": "MTE PINHEIRINHOS",
      "house": "",
      "postcode": "7630-585",
      "city": "SÃO TEOTÓNIO",
      "lon": "-8.711879907845189",
      "lat": "37.551777866645295"
    },
    {
      "id": "pt.ine.add.PTCONT.377103",
      "street": "MTE PINHEIROS",
      "house": "",
      "postcode": "7630-585",
      "city": "SÃO TEOTÓNIO",
      "lon": "-8.711879907845189",
      "lat": "37.551777866645295"
    },
    {
      "id": "pt.ine.add.PTCONT.377320",
      "street": "QTA DO RICARDO",
      "house": "",
      "postcode": "7630-585",
      "city": "SÃO TEOTÓNIO",
      "lon": "-8.720965109702739",
      "lat": "37.55151674632526"
    },
    {
      "id": "pt.ine.add.PTCONT.381581",
      "street": "QTA AGUAS",
      "house": "",
      "postcode": "7630-579",
      "city": "SÃO TEOTÓNIO",
      "lon": "-8.716911683152816",
      "lat": "37.54834736619954"
    },
    {
      "id": "pt.ine.add.PTCONT.383046",
      "street": "MALHÃO DA SILVEIRINHA",
      "house": "",
      "postcode": "7630-585",
      "city": "SÃO TEOTÓNIO",
      "lon": "-8.729982019876573",
      "lat": "37.54695756950716"
    },
    {
      "id": "pt.ine.add.PTCONT.383090",
      "street": "MTE NOVO DO BARRANCO",
      "house": "CP 3753",
      "postcode": "7630-584",
      "city": "SÃO TEOTÓNIO",
      "lon": "-8.722695818350891",
      "lat": "37.57009542609217"
    },
    {
      "id": "pt.ine.add.PTCONT.386961",
      "street": "MALHÃO DA SILVEIRINHA",
      "house": "",
      "postcode": "7630-585",
      "city": "SÃO TEOTÓNIO",
      "lon": "-8.72549282647125",
      "lat": "37.55022372699962"
    },
    {
      "id": "pt.ine.add.PTCONT.387081",
      "street": "",
      "house": "CP 5967",
      "postcode": "7630-585",
      "city": "SÃO TEOTÓNIO",
      "lon": "-8.722649466210406",
      "lat": "37.559905530586"
    },
    {
      "id": "pt.ine.add.PTCONT.387084",
      "street": "MTE DA ALCARIA",
      "house": "",
      "postcode": "7630-584",
      "city": "SÃO TEOTÓNIO",
      "lon": "-8.719002760386964",
      "lat": "37.56827580649211"
    },
    {
      "id": "pt.ine.add.PTCONT.389315",
      "street": "CENTRAL DA BOGALHEIRA",
      "house": "",
      "postcode": "7630-585",
      "city": "SÃO TEOTÓNIO",
      "lon": "-8.71095954389575",
      "lat": "37.54689902674575"
    },
    {
      "id": "pt.ine.add.PTCONT.389457",
      "street": "MTE NOVO DO BARRANCO",
      "house": "",
      "postcode": "7630-584",
      "city": "SÃO TEOTÓNIO",
      "lon": "-8.722374557824796",
      "lat": "37.56954743042944"
    },
    {
      "id": "pt.ine.add.PTCONT.393363",
      "street": "CASAS NOVAS DAS CERCAS",
      "house": "",
      "postcode": "7630-585",
      "city": "SÃO TEOTÓNIO",
      "lon": "-8.713529004921721",
      "lat": "37.554292532359476"
    },
    {
      "id": "pt.ine.add.PTCONT.395812",
      "street": "MTE NOVO DO NASCENTE",
      "house": "",
      "postcode": "7630-585",
      "city": "SÃO TEOTÓNIO",
      "lon": "-8.72113103900422",
      "lat": "37.55247096508703"
    },
    {
      "id": "pt.ine.add.PTCONT.398602",
      "street": "",
      "house": "",
      "postcode": "7630-584",
      "city": "SÃO TEOTÓNIO",
      "lon": "-8.720314312838953",
      "lat": "37.56808909339673"
    },
    {
      "id": "pt.ine.add.PTCONT.399686",
      "street": "HRD FONTAINHAS",
      "house": "",
      "postcode": "7630-584",
      "city": "SÃO TEOTÓNIO",
      "lon": "-8.732975167108581",
      "lat": "37.56320517856327"
    },
    {
      "id": "pt.ine.add.PTCONT.399823",
      "street": "MTE AICARIA FORMOSA",
      "house": "",
      "postcode": "7630-584",
      "city": "SÃO TEOTÓNIO",
      "lon": "-8.725833413652225",
      "lat": "37.5717915816528"
    },
    {
      "id": "pt.ine.add.PTCONT.402221",
      "street": "ALCARIA FORMOSA",
      "house": "",
      "postcode": "7630-563",
      "city": "SÃO TEOTÓNIO",
      "lon": "-8.723626560851544",
      "lat": "37.56611743764312"
    },
    {
      "id": "pt.ine.add.PTCONT.402224",
      "street": "MTE DAS CERCAS",
      "house": "",
      "postcode": "7630-579",
      "city": "SÃO TEOTÓNIO",
      "lon": "-8.71755612400402",
      "lat": "37.549722687400866"
    },
    {
      "id": "pt.ine.add.PTCONT.403087",
      "street": "ALCARIA FORMOSA",
      "house": "",
      "postcode": "7630-563",
      "city": "SÃO TEOTÓNIO",
      "lon": "-8.72097098651977",
      "lat": "37.565229707130925"
    },
    {
      "id": "pt.ine.add.PTCONT.403088",
      "street": "MTE DA SOALHEIRA",
      "house": "",
      "postcode": "7630-585",
      "city": "SÃO TEOTÓNIO",
      "lon": "-8.725303093005262",
      "lat": "37.55055804354189"
    },
    {
      "id": "pt.ine.add.PTCONT.410433",
      "street": "MTE BAMBU DO PARQUE - HERDADE DAS FONTES",
      "house": "",
      "postcode": "7630-584",
      "city": "SÃO TEOTÓNIO",
      "lon": "-8.710576264501675",
      "lat": "37.57055176517179"
    },
    {
      "id": "pt.ine.add.PTCONT.413697",
      "street": "MTE CARAPETINHO",
      "house": "",
      "postcode": "7630-579",
      "city": "SÃO TEOTÓNIO",
      "lon": "-8.69690823331148",
      "lat": "37.55931948250005"
    },
    {
      "id": "pt.ine.add.PTCONT.413698",
      "street": "MONTECO",
      "house": "",
      "postcode": "7630-563",
      "city": "SÃO TEOTÓNIO",
      "lon": "-8.723248915080818",
      "lat": "37.5612900518311"
    },
    {
      "id": "pt.ine.add.PTCONT.414601",
      "street": "MTE BREJO ALCARIA FORMOSA",
      "house": "CP 3786",
      "postcode": "7630-584",
      "city": "SÃO TEOTÓNIO",
      "lon": "-8.726588512195455",
      "lat": "37.572226897116416"
    },
    {
      "id": "pt.ine.add.PTCONT.419176",
      "street": "",
      "house": "",
      "postcode": "7630-584",
      "city": "SÃO TEOTÓNIO",
      "lon": "-8.719621771267237",
      "lat": "37.56638066722484"
    },
    {
      "id": "pt.ine.add.PTCONT.421665",
      "street": "MTE NOVO DO RESMONAL",
      "house": "",
      "postcode": "7630-585",
      "city": "SÃO TEOTÓNIO",
      "lon": "-8.723133927920923",
      "lat": "37.55388453049693"
    },
    {
      "id": "pt.ine.add.PTCONT.422480",
      "street": "MTE NOVO DAS FONTES",
      "house": "",
      "postcode": "7630-584",
      "city": "SÃO TEOTÓNIO",
      "lon": "-8.725157250514998",
      "lat": "37.57646206316983"
    },
    {
      "id": "pt.ine.add.PTCONT.423311",
      "street": "MTE BAMBU DO PARQUE - HERDADE DAS FONTES",
      "house": "",
      "postcode": "7630-584",
      "city": "SÃO TEOTÓNIO",
      "lon": "-8.712021914843941",
      "lat": "37.56428284665609"
    },
    {
      "id": "pt.ine.add.PTCONT.424112",
      "street": "MTE AICARIA FORMOSA",
      "house": "",
      "postcode": "7630-584",
      "city": "SÃO TEOTÓNIO",
      "lon": "-8.726155923797297",
      "lat": "37.57249272832878"
    },
    {
      "id": "pt.ine.add.PTCONT.424176",
      "street": "MONTINHO DA EIRA",
      "house": "",
      "postcode": "7630-585",
      "city": "SÃO TEOTÓNIO",
      "lon": "-8.712742857488514",
      "lat": "37.55361164508926"
    },
    {
      "id": "pt.ine.add.PTCONT.425601",
      "street": "MTE DO BREJO",
      "house": "",
      "postcode": "7630-584",
      "city": "SÃO TEOTÓNIO",
      "lon": "-8.723935989203268",
      "lat": "37.57090011045432"
    },
    {
      "id": "pt.ine.add.PTCONT.425602",
      "street": "MTE AICARIA FORMOSA",
      "house": "",
      "postcode": "7630-584",
      "city": "SÃO TEOTÓNIO",
      "lon": "-8.725944391758153",
      "lat": "37.57151171975739"
    },
    {
      "id": "pt.ine.add.PTCONT.426382",
      "street": "MTE BAMBU DO PARQUE - HERDADE DAS FONTES",
      "house": "",
      "postcode": "7630-584",
      "city": "SÃO TEOTÓNIO",
      "lon": "-8.70993903258049",
      "lat": "37.562779387825465"
    },
    {
      "id": "pt.ine.add.PTCONT.432235",
      "street": "MALHÃO DE SILVEIRA",
      "house": "",
      "postcode": "7630-585",
      "city": "SÃO TEOTÓNIO",
      "lon": "-8.719157997460785",
      "lat": "37.55485937698283"
    },
    {
      "id": "pt.ine.add.PTCONT.434608",
      "street": "HRD DO PASCOAL",
      "house": "",
      "postcode": "7630-579",
      "city": "SÃO TEOTÓNIO",
      "lon": "-8.708921858500656",
      "lat": "37.54679185289918"
    },
    {
      "id": "pt.ine.add.PTCONT.434609",
      "street": "HRD DO PASCOAL",
      "house": "",
      "postcode": "7630-579",
      "city": "SÃO TEOTÓNIO",
      "lon": "-8.708921858500656",
      "lat": "37.54679185289918"
    },
    {
      "id": "pt.ine.add.PTCONT.434616",
      "street": "MONTINHO DO REGADIO",
      "house": "",
      "postcode": "7630-585",
      "city": "SÃO TEOTÓNIO",
      "lon": "-8.72148023825072",
      "lat": "37.547946275222074"
    },
    {
      "id": "pt.ine.add.PTCONT.434781",
      "street": "CASAS NOVAS DA TAGARIÇA",
      "house": "",
      "postcode": "7630-585",
      "city": "SÃO TEOTÓNIO",
      "lon": "-8.723722693146204",
      "lat": "37.5510524918136"
    },
    {
      "id": "pt.ine.add.PTCONT.434785",
      "street": "CASAS NOVAS DAS CERCAS",
      "house": "",
      "postcode": "7630-585",
      "city": "SÃO TEOTÓNIO",
      "lon": "-8.712324426715382",
      "lat": "37.55364973795766"
    },
    {
      "id": "pt.ine.add.PTCONT.436929",
      "street": "",
      "house": "",
      "postcode": "7630-584",
      "city": "SÃO TEOTÓNIO",
      "lon": "-8.717491898932456",
      "lat": "37.56903111138863"
    },
    {
      "id": "pt.ine.add.PTCONT.437169",
      "street": "MALHÃO DA SILVEIRINHA",
      "house": "",
      "postcode": "7630-585",
      "city": "SÃO TEOTÓNIO",
      "lon": "-8.728170332809707",
      "lat": "37.5482371041376"
    },
    {
      "id": "pt.ine.add.PTCONT.437274",
      "street": "MALHÃO DA SILVEIRINHA",
      "house": "",
      "postcode": "7630-585",
      "city": "SÃO TEOTÓNIO",
      "lon": "-8.728170332809707",
      "lat": "37.5482371041376"
    },
    {
      "id": "pt.ine.add.PTCONT.438065",
      "street": "MTE DAS CERCAS",
      "house": "",
      "postcode": "7630-579",
      "city": "SÃO TEOTÓNIO",
      "lon": "-8.717450115376447",
      "lat": "37.54629045309659"
    },
    {
      "id": "pt.ine.add.PTCONT.441302",
      "street": "MONTINHO DO REGADIO",
      "house": "",
      "postcode": "7630-585",
      "city": "SÃO TEOTÓNIO",
      "lon": "-8.725478738230336",
      "lat": "37.54558371829867"
    },
    {
      "id": "pt.ine.add.PTCONT.441383",
      "street": "MONTINHO DO REGADIO",
      "house": "",
      "postcode": "7630-585",
      "city": "SÃO TEOTÓNIO",
      "lon": "-8.725478738230336",
      "lat": "37.54558371829867"
    },
    {
      "id": "pt.ine.add.PTCONT.441427",
      "street": "CASA NOVA DAS TAGARIÇAS",
      "house": "",
      "postcode": "7630-585",
      "city": "SÃO TEOTÓNIO",
      "lon": "-8.720153748730631",
      "lat": "37.55051167875449"
    },
    {
      "id": "pt.ine.add.PTCONT.442015",
      "street": "MTE NOVO DO RESMONAL",
      "house": "",
      "postcode": "7630-585",
      "city": "SÃO TEOTÓNIO",
      "lon": "-8.722367243595183",
      "lat": "37.55424875351643"
    },
    {
      "id": "pt.ine.add.PTCONT.442016",
      "street": "CENTRAL DA BOGALHEIRA",
      "house": "",
      "postcode": "7630-585",
      "city": "SÃO TEOTÓNIO",
      "lon": "-8.710254442269822",
      "lat": "37.54644297185484"
    },
    {
      "id": "pt.ine.add.PTCONT.449384",
      "street": "CENTRAL DA BOGALHEIRA",
      "house": "",
      "postcode": "7630-585",
      "city": "SÃO TEOTÓNIO",
      "lon": "-8.710550032602839",
      "lat": "37.546621724114054"
    },
    {
      "id": "pt.ine.add.PTCONT.451694",
      "street": "MALHÃO DA SILVEIRINHA",
      "house": "",
      "postcode": "7630-585",
      "city": "SÃO TEOTÓNIO",
      "lon": "-8.73121497035474",
      "lat": "37.54689727141372"
    },
    {
      "id": "pt.ine.add.PTCONT.452074",
      "street": "HRD FONTES",
      "house": "",
      "postcode": "7630-583",
      "city": "SÃO TEOTÓNIO",
      "lon": "-8.714966721687944",
      "lat": "37.57326919562663"
    },
    {
      "id": "pt.ine.add.PTCONT.454305",
      "street": "CASA NOVA DAS TAGARIÇAS",
      "house": "",
      "postcode": "7630-585",
      "city": "SÃO TEOTÓNIO",
      "lon": "-8.721056551089088",
      "lat": "37.55019184156389"
    }
  ]
}