{
  "data": {
    "distrito": "Aveiro",
    "concelho": "São João da Madeira",
    "freguesia": "São João da Madeira",
    "OBJECTID": 38,
    "BGRI2021": "01160101906",
    "DT21": "01",
    "DTMN21": "0116",
    "DTMNFR21": "011601",
    "DTMNFRSEC21": "011601019",
    "SECNUM21": "019",
    "SSNUM21": "06",
    "SECSSNUM21": "01906",
    "OBJECTID_1": 10954,
    "DT": "01",
    "CC": "16",
    "fr": "01",
    "SEC": "019",
    "SS": "06"
  },
  "addresses": [
    {
      "id": "pt.ine.add.PTCONT.320641",
      "street": "R S ROQUE",
      "house": "330",
      "postcode": "3700-273",
      "city": "SÃO JOÃO DA MADEIRA",
      "lon": "-8.476988156228837",
      "lat": "40.88877416687433"
    },
    {
      "id": "pt.ine.add.PTCONT.321258",
      "street": "R SANTO ANDRE",
      "house": "1",
      "postcode": "3700-117",
      "city": "SÃO JOÃO DA MADEIRA",
      "lon": "-8.477102894056625",
      "lat": "40.88801742260026"
    },
    {
      "id": "pt.ine.add.PTCONT.326061",
      "street": "R MESTRE DE AVIS",
      "house": "",
      "postcode": "3700-117",
      "city": "SÃO JOÃO DA MADEIRA",
      "lon": "-8.480923963756354",
      "lat": "40.88128838766526"
    },
    {
      "id": "pt.ine.add.PTCONT.334085",
      "street": "R FONTE ANDRE B",
      "house": "B",
      "postcode": "3700-117",
      "city": "SÃO JOÃO DA MADEIRA",
      "lon": "-8.476830177152802",
      "lat": "40.888054254814755"
    },
    {
      "id": "pt.ine.add.PTCONT.23266",
      "street": "R SANTO ANDRE",
      "house": "4",
      "postcode": "3700-117",
      "city": "SÃO JOÃO DA MADEIRA",
      "lon": "-8.476782296392734",
      "lat": "40.88797335440719"
    },
    {
      "id": "pt.ine.add.PTCONT.31293",
      "street": "R FONTE ANDRE D",
      "house": "D",
      "postcode": "3700-117",
      "city": "SÃO JOÃO DA MADEIRA",
      "lon": "-8.476876660002237",
      "lat": "40.887865015733645"
    },
    {
      "id": "pt.ine.add.PTCONT.80480",
      "street": "R SANTO ANDRE",
      "house": "1",
      "postcode": "3700-117",
      "city": "SÃO JOÃO DA MADEIRA",
      "lon": "-8.476901555770285",
      "lat": "40.8880900612234"
    },
    {
      "id": "pt.ine.add.PTCONT.85541",
      "street": "R FONTE ANDRE",
      "house": "",
      "postcode": "3700-117",
      "city": "SÃO JOÃO DA MADEIRA",
      "lon": "-8.476935707014983",
      "lat": "40.88781081099679"
    },
    {
      "id": "pt.ine.add.PTCONT.95946",
      "street": "R STO ANDRE",
      "house": "",
      "postcode": "3700-117",
      "city": "SÃO JOÃO DA MADEIRA",
      "lon": "-8.477008390745954",
      "lat": "40.8880987475096"
    },
    {
      "id": "pt.ine.add.PTCONT.212770",
      "street": "R FONTE ANDRE C",
      "house": "C",
      "postcode": "3700-117",
      "city": "SÃO JOÃO DA MADEIRA",
      "lon": "-8.476829431641582",
      "lat": "40.88791018043108"
    },
    {
      "id": "pt.ine.add.PTCONT.234860",
      "street": "R MESTRE DE AVIS",
      "house": "",
      "postcode": "3700-117",
      "city": "SÃO JOÃO DA MADEIRA",
      "lon": "-8.484462487863603",
      "lat": "40.87960277022681"
    },
    {
      "id": "pt.ine.add.PTCONT.245838",
      "street": "R S ROQUE",
      "house": "320",
      "postcode": "3700-273",
      "city": "SÃO JOÃO DA MADEIRA",
      "lon": "-8.477189776354559",
      "lat": "40.88875555598553"
    },
    {
      "id": "pt.ine.add.PTCONT.288790",
      "street": "R SANTO ANDRE",
      "house": "",
      "postcode": "3700-117",
      "city": "SÃO JOÃO DA MADEIRA",
      "lon": "-8.477161801100337",
      "lat": "40.88793620380307"
    }
  ]
}