{
  "data": {
    "distrito": "Viseu",
    "concelho": "Penalva do Castelo",
    "freguesia": "Trancozelos",
    "OBJECTID": 420,
    "BGRI2021": "18111200109",
    "DT21": "18",
    "DTMN21": "1811",
    "DTMNFR21": "181112",
    "DTMNFRSEC21": "181112001",
    "SECNUM21": "001",
    "SSNUM21": "09",
    "SECSSNUM21": "00109",
    "OBJECTID_1": 194732,
    "DT": "18",
    "CC": "11",
    "fr": "12",
    "SEC": "001",
    "SS": "09"
  },
  "addresses": [
    {
      "id": "pt.ine.add.PTCONT.5438265",
      "street": "PTO D JOAO",
      "house": "",
      "postcode": "3550-335",
      "city": "TRANCOZELOS",
      "lon": "-7.703300443431266",
      "lat": "40.65300633003418"
    },
    {
      "id": "pt.ine.add.PTCONT.5459394",
      "street": "PTO PATIO DAS CANTIGAS",
      "house": "2",
      "postcode": "3550-335",
      "city": "TRANCOZELOS",
      "lon": "-7.702906541150397",
      "lat": "40.65174414342552"
    },
    {
      "id": "pt.ine.add.PTCONT.5477482",
      "street": "PTO CANTIGAS",
      "house": "1",
      "postcode": "3550-335",
      "city": "TRANCOZELOS",
      "lon": "-7.7030371176451755",
      "lat": "40.65166358353643"
    },
    {
      "id": "pt.ine.add.PTCONT.5485226",
      "street": "R FORMOSA",
      "house": "11",
      "postcode": "3550-335",
      "city": "TRANCOZELOS",
      "lon": "-7.703206144338949",
      "lat": "40.65296095329964"
    },
    {
      "id": "pt.ine.add.PTCONT.5488134",
      "street": "R ALEGRIA",
      "house": "9",
      "postcode": "3550-335",
      "city": "TRANCOZELOS",
      "lon": "-7.702765124545131",
      "lat": "40.65167157534973"
    },
    {
      "id": "pt.ine.add.PTCONT.5498219",
      "street": "R ANJOS",
      "house": "",
      "postcode": "3550-335",
      "city": "TRANCOZELOS",
      "lon": "-7.70311629657695",
      "lat": "40.65222219720567"
    },
    {
      "id": "pt.ine.add.PTCONT.5512883",
      "street": "R FORMOSA",
      "house": "",
      "postcode": "3550-335",
      "city": "TRANCOZELOS",
      "lon": "-7.703251935798085",
      "lat": "40.65319525741633"
    },
    {
      "id": "pt.ine.add.PTCONT.5514484",
      "street": "QTA CORTINHAL",
      "house": "",
      "postcode": "3550-334",
      "city": "TRANCOZELOS",
      "lon": "-7.700589720468779",
      "lat": "40.65348248606809"
    },
    {
      "id": "pt.ine.add.PTCONT.5528486",
      "street": "PTO D JOAO",
      "house": "3",
      "postcode": "3550-335",
      "city": "TRANCOZELOS",
      "lon": "-7.703181688142204",
      "lat": "40.65308693421219"
    },
    {
      "id": "pt.ine.add.PTCONT.5537601",
      "street": "R S SALVADOR",
      "house": "",
      "postcode": "3550-335",
      "city": "TRANCOZELOS",
      "lon": "-7.703165670859234",
      "lat": "40.65189819594571"
    },
    {
      "id": "pt.ine.add.PTCONT.5557520",
      "street": "R FORMOSA",
      "house": "",
      "postcode": "3550-335",
      "city": "TRANCOZELOS",
      "lon": "-7.7034986129872705",
      "lat": "40.65344831934105"
    },
    {
      "id": "pt.ine.add.PTCONT.5561418",
      "street": "R ANJOS",
      "house": "7",
      "postcode": "3550-335",
      "city": "TRANCOZELOS",
      "lon": "-7.702915067944314",
      "lat": "40.65225746827793"
    },
    {
      "id": "pt.ine.add.PTCONT.5567120",
      "street": "R PROF EGAS MONIZ",
      "house": "",
      "postcode": "3550-335",
      "city": "TRANCOZELOS",
      "lon": "-7.703344559677922",
      "lat": "40.65350177693171"
    },
    {
      "id": "pt.ine.add.PTCONT.5585142",
      "street": "R ANJOS",
      "house": "",
      "postcode": "3550-335",
      "city": "TRANCOZELOS",
      "lon": "-7.7030879093284605",
      "lat": "40.65296051305577"
    },
    {
      "id": "pt.ine.add.PTCONT.5594467",
      "street": "R ANJOS",
      "house": "",
      "postcode": "3550-335",
      "city": "TRANCOZELOS",
      "lon": "-7.7034735968424295",
      "lat": "40.651818295750914"
    },
    {
      "id": "pt.ine.add.PTCONT.5607966",
      "street": "BC FORNO",
      "house": "",
      "postcode": "3550-335",
      "city": "TRANCOZELOS",
      "lon": "-7.703511187404969",
      "lat": "40.65333129930511"
    },
    {
      "id": "pt.ine.add.PTCONT.5635419",
      "street": "R ALEGRIA",
      "house": "4",
      "postcode": "3550-335",
      "city": "TRANCOZELOS",
      "lon": "-7.703556879662818",
      "lat": "40.65173755930324"
    },
    {
      "id": "pt.ine.add.PTCONT.5648586",
      "street": "R FORMOSA",
      "house": "9",
      "postcode": "3550-335",
      "city": "TRANCOZELOS",
      "lon": "-7.7034293467068755",
      "lat": "40.653186912562774"
    },
    {
      "id": "pt.ine.add.PTCONT.5652447",
      "street": "R ANJOS",
      "house": "",
      "postcode": "3550-335",
      "city": "TRANCOZELOS",
      "lon": "-7.7031255764924165",
      "lat": "40.6526184579758"
    },
    {
      "id": "pt.ine.add.PTCONT.5665126",
      "street": "R ESCADINHAS",
      "house": "3",
      "postcode": "3550-335",
      "city": "TRANCOZELOS",
      "lon": "-7.702988552452495",
      "lat": "40.651861515779785"
    }
  ]
}