{
  "data": {
    "distrito": "Viseu",
    "concelho": "Santa Comba Dão",
    "freguesia": "União das freguesias de Treixedo e Nagozela",
    "OBJECTID": 81,
    "BGRI2021": "18141200205",
    "DT21": "18",
    "DTMN21": "1814",
    "DTMNFR21": "181412",
    "DTMNFRSEC21": "181412002",
    "SECNUM21": "002",
    "SSNUM21": "05",
    "SECSSNUM21": "00205",
    "OBJECTID_1": 195786,
    "DT": "18",
    "CC": "14",
    "fr": "12",
    "SEC": "002",
    "SS": "05"
  },
  "addresses": [
    {
      "id": "pt.ine.add.PTCONT.5433754",
      "street": "BR LAMEIRAS",
      "house": "SN",
      "postcode": "3440-501",
      "city": "TREIXEDO",
      "lon": "-8.097901112074878",
      "lat": "40.442139271581595"
    },
    {
      "id": "pt.ine.add.PTCONT.5459383",
      "street": "R AMAINHOS",
      "house": "7",
      "postcode": "3440-501",
      "city": "TREIXEDO",
      "lon": "-8.100175123499657",
      "lat": "40.44386899916784"
    },
    {
      "id": "pt.ine.add.PTCONT.5470252",
      "street": "R AMAINHOS",
      "house": "5",
      "postcode": "3440-501",
      "city": "TREIXEDO",
      "lon": "-8.100139678552743",
      "lat": "40.44404009367656"
    },
    {
      "id": "pt.ine.add.PTCONT.5496664",
      "street": "R AMAINHOS",
      "house": "9",
      "postcode": "3440-501",
      "city": "TREIXEDO",
      "lon": "-8.100139801746845",
      "lat": "40.44378793954545"
    },
    {
      "id": "pt.ine.add.PTCONT.5545776",
      "street": "TV RELVÃO",
      "house": "6",
      "postcode": "3440-501",
      "city": "TREIXEDO",
      "lon": "-8.098866762673337",
      "lat": "40.44385060802995"
    },
    {
      "id": "pt.ine.add.PTCONT.5613035",
      "street": "BR RELVÃO",
      "house": "",
      "postcode": "3440-501",
      "city": "TREIXEDO",
      "lon": "-8.097465218733568",
      "lat": "40.44172488459699"
    },
    {
      "id": "pt.ine.add.PTCONT.5620443",
      "street": "R AMAINHOS",
      "house": "3",
      "postcode": "3440-501",
      "city": "TREIXEDO",
      "lon": "-8.100387073264779",
      "lat": "40.44431933463619"
    },
    {
      "id": "pt.ine.add.PTCONT.5643174",
      "street": "R AMAINHOS",
      "house": "11",
      "postcode": "3440-501",
      "city": "TREIXEDO",
      "lon": "-8.099727529346422",
      "lat": "40.44322947983037"
    },
    {
      "id": "pt.ine.add.PTCONT.5643551",
      "street": "R AMAINHOS",
      "house": "11",
      "postcode": "3440-501",
      "city": "TREIXEDO",
      "lon": "-8.099727529346422",
      "lat": "40.44322947983037"
    }
  ]
}