{
  "data": {
    "distrito": "Porto",
    "concelho": "Felgueiras",
    "freguesia": "União das freguesias de Margaride (Santa Eulália), Várzea, Lagares, Varziela e Moure",
    "OBJECTID": 826,
    "BGRI2021": "13033501029",
    "DT21": "13",
    "DTMN21": "1303",
    "DTMNFR21": "130335",
    "DTMNFRSEC21": "130335010",
    "SECNUM21": "010",
    "SSNUM21": "29",
    "SECSSNUM21": "01029",
    "OBJECTID_1": 127337,
    "DT": "13",
    "CC": "03",
    "fr": "35",
    "SEC": "010",
    "SS": "29"
  },
  "addresses": [
    {
      "id": "pt.ine.add.PTCONT.3667642",
      "street": "R DO SOUTO",
      "house": "",
      "postcode": "4610-454",
      "city": "FELGUEIRAS",
      "lon": "-8.176618462657405",
      "lat": "41.35537562055682"
    },
    {
      "id": "pt.ine.add.PTCONT.3667641",
      "street": "R DO SOUTO",
      "house": "",
      "postcode": "4610-454",
      "city": "FELGUEIRAS",
      "lon": "-8.176618462657405",
      "lat": "41.35537562055682"
    },
    {
      "id": "pt.ine.add.PTCONT.3869068",
      "street": "R SIMAES",
      "house": "1515",
      "postcode": "4610-450",
      "city": "FELGUEIRAS",
      "lon": "-8.176056863762211",
      "lat": "41.35545686820635"
    },
    {
      "id": "pt.ine.add.PTCONT.3960409",
      "street": "R SOUTO",
      "house": "260",
      "postcode": "4610-480",
      "city": "FELGUEIRAS",
      "lon": "-8.176295394816732",
      "lat": "41.354745456741924"
    },
    {
      "id": "pt.ine.add.PTCONT.4155518",
      "street": "R SOUTO",
      "house": "260",
      "postcode": "4610-480",
      "city": "FELGUEIRAS",
      "lon": "-8.176355251742864",
      "lat": "41.35490750768592"
    },
    {
      "id": "pt.ine.add.PTCONT.4294949",
      "street": "R ARRABALDE",
      "house": "104",
      "postcode": "4610-452",
      "city": "FELGUEIRAS",
      "lon": "-8.175733571852149",
      "lat": "41.35447554381654"
    }
  ]
}