{
  "data": {
    "distrito": "Coimbra",
    "concelho": "Montemor-O-Velho",
    "freguesia": "Liceia",
    "OBJECTID": 122,
    "BGRI2021": "06100500142",
    "DT21": "06",
    "DTMN21": "0610",
    "DTMNFR21": "061005",
    "DTMNFRSEC21": "061005001",
    "SECNUM21": "001",
    "SSNUM21": "42",
    "SECSSNUM21": "00142",
    "OBJECTID_1": 54005,
    "DT": "06",
    "CC": "10",
    "fr": "05",
    "SEC": "001",
    "SS": "42"
  },
  "addresses": [
    {
      "id": "pt.ine.add.PTCONT.1142251",
      "street": "R SALGUEIRO MAIA",
      "house": "",
      "postcode": "3140-147",
      "city": "LICEIA",
      "lon": "-8.727162360983224",
      "lat": "40.27315986351709"
    },
    {
      "id": "pt.ine.add.PTCONT.1160558",
      "street": "R SALGUEIRO MAIA",
      "house": "",
      "postcode": "3140-147",
      "city": "LICEIA",
      "lon": "-8.727195582434046",
      "lat": "40.27292554495112"
    },
    {
      "id": "pt.ine.add.PTCONT.1196330",
      "street": "R SALGUEIRO MAIA",
      "house": "",
      "postcode": "3140-147",
      "city": "LICEIA",
      "lon": "-8.727040459899957",
      "lat": "40.27266517618643"
    },
    {
      "id": "pt.ine.add.PTCONT.1246901",
      "street": "R JARDIM",
      "house": "",
      "postcode": "3140-147",
      "city": "LICEIA",
      "lon": "-8.726705578262175",
      "lat": "40.27336033294041"
    },
    {
      "id": "pt.ine.add.PTCONT.1302818",
      "street": "R CAP SALGUEIRO MAIA",
      "house": "",
      "postcode": "3140-147",
      "city": "LICEIA",
      "lon": "-8.727431101647129",
      "lat": "40.2743112119979"
    },
    {
      "id": "pt.ine.add.PTCONT.1328521",
      "street": "R BELA VISTA",
      "house": "",
      "postcode": "3140-147",
      "city": "LICEIA",
      "lon": "-8.725908946845498",
      "lat": "40.2709959193534"
    },
    {
      "id": "pt.ine.add.PTCONT.1342866",
      "street": "R JARDIM",
      "house": "",
      "postcode": "3140-147",
      "city": "LICEIA",
      "lon": "-8.725992343887484",
      "lat": "40.27381427423071"
    }
  ]
}