{
  "data": {
    "distrito": "Braga",
    "concelho": "Vila Nova de Famalicão",
    "freguesia": "União das freguesias de Arnoso (Santa Maria e Santa Eulália) e Sezures",
    "OBJECTID": 76,
    "BGRI2021": "03125100122",
    "DT21": "03",
    "DTMN21": "0312",
    "DTMNFR21": "031251",
    "DTMNFRSEC21": "031251001",
    "SECNUM21": "001",
    "SSNUM21": "22",
    "SECSSNUM21": "00122",
    "OBJECTID_1": 31546,
    "DT": "03",
    "CC": "12",
    "fr": "51",
    "SEC": "001",
    "SS": "22"
  },
  "addresses": [
    {
      "id": "pt.ine.add.PTCONT.460325",
      "street": "AV S MAMEDE",
      "house": "211",
      "postcode": "4770-690",
      "city": "SEZURES VNF",
      "lon": "-8.478590598889536",
      "lat": "41.46949481447912"
    },
    {
      "id": "pt.ine.add.PTCONT.483854",
      "street": "AV NSA SRA DE FÁTIMA",
      "house": "12",
      "postcode": "4770-690",
      "city": "SEZURES VNF",
      "lon": "-8.478290470134288",
      "lat": "41.46933364567231"
    },
    {
      "id": "pt.ine.add.PTCONT.491417",
      "street": "AV SENHORA DE FÁTIMA",
      "house": "395",
      "postcode": "4770-690",
      "city": "SEZURES VNF",
      "lon": "-8.476349450774977",
      "lat": "41.471275287587495"
    },
    {
      "id": "pt.ine.add.PTCONT.511321",
      "street": "R ADRO",
      "house": "11",
      "postcode": "4770-690",
      "city": "SEZURES VNF",
      "lon": "-8.478620679062107",
      "lat": "41.46839625082128"
    },
    {
      "id": "pt.ine.add.PTCONT.608836",
      "street": "AV AGRA",
      "house": "42",
      "postcode": "4770-690",
      "city": "SEZURES VNF",
      "lon": "-8.480517506986919",
      "lat": "41.46941698004609"
    },
    {
      "id": "pt.ine.add.PTCONT.611136",
      "street": "AV CASAIS",
      "house": "388",
      "postcode": "4770-690",
      "city": "SEZURES VNF",
      "lon": "-8.475627128852457",
      "lat": "41.472781087826256"
    },
    {
      "id": "pt.ine.add.PTCONT.617656",
      "street": "AV AGRA",
      "house": "444",
      "postcode": "4770-690",
      "city": "SEZURES VNF",
      "lon": "-8.479731533428026",
      "lat": "41.472435649698056"
    },
    {
      "id": "pt.ine.add.PTCONT.630178",
      "street": "AV NSA SRA DE FÁTIMA",
      "house": "227",
      "postcode": "4770-690",
      "city": "SEZURES VNF",
      "lon": "-8.477780783550344",
      "lat": "41.47028958510643"
    },
    {
      "id": "pt.ine.add.PTCONT.635006",
      "street": "R NSA SRA DE FÁTIMA",
      "house": "30",
      "postcode": "4770-690",
      "city": "SEZURES VNF",
      "lon": "-8.47879352792168",
      "lat": "41.469386158278546"
    },
    {
      "id": "pt.ine.add.PTCONT.649149",
      "street": "AV S MAMEDE",
      "house": "278",
      "postcode": "4770-690",
      "city": "SEZURES VNF",
      "lon": "-8.47920785903658",
      "lat": "41.468511536088094"
    },
    {
      "id": "pt.ine.add.PTCONT.670356",
      "street": "AV NSA SRA DE FÁTIMA",
      "house": "105",
      "postcode": "4770-690",
      "city": "SEZURES VNF",
      "lon": "-8.478169664725447",
      "lat": "41.46912691889789"
    },
    {
      "id": "pt.ine.add.PTCONT.682211",
      "street": "AV S MAMEDE",
      "house": "320",
      "postcode": "4770-690",
      "city": "SEZURES VNF",
      "lon": "-8.479542939457268",
      "lat": "41.468492519667095"
    },
    {
      "id": "pt.ine.add.PTCONT.696958",
      "street": "AV S MAMEDE",
      "house": "148",
      "postcode": "4770-690",
      "city": "SEZURES VNF",
      "lon": "-8.478950104586485",
      "lat": "41.46956576520913"
    },
    {
      "id": "pt.ine.add.PTCONT.705778",
      "street": "R S MAMEDE",
      "house": "23",
      "postcode": "4770-690",
      "city": "SEZURES VNF",
      "lon": "-8.47894536749754",
      "lat": "41.46867439540157"
    },
    {
      "id": "pt.ine.add.PTCONT.730143",
      "street": "R CABECAIS",
      "house": "81",
      "postcode": "4770-690",
      "city": "SEZURES VNF",
      "lon": "-8.478095177642667",
      "lat": "41.470882898525886"
    },
    {
      "id": "pt.ine.add.PTCONT.774772",
      "street": "AV AGRA",
      "house": "22",
      "postcode": "4770-690",
      "city": "SEZURES VNF",
      "lon": "-8.480682933399141",
      "lat": "41.46901130576328"
    },
    {
      "id": "pt.ine.add.PTCONT.777728",
      "street": "AV NSA SRA DE FÁTIMA",
      "house": "131",
      "postcode": "4770-690",
      "city": "SEZURES VNF",
      "lon": "-8.478051246349047",
      "lat": "41.469370378798374"
    },
    {
      "id": "pt.ine.add.PTCONT.789570",
      "street": "R CABECAIS",
      "house": "6",
      "postcode": "4770-690",
      "city": "SEZURES VNF",
      "lon": "-8.477304423564183",
      "lat": "41.470759213086886"
    },
    {
      "id": "pt.ine.add.PTCONT.789571",
      "street": "R CABECAIS",
      "house": "6",
      "postcode": "4770-690",
      "city": "SEZURES VNF",
      "lon": "-8.477304423564183",
      "lat": "41.470759213086886"
    },
    {
      "id": "pt.ine.add.PTCONT.794909",
      "street": "R CABECAIS",
      "house": "83",
      "postcode": "4770-690",
      "city": "SEZURES VNF",
      "lon": "-8.478167815415434",
      "lat": "41.47103574655524"
    },
    {
      "id": "pt.ine.add.PTCONT.794910",
      "street": "AV S MAMEDE",
      "house": "25",
      "postcode": "4770-690",
      "city": "SEZURES VNF",
      "lon": "-8.479099597236853",
      "lat": "41.46841281908633"
    },
    {
      "id": "pt.ine.add.PTCONT.838807",
      "street": "AV SENHORA DE FÁTIMA",
      "house": "395",
      "postcode": "4770-690",
      "city": "SEZURES VNF",
      "lon": "-8.476349450774977",
      "lat": "41.471275287587495"
    }
  ]
}