{
  "data": {
    "distrito": "Beja",
    "concelho": "Moura",
    "freguesia": "União das freguesias de Moura (Santo Agostinho e São João Baptista) e Santo Amador",
    "OBJECTID": 227,
    "BGRI2021": "02100900613",
    "DT21": "02",
    "DTMN21": "0210",
    "DTMNFR21": "021009",
    "DTMNFRSEC21": "021009006",
    "SECNUM21": "006",
    "SSNUM21": "13",
    "SECSSNUM21": "00613",
    "OBJECTID_1": 16664,
    "DT": "02",
    "CC": "10",
    "fr": "09",
    "SEC": "006",
    "SS": "13"
  },
  "addresses": [
    {
      "id": "pt.ine.add.PTCONT.458806",
      "street": "R ROSSIO DE S LUIS",
      "house": "",
      "postcode": "7860-356",
      "city": "MOURA",
      "lon": "-7.443895976460756",
      "lat": "38.12972177425065"
    },
    {
      "id": "pt.ine.add.PTCONT.355854",
      "street": "R ROSSIO DE S LUIS",
      "house": "",
      "postcode": "7860-356",
      "city": "MOURA",
      "lon": "-7.443944179752611",
      "lat": "38.12989059898546"
    },
    {
      "id": "pt.ine.add.PTCONT.361540",
      "street": "R FLORBELA ESPANCA",
      "house": "",
      "postcode": "7860-356",
      "city": "MOURA",
      "lon": "-7.44391533460393",
      "lat": "38.130154663732114"
    },
    {
      "id": "pt.ine.add.PTCONT.379240",
      "street": "URB MOURASOL",
      "house": "",
      "postcode": "7860-356",
      "city": "MOURA",
      "lon": "-7.4438843222815345",
      "lat": "38.1296395740785"
    },
    {
      "id": "pt.ine.add.PTCONT.410748",
      "street": "R URBANIZAÇÃO MOURASOL",
      "house": "A 15",
      "postcode": "7860-356",
      "city": "MOURA",
      "lon": "-7.443862671217462",
      "lat": "38.12955412518436"
    },
    {
      "id": "pt.ine.add.PTCONT.414924",
      "street": "R ROSSIO DE S LUIS",
      "house": "",
      "postcode": "7860-356",
      "city": "MOURA",
      "lon": "-7.4439524778486446",
      "lat": "38.12997081731308"
    }
  ]
}