{
  "data": {
    "distrito": "Beja",
    "concelho": "Moura",
    "freguesia": "União das freguesias de Moura (Santo Agostinho e São João Baptista) e Santo Amador",
    "OBJECTID": 177,
    "BGRI2021": "02100900628",
    "DT21": "02",
    "DTMN21": "0210",
    "DTMNFR21": "021009",
    "DTMNFRSEC21": "021009006",
    "SECNUM21": "006",
    "SSNUM21": "28",
    "SECSSNUM21": "00628",
    "OBJECTID_1": 16680,
    "DT": "02",
    "CC": "10",
    "fr": "09",
    "SEC": "006",
    "SS": "28"
  },
  "addresses": [
    {
      "id": "pt.ine.add.PTCONT.380241",
      "street": "LUPITOS",
      "house": "",
      "postcode": "7860-036",
      "city": "MOURA",
      "lon": "-7.485435821045203",
      "lat": "38.11759804922641"
    },
    {
      "id": "pt.ine.add.PTCONT.385933",
      "street": "ESTR PISOES",
      "house": "",
      "postcode": "7860-077",
      "city": "MOURA",
      "lon": "-7.471171317440807",
      "lat": "38.12884280976225"
    },
    {
      "id": "pt.ine.add.PTCONT.389512",
      "street": "EN 258",
      "house": "",
      "postcode": "7860-077",
      "city": "MOURA",
      "lon": "-7.476073143468413",
      "lat": "38.13292435645739"
    },
    {
      "id": "pt.ine.add.PTCONT.401190",
      "street": "",
      "house": "",
      "postcode": "7860-077",
      "city": "MOURA",
      "lon": "-7.497672181441344",
      "lat": "38.125430605342004"
    },
    {
      "id": "pt.ine.add.PTCONT.412775",
      "street": "",
      "house": "",
      "postcode": "7860-036",
      "city": "MOURA",
      "lon": "-7.469987365233518",
      "lat": "38.128601899720366"
    },
    {
      "id": "pt.ine.add.PTCONT.429447",
      "street": "HRD S MARTA",
      "house": "5",
      "postcode": "7860-077",
      "city": "MOURA",
      "lon": "-7.502834483094409",
      "lat": "38.12987280917059"
    },
    {
      "id": "pt.ine.add.PTCONT.430865",
      "street": "EN 258 HERDADE LOPITOS DE BAIXO",
      "house": "",
      "postcode": "7860-077",
      "city": "MOURA",
      "lon": "-7.488740900742943",
      "lat": "38.11911171308845"
    },
    {
      "id": "pt.ine.add.PTCONT.432871",
      "street": "LAD LADEIRA BRANCA",
      "house": "",
      "postcode": "7860-036",
      "city": "MOURA",
      "lon": "-7.499541826879145",
      "lat": "38.10967498513394"
    },
    {
      "id": "pt.ine.add.PTCONT.433516",
      "street": "MANTUNA",
      "house": "",
      "postcode": "7860-036",
      "city": "MOURA",
      "lon": "-7.491085334470968",
      "lat": "38.114439879014384"
    },
    {
      "id": "pt.ine.add.PTCONT.443473",
      "street": "",
      "house": "",
      "postcode": "7860-077",
      "city": "MOURA",
      "lon": "-7.515486694659533",
      "lat": "38.12266075843363"
    }
  ]
}