{
  "data": {
    "distrito": "Bragança",
    "concelho": "Mirandela",
    "freguesia": "Vale de Salgueiro",
    "OBJECTID": 394,
    "BGRI2021": "04073300119",
    "DT21": "04",
    "DTMN21": "0407",
    "DTMNFR21": "040733",
    "DTMNFRSEC21": "040733001",
    "SECNUM21": "001",
    "SSNUM21": "19",
    "SECSSNUM21": "00119",
    "OBJECTID_1": 36786,
    "DT": "04",
    "CC": "07",
    "fr": "33",
    "SEC": "001",
    "SS": "19"
  },
  "addresses": [
    {
      "id": "pt.ine.add.PTCONT.849721",
      "street": "BC SANTANA",
      "house": "30",
      "postcode": "5370-660",
      "city": "VALE DE SALGUEIRO",
      "lon": "-7.235855266865721",
      "lat": "41.59064780293524"
    },
    {
      "id": "pt.ine.add.PTCONT.849722",
      "street": "BC ANTÓNIO CALHO",
      "house": "9",
      "postcode": "5370-660",
      "city": "VALE DE SALGUEIRO",
      "lon": "-7.235808070486014",
      "lat": "41.59145775631844"
    },
    {
      "id": "pt.ine.add.PTCONT.850587",
      "street": "BC SANTANA",
      "house": "10",
      "postcode": "5370-660",
      "city": "VALE DE SALGUEIRO",
      "lon": "-7.235698375133166",
      "lat": "41.59071860695785"
    },
    {
      "id": "pt.ine.add.PTCONT.852992",
      "street": "R ESCOLA",
      "house": "1",
      "postcode": "5370-660",
      "city": "VALE DE SALGUEIRO",
      "lon": "-7.2355837141022",
      "lat": "41.59120390491136"
    },
    {
      "id": "pt.ine.add.PTCONT.867433",
      "street": "R ESCOLA",
      "house": "29",
      "postcode": "5370-660",
      "city": "VALE DE SALGUEIRO",
      "lon": "-7.235664540430874",
      "lat": "41.591429625251926"
    },
    {
      "id": "pt.ine.add.PTCONT.885312",
      "street": "BC ANTÓNIO CALHO",
      "house": "7",
      "postcode": "5370-660",
      "city": "VALE DE SALGUEIRO",
      "lon": "-7.235711635620075",
      "lat": "41.59149301789936"
    },
    {
      "id": "pt.ine.add.PTCONT.888174",
      "street": "BC ANTÓNIO CALHO",
      "house": "20",
      "postcode": "5370-660",
      "city": "VALE DE SALGUEIRO",
      "lon": "-7.235926370013965",
      "lat": "41.591575726051914"
    },
    {
      "id": "pt.ine.add.PTCONT.888832",
      "street": "LG EIROL",
      "house": "1",
      "postcode": "5370-660",
      "city": "VALE DE SALGUEIRO",
      "lon": "-7.235513258925705",
      "lat": "41.59109531195325"
    },
    {
      "id": "pt.ine.add.PTCONT.900511",
      "street": "R CEMITÉRIO",
      "house": "6",
      "postcode": "5370-660",
      "city": "VALE DE SALGUEIRO",
      "lon": "-7.235727969727718",
      "lat": "41.590313677061545"
    },
    {
      "id": "pt.ine.add.PTCONT.919784",
      "street": "AV S SEBASTIÃO",
      "house": "445",
      "postcode": "5370-660",
      "city": "VALE DE SALGUEIRO",
      "lon": "-7.235591321188768",
      "lat": "41.59065474622302"
    },
    {
      "id": "pt.ine.add.PTCONT.922524",
      "street": "AV S SEBASTIÃO",
      "house": "449",
      "postcode": "5370-660",
      "city": "VALE DE SALGUEIRO",
      "lon": "-7.235578331673381",
      "lat": "41.59072667341785"
    },
    {
      "id": "pt.ine.add.PTCONT.922525",
      "street": "BC LARGO DO EIROL",
      "house": "19",
      "postcode": "5370-660",
      "city": "VALE DE SALGUEIRO",
      "lon": "-7.235502389450155",
      "lat": "41.591014194915346"
    },
    {
      "id": "pt.ine.add.PTCONT.926358",
      "street": "R ESCOLA",
      "house": "65",
      "postcode": "5370-660",
      "city": "VALE DE SALGUEIRO",
      "lon": "-7.23569727441962",
      "lat": "41.59166397370411"
    },
    {
      "id": "pt.ine.add.PTCONT.929463",
      "street": "BC SANTANA",
      "house": "33",
      "postcode": "5370-660",
      "city": "VALE DE SALGUEIRO",
      "lon": "-7.235880497234753",
      "lat": "41.59055796408876"
    },
    {
      "id": "pt.ine.add.PTCONT.944094",
      "street": "R ESCOLA",
      "house": "15",
      "postcode": "5370-660",
      "city": "VALE DE SALGUEIRO",
      "lon": "-7.235630060839715",
      "lat": "41.591321313197845"
    },
    {
      "id": "pt.ine.add.PTCONT.949889",
      "street": "BC SANTANA",
      "house": "35",
      "postcode": "5370-660",
      "city": "VALE DE SALGUEIRO",
      "lon": "-7.23595170038944",
      "lat": "41.59061254121537"
    }
  ]
}