{
  "data": {
    "distrito": "Guarda",
    "concelho": "Almeida",
    "freguesia": "Vilar Formoso",
    "OBJECTID": 442,
    "BGRI2021": "09022900138",
    "DT21": "09",
    "DTMN21": "0902",
    "DTMNFR21": "090229",
    "DTMNFRSEC21": "090229001",
    "SECNUM21": "001",
    "SSNUM21": "38",
    "SECSSNUM21": "00138",
    "OBJECTID_1": 75435,
    "DT": "09",
    "CC": "02",
    "fr": "29",
    "SEC": "001",
    "SS": "38"
  },
  "addresses": [
    {
      "id": "pt.ine.add.PTCONT.1921718",
      "street": "R DA LADEIRA",
      "house": "",
      "postcode": "6355-357",
      "city": "VILAR FORMOSO",
      "lon": "-6.846372315648383",
      "lat": "40.62034253051346"
    },
    {
      "id": "pt.ine.add.PTCONT.1930648",
      "street": "R DA LADEIRA",
      "house": "",
      "postcode": "6355-357",
      "city": "VILAR FORMOSO",
      "lon": "-6.845592000913142",
      "lat": "40.62036084754259"
    },
    {
      "id": "pt.ine.add.PTCONT.1941976",
      "street": "R DO ALTO DOS PINHOS RUA B",
      "house": "8",
      "postcode": "6355-322",
      "city": "VILAR FORMOSO",
      "lon": "-6.846785913928503",
      "lat": "40.62095947026057"
    },
    {
      "id": "pt.ine.add.PTCONT.1945974",
      "street": "R SOL NASCENTE MANUEL ANES MATIAS",
      "house": "5",
      "postcode": "6355-363",
      "city": "VILAR FORMOSO",
      "lon": "-6.846392383830865",
      "lat": "40.6211441883694"
    },
    {
      "id": "pt.ine.add.PTCONT.1945975",
      "street": "R S LUZIA",
      "house": "9",
      "postcode": "6355-296",
      "city": "VILAR FORMOSO",
      "lon": "-6.846392383830865",
      "lat": "40.6211441883694"
    },
    {
      "id": "pt.ine.add.PTCONT.1950087",
      "street": "R DA LADEIRA",
      "house": "",
      "postcode": "6355-357",
      "city": "VILAR FORMOSO",
      "lon": "-6.845214090864979",
      "lat": "40.62034762847502"
    },
    {
      "id": "pt.ine.add.PTCONT.1952899",
      "street": "R DO ALTO DOS PINHOS RUA B",
      "house": "12",
      "postcode": "6355-322",
      "city": "VILAR FORMOSO",
      "lon": "-6.846890594362451",
      "lat": "40.62166301681086"
    },
    {
      "id": "pt.ine.add.PTCONT.1953926",
      "street": "R DO SOL NASCENTE",
      "house": "9",
      "postcode": "6355-363",
      "city": "VILAR FORMOSO",
      "lon": "-6.84644264854034",
      "lat": "40.621603997234565"
    },
    {
      "id": "pt.ine.add.PTCONT.1954896",
      "street": "R DA LADEIRA",
      "house": "4",
      "postcode": "6355-357",
      "city": "VILAR FORMOSO",
      "lon": "-6.845633556332879",
      "lat": "40.6206584718722"
    },
    {
      "id": "pt.ine.add.PTCONT.1955759",
      "street": "R DA LADEIRA",
      "house": "",
      "postcode": "6355-357",
      "city": "VILAR FORMOSO",
      "lon": "-6.84538451652478",
      "lat": "40.620088387595274"
    },
    {
      "id": "pt.ine.add.PTCONT.1873030",
      "street": "R DO ALTO DOS PINHOS RUA B",
      "house": "11",
      "postcode": "6355-322",
      "city": "VILAR FORMOSO",
      "lon": "-6.84679969901471",
      "lat": "40.621472901898045"
    },
    {
      "id": "pt.ine.add.PTCONT.1890934",
      "street": "R DA LADEIRA",
      "house": "10",
      "postcode": "6355-357",
      "city": "VILAR FORMOSO",
      "lon": "-6.846462171725141",
      "lat": "40.620586663483934"
    }
  ]
}