{
  "data": {
    "distrito": "Viseu",
    "concelho": "São João da Pesqueira",
    "freguesia": "União das freguesias de Vilarouco e Pereiros",
    "OBJECTID": 340,
    "BGRI2021": "18151700123",
    "DT21": "18",
    "DTMN21": "1815",
    "DTMNFR21": "181517",
    "DTMNFRSEC21": "181517001",
    "SECNUM21": "001",
    "SSNUM21": "23",
    "SECSSNUM21": "00123",
    "OBJECTID_1": 196400,
    "DT": "18",
    "CC": "15",
    "fr": "17",
    "SEC": "001",
    "SS": "23"
  },
  "addresses": [
    {
      "id": "pt.ine.add.PTCONT.5460527",
      "street": "R BAIXO DAS VARANDAS",
      "house": "4",
      "postcode": "5130-557",
      "city": "VILAROUCO",
      "lon": "-7.366163681248534",
      "lat": "41.09864049592983"
    },
    {
      "id": "pt.ine.add.PTCONT.5484273",
      "street": "R FONTE DE CIMA",
      "house": "2",
      "postcode": "5130-557",
      "city": "VILAROUCO",
      "lon": "-7.366451954595795",
      "lat": "41.098417305252816"
    },
    {
      "id": "pt.ine.add.PTCONT.5599620",
      "street": "R FONTE",
      "house": "4",
      "postcode": "5130-557",
      "city": "VILAROUCO",
      "lon": "-7.364489378214271",
      "lat": "41.09931367052921"
    },
    {
      "id": "pt.ine.add.PTCONT.5603230",
      "street": "R VIEIROS",
      "house": "2",
      "postcode": "5130-557",
      "city": "VILAROUCO",
      "lon": "-7.366002600859698",
      "lat": "41.0981621919328"
    },
    {
      "id": "pt.ine.add.PTCONT.5657407",
      "street": "R FONTE DE CIMA",
      "house": "4",
      "postcode": "5130-557",
      "city": "VILAROUCO",
      "lon": "-7.3664387959192945",
      "lat": "41.098525270135994"
    },
    {
      "id": "pt.ine.add.PTCONT.5666262",
      "street": "R FONTE",
      "house": "2",
      "postcode": "5130-557",
      "city": "VILAROUCO",
      "lon": "-7.36466833468115",
      "lat": "41.09927884677423"
    }
  ]
}