{
  "data": {
    "distrito": "Lisboa",
    "concelho": "Torres Vedras",
    "freguesia": "Santa Maria, São Pedro e Matacães",
    "OBJECTID": 598,
    "BGRI2021": "11132600424",
    "DT21": "11",
    "DTMN21": "1113",
    "DTMNFR21": "111326",
    "DTMNFRSEC21": "111326004",
    "SECNUM21": "004",
    "SSNUM21": "24",
    "SECSSNUM21": "00424",
    "OBJECTID_1": 115168,
    "DT": "11",
    "CC": "13",
    "fr": "26",
    "SEC": "004",
    "SS": "24"
  },
  "addresses": [
    {
      "id": "pt.ine.add.PTCONT.2448519",
      "street": "R CASAL PASSAREIRO",
      "house": "",
      "postcode": "2560-583",
      "city": "TORRES VEDRAS",
      "lon": "-9.282910445409652",
      "lat": "39.080960299582884"
    },
    {
      "id": "pt.ine.add.PTCONT.2513542",
      "street": "CSL ESPÍRITO SANTO",
      "house": "3",
      "postcode": "2560-248",
      "city": "TORRES VEDRAS",
      "lon": "-9.277559896703401",
      "lat": "39.08454378510102"
    },
    {
      "id": "pt.ine.add.PTCONT.2628739",
      "street": "R PRINCIPAL",
      "house": "4",
      "postcode": "2560-583",
      "city": "TORRES VEDRAS",
      "lon": "-9.28188486977814",
      "lat": "39.080429973892905"
    },
    {
      "id": "pt.ine.add.PTCONT.2772957",
      "street": "CSL ESPÍRITO SANTO",
      "house": "1",
      "postcode": "2560-248",
      "city": "TORRES VEDRAS",
      "lon": "-9.277325444417333",
      "lat": "39.08433891952912"
    },
    {
      "id": "pt.ine.add.PTCONT.3195688",
      "street": "R PRINCIPAL",
      "house": "",
      "postcode": "2560-583",
      "city": "TORRES VEDRAS",
      "lon": "-9.282864519101262",
      "lat": "39.08097876698828"
    },
    {
      "id": "pt.ine.add.PTCONT.3273234",
      "street": "CSL PASSAREIRO",
      "house": "",
      "postcode": "2560-237",
      "city": "TORRES VEDRAS",
      "lon": "-9.277640081036177",
      "lat": "39.07877835582936"
    }
  ]
}