{
  "data": {
    "distrito": "Viseu",
    "concelho": "Castro Daire",
    "freguesia": "Gosende",
    "OBJECTID": 527,
    "BGRI2021": "18030900124",
    "DT21": "18",
    "DTMN21": "1803",
    "DTMNFR21": "180309",
    "DTMNFRSEC21": "180309001",
    "SECNUM21": "001",
    "SSNUM21": "24",
    "SECSSNUM21": "00124",
    "OBJECTID_1": 189045,
    "DT": "18",
    "CC": "03",
    "fr": "09",
    "SEC": "001",
    "SS": "24"
  },
  "addresses": [
    {
      "id": "pt.ine.add.PTCONT.5428926",
      "street": "R OITAO",
      "house": "",
      "postcode": "3600-373",
      "city": "GOSENDE",
      "lon": "-7.931260307747433",
      "lat": "41.01373528987254"
    },
    {
      "id": "pt.ine.add.PTCONT.5432448",
      "street": "R DA EIRA CIMA",
      "house": "780",
      "postcode": "3600-373",
      "city": "GOSENDE",
      "lon": "-7.931177229026339",
      "lat": "41.013690121328366"
    },
    {
      "id": "pt.ine.add.PTCONT.5445403",
      "street": "R GRILO",
      "house": "3",
      "postcode": "3600-373",
      "city": "GOSENDE",
      "lon": "-7.9313082170636",
      "lat": "41.01361831387298"
    },
    {
      "id": "pt.ine.add.PTCONT.5448611",
      "street": "R OITAO",
      "house": "2",
      "postcode": "3600-373",
      "city": "GOSENDE",
      "lon": "-7.931045965574939",
      "lat": "41.01385197421428"
    },
    {
      "id": "pt.ine.add.PTCONT.5460108",
      "street": "R OITAO",
      "house": "",
      "postcode": "3600-373",
      "city": "GOSENDE",
      "lon": "-7.930974527190474",
      "lat": "41.01388786738606"
    },
    {
      "id": "pt.ine.add.PTCONT.5471836",
      "street": "R EIRA CIMA",
      "house": "",
      "postcode": "3600-373",
      "city": "GOSENDE",
      "lon": "-7.9311181464664315",
      "lat": "41.013572957923415"
    },
    {
      "id": "pt.ine.add.PTCONT.5478038",
      "street": "R CAMPO",
      "house": "",
      "postcode": "3600-373",
      "city": "GOSENDE",
      "lon": "-7.930451673520479",
      "lat": "41.01381491246767"
    },
    {
      "id": "pt.ine.add.PTCONT.5479889",
      "street": "R 25 DE ABRIL",
      "house": "",
      "postcode": "3600-373",
      "city": "GOSENDE",
      "lon": "-7.930417886084416",
      "lat": "41.01320253980085"
    },
    {
      "id": "pt.ine.add.PTCONT.5485128",
      "street": "R 1 DE MAIO",
      "house": "3",
      "postcode": "3600-373",
      "city": "GOSENDE",
      "lon": "-7.931084050395324",
      "lat": "41.01305963556512"
    },
    {
      "id": "pt.ine.add.PTCONT.5495965",
      "street": "R OITAO",
      "house": "",
      "postcode": "3600-373",
      "city": "GOSENDE",
      "lon": "-7.930903171326246",
      "lat": "41.013896746839606"
    },
    {
      "id": "pt.ine.add.PTCONT.5501299",
      "street": "R LIBERDADE",
      "house": "",
      "postcode": "3600-373",
      "city": "GOSENDE",
      "lon": "-7.931296603843307",
      "lat": "41.013528247473836"
    },
    {
      "id": "pt.ine.add.PTCONT.5513033",
      "street": "R CAMPO",
      "house": "",
      "postcode": "3600-373",
      "city": "GOSENDE",
      "lon": "-7.930534641569516",
      "lat": "41.01389609976383"
    },
    {
      "id": "pt.ine.add.PTCONT.5529579",
      "street": "R DIREITA",
      "house": "",
      "postcode": "3600-373",
      "city": "GOSENDE",
      "lon": "-7.931130501986265",
      "lat": "41.01341990125822"
    },
    {
      "id": "pt.ine.add.PTCONT.5551918",
      "street": "R 25 DE ABRIL",
      "house": "",
      "postcode": "3600-373",
      "city": "GOSENDE",
      "lon": "-7.930834652230596",
      "lat": "41.01297815671831"
    },
    {
      "id": "pt.ine.add.PTCONT.5556280",
      "street": "R OITAO",
      "house": "",
      "postcode": "3600-373",
      "city": "GOSENDE",
      "lon": "-7.930796674661005",
      "lat": "41.01373447705729"
    },
    {
      "id": "pt.ine.add.PTCONT.5559900",
      "street": "R 1 DE MAIO",
      "house": "",
      "postcode": "3600-373",
      "city": "GOSENDE",
      "lon": "-7.930940679824056",
      "lat": "41.01329350398663"
    },
    {
      "id": "pt.ine.add.PTCONT.5565559",
      "street": "R 1 DE MAIO",
      "house": "",
      "postcode": "3600-373",
      "city": "GOSENDE",
      "lon": "-7.931059641841129",
      "lat": "41.013266698751444"
    },
    {
      "id": "pt.ine.add.PTCONT.5565560",
      "street": "R 25 DE ABRIL",
      "house": "",
      "postcode": "3600-373",
      "city": "GOSENDE",
      "lon": "-7.93083429419675",
      "lat": "41.01309521598773"
    },
    {
      "id": "pt.ine.add.PTCONT.5570858",
      "street": "R 25 DE ABRIL",
      "house": "",
      "postcode": "3600-373",
      "city": "GOSENDE",
      "lon": "-7.930096911932671",
      "lat": "41.013201974941374"
    },
    {
      "id": "pt.ine.add.PTCONT.5581950",
      "street": "R SEM NOME",
      "house": "",
      "postcode": "3600-373",
      "city": "GOSENDE",
      "lon": "-7.931236971481632",
      "lat": "41.01359117530023"
    },
    {
      "id": "pt.ine.add.PTCONT.5589377",
      "street": "TV MASSADOUROS",
      "house": "2",
      "postcode": "3600-373",
      "city": "GOSENDE",
      "lon": "-7.9306422130068155",
      "lat": "41.01370719203047"
    },
    {
      "id": "pt.ine.add.PTCONT.5605920",
      "street": "R DIREITA",
      "house": "",
      "postcode": "3600-373",
      "city": "GOSENDE",
      "lon": "-7.9311900518150145",
      "lat": "41.013383987161454"
    },
    {
      "id": "pt.ine.add.PTCONT.5622863",
      "street": "R LIBERDADE",
      "house": "2",
      "postcode": "3600-373",
      "city": "GOSENDE",
      "lon": "-7.9312255232925475",
      "lat": "41.013447081541436"
    },
    {
      "id": "pt.ine.add.PTCONT.5641840",
      "street": "R 1 MAIO",
      "house": "1",
      "postcode": "3600-373",
      "city": "GOSENDE",
      "lon": "-7.930917592175548",
      "lat": "41.01306834830848"
    },
    {
      "id": "pt.ine.add.PTCONT.5641975",
      "street": "R CRUZEIRO",
      "house": "4",
      "postcode": "3600-373",
      "city": "GOSENDE",
      "lon": "-7.929464300609982",
      "lat": "41.0140292828354"
    },
    {
      "id": "pt.ine.add.PTCONT.5650244",
      "street": "R 25 DE ABRIL",
      "house": "2",
      "postcode": "3600-373",
      "city": "GOSENDE",
      "lon": "-7.930453825809909",
      "lat": "41.01311255692"
    },
    {
      "id": "pt.ine.add.PTCONT.5660520",
      "street": "R DIREITA",
      "house": "",
      "postcode": "3600-373",
      "city": "GOSENDE",
      "lon": "-7.931083225176541",
      "lat": "41.01332977233741"
    }
  ]
}