{
  "data": {
    "distrito": "Portalegre",
    "concelho": "Gavião",
    "freguesia": "Belver",
    "OBJECTID": 282,
    "BGRI2021": "12090200212",
    "DT21": "12",
    "DTMN21": "1209",
    "DTMNFR21": "120902",
    "DTMNFRSEC21": "120902002",
    "SECNUM21": "002",
    "SSNUM21": "12",
    "SECSSNUM21": "00212",
    "OBJECTID_1": 122533,
    "DT": "12",
    "CC": "09",
    "fr": "02",
    "SEC": "002",
    "SS": "12"
  },
  "addresses": [
    {
      "id": "pt.ine.add.PTCONT.3475159",
      "street": "R CÂNDIDO DOS REIS",
      "house": "1",
      "postcode": "6040-024",
      "city": "BELVER GAV",
      "lon": "-7.958381613905759",
      "lat": "39.49464614255729"
    },
    {
      "id": "pt.ine.add.PTCONT.3477540",
      "street": "R CÂNDIDO DOS REIS",
      "house": "3",
      "postcode": "6040-024",
      "city": "BELVER GAV",
      "lon": "-7.958288590171677",
      "lat": "39.49465500970876"
    },
    {
      "id": "pt.ine.add.PTCONT.3480665",
      "street": "LG FONTE DO CALDEIRO",
      "house": "1",
      "postcode": "6040-024",
      "city": "BELVER GAV",
      "lon": "-7.9576833807075795",
      "lat": "39.49493331447878"
    },
    {
      "id": "pt.ine.add.PTCONT.3481996",
      "street": "BC CANDIDO REIS",
      "house": "7",
      "postcode": "6040-024",
      "city": "BELVER GAV",
      "lon": "-7.9580631758858384",
      "lat": "39.494696060338036"
    },
    {
      "id": "pt.ine.add.PTCONT.3500552",
      "street": "R PASSEIO",
      "house": "2",
      "postcode": "6040-024",
      "city": "BELVER GAV",
      "lon": "-7.957727810645988",
      "lat": "39.494911792680064"
    },
    {
      "id": "pt.ine.add.PTCONT.3503094",
      "street": "R CÂNDIDO DOS REIS",
      "house": "5",
      "postcode": "6040-024",
      "city": "BELVER GAV",
      "lon": "-7.9581562222792",
      "lat": "39.4946781864238"
    },
    {
      "id": "pt.ine.add.PTCONT.3521090",
      "street": "R PASSEIO",
      "house": "",
      "postcode": "6040-024",
      "city": "BELVER GAV",
      "lon": "-7.957799858878207",
      "lat": "39.494843420384726"
    },
    {
      "id": "pt.ine.add.PTCONT.3529413",
      "street": "R CÂNDIDO DOS REIS",
      "house": "",
      "postcode": "6040-024",
      "city": "BELVER GAV",
      "lon": "-7.957893086419901",
      "lat": "39.4947534911378"
    },
    {
      "id": "pt.ine.add.PTCONT.3533560",
      "street": "R PASSEIO",
      "house": "",
      "postcode": "6040-024",
      "city": "BELVER GAV",
      "lon": "-7.957858052620694",
      "lat": "39.49481648717921"
    }
  ]
}