{
  "data": {
    "distrito": "Vila Real",
    "concelho": "Boticas",
    "freguesia": "Vilar e Viveiro",
    "OBJECTID": 287,
    "BGRI2021": "17022100108",
    "DT21": "17",
    "DTMN21": "1702",
    "DTMNFR21": "170221",
    "DTMNFRSEC21": "170221001",
    "SECNUM21": "001",
    "SSNUM21": "08",
    "SECSSNUM21": "00108",
    "OBJECTID_1": 180467,
    "DT": "17",
    "CC": "02",
    "fr": "21",
    "SEC": "001",
    "SS": "08"
  },
  "addresses": [
    {
      "id": "pt.ine.add.PTCONT.5304315",
      "street": "TV DO PEREIRO",
      "house": "1",
      "postcode": "5460-512",
      "city": "VILAR BTC",
      "lon": "-7.733866439070216",
      "lat": "41.66781673503063"
    },
    {
      "id": "pt.ine.add.PTCONT.5322037",
      "street": "R DA POÇA",
      "house": "",
      "postcode": "5460-512",
      "city": "VILAR BTC",
      "lon": "-7.734176462643912",
      "lat": "41.66816895040132"
    },
    {
      "id": "pt.ine.add.PTCONT.5322051",
      "street": "TV DO LEANO",
      "house": "2",
      "postcode": "5460-512",
      "city": "VILAR BTC",
      "lon": "-7.733655635496811",
      "lat": "41.66889642990309"
    },
    {
      "id": "pt.ine.add.PTCONT.5336375",
      "street": "R DO PENEDO",
      "house": "4",
      "postcode": "5460-512",
      "city": "VILAR BTC",
      "lon": "-7.732992042289256",
      "lat": "41.66940732461677"
    },
    {
      "id": "pt.ine.add.PTCONT.5352985",
      "street": "TV DA EIRA",
      "house": "1",
      "postcode": "5460-512",
      "city": "VILAR BTC",
      "lon": "-7.733500595145285",
      "lat": "41.668724823324936"
    },
    {
      "id": "pt.ine.add.PTCONT.5357588",
      "street": "TV DA EIRA",
      "house": "2",
      "postcode": "5460-512",
      "city": "VILAR BTC",
      "lon": "-7.734017419134659",
      "lat": "41.668645586996014"
    },
    {
      "id": "pt.ine.add.PTCONT.5357766",
      "street": "TV DA EIRA",
      "house": "1",
      "postcode": "5460-512",
      "city": "VILAR BTC",
      "lon": "-7.733632065658909",
      "lat": "41.66882431950474"
    },
    {
      "id": "pt.ine.add.PTCONT.5384561",
      "street": "TV DA EIRA",
      "house": "",
      "postcode": "5460-512",
      "city": "VILAR BTC",
      "lon": "-7.733932643546837",
      "lat": "41.66876233888606"
    },
    {
      "id": "pt.ine.add.PTCONT.5385267",
      "street": "R DO EIRÃO",
      "house": "13",
      "postcode": "5460-512",
      "city": "VILAR BTC",
      "lon": "-7.734254401711513",
      "lat": "41.66915961254574"
    },
    {
      "id": "pt.ine.add.PTCONT.5397997",
      "street": "R DO PEREIRO",
      "house": "3",
      "postcode": "5460-512",
      "city": "VILAR BTC",
      "lon": "-7.734252341576703",
      "lat": "41.667547967982216"
    },
    {
      "id": "pt.ine.add.PTCONT.5402822",
      "street": "TV DO LEANO",
      "house": "1",
      "postcode": "5460-512",
      "city": "VILAR BTC",
      "lon": "-7.733884057182539",
      "lat": "41.66885220573709"
    },
    {
      "id": "pt.ine.add.PTCONT.5404527",
      "street": "TV DO LEANO",
      "house": "3",
      "postcode": "5460-512",
      "city": "VILAR BTC",
      "lon": "-7.733979394625978",
      "lat": "41.66896958312665"
    },
    {
      "id": "pt.ine.add.PTCONT.5411454",
      "street": "R DO EIRÃO",
      "house": "33",
      "postcode": "5460-512",
      "city": "VILAR BTC",
      "lon": "-7.734466418090607",
      "lat": "41.6678818424675"
    },
    {
      "id": "pt.ine.add.PTCONT.5423799",
      "street": "R PEREIRO",
      "house": "",
      "postcode": "5460-512",
      "city": "VILAR BTC",
      "lon": "-7.734913076320892",
      "lat": "41.66749623759764"
    }
  ]
}