{
  "data": {
    "distrito": "Setúbal",
    "concelho": "Almada",
    "freguesia": "União das freguesias de Charneca de Caparica e Sobreda",
    "OBJECTID": 279,
    "BGRI2021": "15031403712",
    "DT21": "15",
    "DTMN21": "1503",
    "DTMNFR21": "150314",
    "DTMNFRSEC21": "150314037",
    "SECNUM21": "037",
    "SSNUM21": "12",
    "SECSSNUM21": "03712",
    "OBJECTID_1": 161240,
    "DT": "15",
    "CC": "03",
    "fr": "14",
    "SEC": "037",
    "SS": "12"
  },
  "addresses": [
    {
      "id": "pt.ine.add.PTCONT.4702537",
      "street": "R MANUEL FERREIRA",
      "house": "3A",
      "postcode": "2820-366",
      "city": "CHARNECA DA CAPARICA",
      "lon": "-9.17836450648355",
      "lat": "38.59724130520175"
    },
    {
      "id": "pt.ine.add.PTCONT.4718843",
      "street": "R ANTÓNIO QUADROS",
      "house": "33",
      "postcode": "2820-363",
      "city": "CHARNECA DA CAPARICA",
      "lon": "-9.178688871255746",
      "lat": "38.59744559231984"
    },
    {
      "id": "pt.ine.add.PTCONT.4770356",
      "street": "R ANTÓNIO QUADROS",
      "house": "37",
      "postcode": "2820-363",
      "city": "CHARNECA DA CAPARICA",
      "lon": "-9.178685604388098",
      "lat": "38.59722042053218"
    },
    {
      "id": "pt.ine.add.PTCONT.4826665",
      "street": "R LINDLEY CINTRA",
      "house": "14",
      "postcode": "2820-369",
      "city": "CHARNECA DA CAPARICA",
      "lon": "-9.178069235759182",
      "lat": "38.59746013523001"
    },
    {
      "id": "pt.ine.add.PTCONT.4846318",
      "street": "R MANUEL FERREIRA",
      "house": "5",
      "postcode": "2820-366",
      "city": "CHARNECA DA CAPARICA",
      "lon": "-9.17801627524602",
      "lat": "38.59697417400181"
    },
    {
      "id": "pt.ine.add.PTCONT.4852700",
      "street": "R JOÃO PALMA FERREIRA",
      "house": "18",
      "postcode": "2820-378",
      "city": "CHARNECA DA CAPARICA",
      "lon": "-9.177603883708729",
      "lat": "38.597031903896266"
    },
    {
      "id": "pt.ine.add.PTCONT.4901189",
      "street": "R ANTÓNIO QUADROS",
      "house": "39",
      "postcode": "2820-363",
      "city": "CHARNECA DA CAPARICA",
      "lon": "-9.178672689881154",
      "lat": "38.59712144749064"
    },
    {
      "id": "pt.ine.add.PTCONT.4912950",
      "street": "R ANTÓNIO QUADROS",
      "house": "",
      "postcode": "2820-363",
      "city": "CHARNECA DA CAPARICA",
      "lon": "-9.178657445262054",
      "lat": "38.59765305800258"
    },
    {
      "id": "pt.ine.add.PTCONT.4958776",
      "street": "R CAMILO CASTELO BRANCO",
      "house": "1",
      "postcode": "2820-629",
      "city": "CHARNECA DA CAPARICA",
      "lon": "-9.17842724840258",
      "lat": "38.59761007435793"
    },
    {
      "id": "pt.ine.add.PTCONT.5005536",
      "street": "R ANTÓNIO QUADROS",
      "house": "31",
      "postcode": "2820-363",
      "city": "CHARNECA DA CAPARICA",
      "lon": "-9.178678962199623",
      "lat": "38.59755377732417"
    },
    {
      "id": "pt.ine.add.PTCONT.5053838",
      "street": "R JOÃO PALMA FERREIRA",
      "house": "20",
      "postcode": "2820-378",
      "city": "CHARNECA DA CAPARICA",
      "lon": "-9.17785376821835",
      "lat": "38.59684951240397"
    },
    {
      "id": "pt.ine.add.PTCONT.5064497",
      "street": "R ANTÓNIO QUADROS",
      "house": "35",
      "postcode": "2820-363",
      "city": "CHARNECA DA CAPARICA",
      "lon": "-9.178675826023577",
      "lat": "38.59733761241151"
    }
  ]
}