{
  "data": {
    "distrito": "Aveiro",
    "concelho": "Vale de Cambra",
    "freguesia": "São Pedro de Castelões",
    "OBJECTID": 266,
    "BGRI2021": "01190200202",
    "DT21": "01",
    "DTMN21": "0119",
    "DTMNFR21": "011902",
    "DTMNFRSEC21": "011902002",
    "SECNUM21": "002",
    "SSNUM21": "02",
    "SECSSNUM21": "00202",
    "OBJECTID_1": 12016,
    "DT": "01",
    "CC": "19",
    "fr": "02",
    "SEC": "002",
    "SS": "02"
  },
  "addresses": [
    {
      "id": "pt.ine.add.PTCONT.317947",
      "street": "LAD CAPELA",
      "house": "50",
      "postcode": "3730-028",
      "city": "VALE DE CAMBRA",
      "lon": "-8.389390551304102",
      "lat": "40.84129446701084"
    },
    {
      "id": "pt.ine.add.PTCONT.339429",
      "street": "LAD CAPELA",
      "house": "90",
      "postcode": "3730-028",
      "city": "VALE DE CAMBRA",
      "lon": "-8.388679089536806",
      "lat": "40.84128704046605"
    },
    {
      "id": "pt.ine.add.PTCONT.59115",
      "street": "R MONTE DE MACINHATA",
      "house": "",
      "postcode": "3730-028",
      "city": "VALE DE CAMBRA",
      "lon": "-8.38815009347985",
      "lat": "40.83938818298187"
    },
    {
      "id": "pt.ine.add.PTCONT.74569",
      "street": "R JUNQUEIRA",
      "house": "11",
      "postcode": "3730-028",
      "city": "VALE DE CAMBRA",
      "lon": "-8.388672794776337",
      "lat": "40.83964816759169"
    },
    {
      "id": "pt.ine.add.PTCONT.74570",
      "street": "R JUNQUEIRA",
      "house": "11",
      "postcode": "3730-028",
      "city": "VALE DE CAMBRA",
      "lon": "-8.388672794776337",
      "lat": "40.83964816759169"
    },
    {
      "id": "pt.ine.add.PTCONT.143973",
      "street": "R JUNQUEIRA",
      "house": "27",
      "postcode": "3730-028",
      "city": "VALE DE CAMBRA",
      "lon": "-8.389030092712549",
      "lat": "40.840061599710005"
    },
    {
      "id": "pt.ine.add.PTCONT.153579",
      "street": "R JUNQUEIRA",
      "house": "28",
      "postcode": "3730-028",
      "city": "VALE DE CAMBRA",
      "lon": "-8.388675284949276",
      "lat": "40.84029651296056"
    },
    {
      "id": "pt.ine.add.PTCONT.154668",
      "street": "R JUNQUEIRA",
      "house": "28",
      "postcode": "3730-028",
      "city": "VALE DE CAMBRA",
      "lon": "-8.388675284949276",
      "lat": "40.84029651296056"
    },
    {
      "id": "pt.ine.add.PTCONT.156468",
      "street": "R MONTE DE MACINHATA",
      "house": "139",
      "postcode": "3730-028",
      "city": "VALE DE CAMBRA",
      "lon": "-8.388245431103394",
      "lat": "40.83951404041573"
    },
    {
      "id": "pt.ine.add.PTCONT.207649",
      "street": "AV MILENIO",
      "house": "418",
      "postcode": "3730-028",
      "city": "VALE DE CAMBRA",
      "lon": "-8.38974609121048",
      "lat": "40.84124865227068"
    },
    {
      "id": "pt.ine.add.PTCONT.240425",
      "street": "R JUNQUEIRA",
      "house": "54",
      "postcode": "3730-028",
      "city": "VALE DE CAMBRA",
      "lon": "-8.389018997729837",
      "lat": "40.84025973152998"
    }
  ]
}