{
  "data": {
    "distrito": "Guarda",
    "concelho": "Gouveia",
    "freguesia": "Cativelos",
    "OBJECTID": 490,
    "BGRI2021": "09060300133",
    "DT21": "09",
    "DTMN21": "0906",
    "DTMNFR21": "090603",
    "DTMNFRSEC21": "090603001",
    "SECNUM21": "001",
    "SSNUM21": "33",
    "SECSSNUM21": "00133",
    "OBJECTID_1": 77298,
    "DT": "09",
    "CC": "06",
    "fr": "03",
    "SEC": "001",
    "SS": "33"
  },
  "addresses": [
    {
      "id": "pt.ine.add.PTCONT.1916724",
      "street": "R DIREITA",
      "house": "18",
      "postcode": "6290-063",
      "city": "CATIVELOS",
      "lon": "-7.707905469965419",
      "lat": "40.53837779130477"
    },
    {
      "id": "pt.ine.add.PTCONT.1944155",
      "street": "R FORNO",
      "house": "1",
      "postcode": "6290-063",
      "city": "CATIVELOS",
      "lon": "-7.707517384380429",
      "lat": "40.53815122949943"
    },
    {
      "id": "pt.ine.add.PTCONT.1967876",
      "street": "LG PESO",
      "house": "6",
      "postcode": "6290-063",
      "city": "CATIVELOS",
      "lon": "-7.7074575129757275",
      "lat": "40.53828608874987"
    },
    {
      "id": "pt.ine.add.PTCONT.1971785",
      "street": "R ESCADINHAS",
      "house": "2",
      "postcode": "6290-063",
      "city": "CATIVELOS",
      "lon": "-7.707470798087215",
      "lat": "40.53805199937689"
    },
    {
      "id": "pt.ine.add.PTCONT.1972911",
      "street": "R FONTE",
      "house": "3",
      "postcode": "6290-063",
      "city": "CATIVELOS",
      "lon": "-7.707353506352518",
      "lat": "40.53793449808078"
    },
    {
      "id": "pt.ine.add.PTCONT.1978185",
      "street": "LG PESO",
      "house": "1",
      "postcode": "6290-063",
      "city": "CATIVELOS",
      "lon": "-7.707680921676375",
      "lat": "40.53842199134096"
    },
    {
      "id": "pt.ine.add.PTCONT.1870460",
      "street": "R FONTE",
      "house": "7",
      "postcode": "6290-063",
      "city": "CATIVELOS",
      "lon": "-7.707258510059482",
      "lat": "40.53802420120023"
    },
    {
      "id": "pt.ine.add.PTCONT.1874964",
      "street": "LG CLUBE",
      "house": "",
      "postcode": "6290-063",
      "city": "CATIVELOS",
      "lon": "-7.707399009370167",
      "lat": "40.53820482533733"
    },
    {
      "id": "pt.ine.add.PTCONT.1887363",
      "street": "R FONTE",
      "house": "3",
      "postcode": "6290-063",
      "city": "CATIVELOS",
      "lon": "-7.7072473340161425",
      "lat": "40.53792510148909"
    },
    {
      "id": "pt.ine.add.PTCONT.1894733",
      "street": "LG PESO",
      "house": "2",
      "postcode": "6290-063",
      "city": "CATIVELOS",
      "lon": "-7.707598811015591",
      "lat": "40.5383406411082"
    }
  ]
}