{
  "data": {
    "distrito": "Guarda",
    "concelho": "Gouveia",
    "freguesia": "Cativelos",
    "OBJECTID": 492,
    "BGRI2021": "09060300135",
    "DT21": "09",
    "DTMN21": "0906",
    "DTMNFR21": "090603",
    "DTMNFRSEC21": "090603001",
    "SECNUM21": "001",
    "SSNUM21": "35",
    "SECSSNUM21": "00135",
    "OBJECTID_1": 77471,
    "DT": "09",
    "CC": "06",
    "fr": "03",
    "SEC": "001",
    "SS": "35"
  },
  "addresses": [
    {
      "id": "pt.ine.add.PTCONT.1934929",
      "street": "R POSSIDÓNIO",
      "house": "",
      "postcode": "6290-061",
      "city": "CATIVELOS",
      "lon": "-7.707031452313105",
      "lat": "40.5384646247873"
    },
    {
      "id": "pt.ine.add.PTCONT.1934937",
      "street": "R DIREITA",
      "house": "20",
      "postcode": "6290-061",
      "city": "CATIVELOS",
      "lon": "-7.7072197927563195",
      "lat": "40.53854636702838"
    },
    {
      "id": "pt.ine.add.PTCONT.1940396",
      "street": "R SACO",
      "house": "1",
      "postcode": "6290-061",
      "city": "CATIVELOS",
      "lon": "-7.707468803369162",
      "lat": "40.538367178217435"
    },
    {
      "id": "pt.ine.add.PTCONT.1946815",
      "street": "R DIREITA",
      "house": "18",
      "postcode": "6290-061",
      "city": "CATIVELOS",
      "lon": "-7.707361661217425",
      "lat": "40.53851086858613"
    },
    {
      "id": "pt.ine.add.PTCONT.1950824",
      "street": "LG CIMO POVO",
      "house": "1",
      "postcode": "6290-061",
      "city": "CATIVELOS",
      "lon": "-7.7069600615783065",
      "lat": "40.53855441469673"
    },
    {
      "id": "pt.ine.add.PTCONT.1967875",
      "street": "R POSSIDÓNIO",
      "house": "",
      "postcode": "6290-061",
      "city": "CATIVELOS",
      "lon": "-7.707137853616295",
      "lat": "40.53843800114482"
    },
    {
      "id": "pt.ine.add.PTCONT.1849350",
      "street": "LG TERREIRO DA LAGE",
      "house": "4",
      "postcode": "6290-061",
      "city": "CATIVELOS",
      "lon": "-7.7072801210145325",
      "lat": "40.53833946703679"
    },
    {
      "id": "pt.ine.add.PTCONT.1857995",
      "street": "R SACO",
      "house": "",
      "postcode": "6290-061",
      "city": "CATIVELOS",
      "lon": "-7.707338624591628",
      "lat": "40.538420730507525"
    },
    {
      "id": "pt.ine.add.PTCONT.1879714",
      "street": "R DIREITA",
      "house": "22",
      "postcode": "6290-061",
      "city": "CATIVELOS",
      "lon": "-7.707077924146797",
      "lat": "40.538581865295455"
    },
    {
      "id": "pt.ine.add.PTCONT.1882715",
      "street": "LG TERREIRO DA LAGE",
      "house": "3",
      "postcode": "6290-061",
      "city": "CATIVELOS",
      "lon": "-7.707208844799345",
      "lat": "40.538411246886"
    },
    {
      "id": "pt.ine.add.PTCONT.1887974",
      "street": "R SACO",
      "house": "16",
      "postcode": "6290-061",
      "city": "CATIVELOS",
      "lon": "-7.707491669183352",
      "lat": "40.53848433159974"
    }
  ]
}