{
  "data": {
    "distrito": "Vila Real",
    "concelho": "Valpaços",
    "freguesia": "Santa Valha",
    "OBJECTID": 277,
    "BGRI2021": "17122000130",
    "DT21": "17",
    "DTMN21": "1712",
    "DTMNFR21": "171220",
    "DTMNFRSEC21": "171220001",
    "SECNUM21": "001",
    "SSNUM21": "30",
    "SECSSNUM21": "00130",
    "OBJECTID_1": 185859,
    "DT": "17",
    "CC": "12",
    "fr": "20",
    "SEC": "001",
    "SS": "30"
  },
  "addresses": [
    {
      "id": "pt.ine.add.PTCONT.5301890",
      "street": "R DA CAPELA",
      "house": "1",
      "postcode": "5430-231",
      "city": "SANTA VALHA",
      "lon": "-7.2702889770108206",
      "lat": "41.710189668611285"
    },
    {
      "id": "pt.ine.add.PTCONT.5326201",
      "street": "R DO CANTO",
      "house": "42",
      "postcode": "5430-231",
      "city": "SANTA VALHA",
      "lon": "-7.270424984613992",
      "lat": "41.7099025808868"
    },
    {
      "id": "pt.ine.add.PTCONT.5331595",
      "street": "R JOÃO ANTÓNIO DE CASTRO",
      "house": "",
      "postcode": "5430-231",
      "city": "SANTA VALHA",
      "lon": "-7.270423660566626",
      "lat": "41.71000160837214"
    },
    {
      "id": "pt.ine.add.PTCONT.5352547",
      "street": "R JOÃO ANTÓNIO DE CASTRO",
      "house": "40",
      "postcode": "5430-231",
      "city": "SANTA VALHA",
      "lon": "-7.270338117096362",
      "lat": "41.710109006955676"
    },
    {
      "id": "pt.ine.add.PTCONT.5373303",
      "street": "R DA VEIGA",
      "house": "",
      "postcode": "5430-231",
      "city": "SANTA VALHA",
      "lon": "-7.270028278125732",
      "lat": "41.70991760877245"
    },
    {
      "id": "pt.ine.add.PTCONT.5391440",
      "street": "R DA CAPELA",
      "house": "",
      "postcode": "5430-231",
      "city": "SANTA VALHA",
      "lon": "-7.270060105800006",
      "lat": "41.71023296689198"
    },
    {
      "id": "pt.ine.add.PTCONT.5403237",
      "street": "R DA VEIGA",
      "house": "37",
      "postcode": "5430-231",
      "city": "SANTA VALHA",
      "lon": "-7.269214019501139",
      "lat": "41.70992287581289"
    }
  ]
}