{
  "data": {
    "distrito": "Lisboa",
    "concelho": "Torres Vedras",
    "freguesia": "União das freguesias de Carvoeira e Carmões",
    "OBJECTID": 1069,
    "BGRI2021": "11132300211",
    "DT21": "11",
    "DTMN21": "1113",
    "DTMNFR21": "111323",
    "DTMNFRSEC21": "111323002",
    "SECNUM21": "002",
    "SSNUM21": "11",
    "SECSSNUM21": "00211",
    "OBJECTID_1": 116840,
    "DT": "11",
    "CC": "13",
    "fr": "23",
    "SEC": "002",
    "SS": "11"
  },
  "addresses": [
    {
      "id": "pt.ine.add.PTCONT.2363548",
      "street": "R CASAL SOL",
      "house": "13",
      "postcode": "2565-136",
      "city": "CARVOEIRA TVD",
      "lon": "-9.161856578298691",
      "lat": "39.06990432342149"
    },
    {
      "id": "pt.ine.add.PTCONT.2563660",
      "street": "R PAULO AGOSTINHO",
      "house": "",
      "postcode": "2565-137",
      "city": "CARVOEIRA TVD",
      "lon": "-9.17270432135504",
      "lat": "39.07369027508063"
    },
    {
      "id": "pt.ine.add.PTCONT.2679629",
      "street": "R CASAL SOL",
      "house": "9",
      "postcode": "2565-136",
      "city": "CARVOEIRA TVD",
      "lon": "-9.161263045592143",
      "lat": "39.06961231603861"
    },
    {
      "id": "pt.ine.add.PTCONT.2848705",
      "street": "R FONTE DA LUZ",
      "house": "3A",
      "postcode": "2565-137",
      "city": "CARVOEIRA TVD",
      "lon": "-9.171539946618386",
      "lat": "39.07466443497011"
    },
    {
      "id": "pt.ine.add.PTCONT.2876256",
      "street": "R FONTE DA LUZ",
      "house": "2",
      "postcode": "2565-137",
      "city": "CARVOEIRA TVD",
      "lon": "-9.171413643735612",
      "lat": "39.07471960371927"
    },
    {
      "id": "pt.ine.add.PTCONT.2939395",
      "street": "R FONTE DA LUZ",
      "house": "3",
      "postcode": "2565-137",
      "city": "CARVOEIRA TVD",
      "lon": "-9.171587747125166",
      "lat": "39.0747720972102"
    },
    {
      "id": "pt.ine.add.PTCONT.2939396",
      "street": "R FONTE DA LUZ",
      "house": "2",
      "postcode": "2565-137",
      "city": "CARVOEIRA TVD",
      "lon": "-9.171854877524295",
      "lat": "39.0740761533563"
    },
    {
      "id": "pt.ine.add.PTCONT.3088685",
      "street": "QTA GLORIA",
      "house": "",
      "postcode": "2565-137",
      "city": "CARVOEIRA TVD",
      "lon": "-9.172252926094579",
      "lat": "39.073640254776215"
    },
    {
      "id": "pt.ine.add.PTCONT.3150269",
      "street": "EN 9",
      "house": "1",
      "postcode": "2565-137",
      "city": "CARVOEIRA TVD",
      "lon": "-9.171463424115327",
      "lat": "39.07496235832134"
    }
  ]
}