{
  "data": {
    "distrito": "Braga",
    "concelho": "Braga",
    "freguesia": "Adaúfe",
    "OBJECTID": 523,
    "BGRI2021": "03030100201",
    "DT21": "03",
    "DTMN21": "0303",
    "DTMNFR21": "030301",
    "DTMNFRSEC21": "030301002",
    "SECNUM21": "002",
    "SSNUM21": "01",
    "SECSSNUM21": "00201",
    "OBJECTID_1": 23272,
    "DT": "03",
    "CC": "03",
    "fr": "01",
    "SEC": "002",
    "SS": "01"
  },
  "addresses": [
    {
      "id": "pt.ine.add.PTCONT.500853",
      "street": "R SANTA MARINHA",
      "house": "30",
      "postcode": "4710-091",
      "city": "ADAÚFE",
      "lon": "-8.403861679420087",
      "lat": "41.60305899703278"
    },
    {
      "id": "pt.ine.add.PTCONT.539786",
      "street": "R ESCADINHAS",
      "house": "17",
      "postcode": "4710-577",
      "city": "ADAÚFE",
      "lon": "-8.404350214589178",
      "lat": "41.602274525504654"
    },
    {
      "id": "pt.ine.add.PTCONT.557217",
      "street": "R S MARINHA",
      "house": "15",
      "postcode": "4710-091",
      "city": "ADAÚFE",
      "lon": "-8.404482201210898",
      "lat": "41.602283217714124"
    },
    {
      "id": "pt.ine.add.PTCONT.567134",
      "street": "R SANTA MARINHA",
      "house": "38",
      "postcode": "4710-091",
      "city": "ADAÚFE",
      "lon": "-8.403442475742853",
      "lat": "41.60321304602061"
    },
    {
      "id": "pt.ine.add.PTCONT.567135",
      "street": "R SANTA MARINHA",
      "house": "38",
      "postcode": "4710-091",
      "city": "ADAÚFE",
      "lon": "-8.403442475742853",
      "lat": "41.60321304602061"
    },
    {
      "id": "pt.ine.add.PTCONT.567136",
      "street": "R SANTA MARINHA",
      "house": "38",
      "postcode": "4710-091",
      "city": "ADAÚFE",
      "lon": "-8.403442475742853",
      "lat": "41.60321304602061"
    },
    {
      "id": "pt.ine.add.PTCONT.620797",
      "street": "R ESCADINHAS",
      "house": "19",
      "postcode": "4710-577",
      "city": "ADAÚFE",
      "lon": "-8.403389909897395",
      "lat": "41.60211472090429"
    },
    {
      "id": "pt.ine.add.PTCONT.639343",
      "street": "R SANTA MARINHA",
      "house": "18",
      "postcode": "4710-091",
      "city": "ADAÚFE",
      "lon": "-8.40460196607454",
      "lat": "41.60223791656331"
    },
    {
      "id": "pt.ine.add.PTCONT.737101",
      "street": "R ESCADINHAS",
      "house": "19",
      "postcode": "4710-577",
      "city": "ADAÚFE",
      "lon": "-8.403761990726201",
      "lat": "41.602167867640695"
    },
    {
      "id": "pt.ine.add.PTCONT.740001",
      "street": "R RIBEIRA",
      "house": "31",
      "postcode": "4710-577",
      "city": "ADAÚFE",
      "lon": "-8.403440145861888",
      "lat": "41.602654823494035"
    },
    {
      "id": "pt.ine.add.PTCONT.770015",
      "street": "R ESCADINHAS",
      "house": "9",
      "postcode": "4710-577",
      "city": "ADAÚFE",
      "lon": "-8.4041808477635",
      "lat": "41.601932785171456"
    }
  ]
}