{
  "data": {
    "distrito": "Porto",
    "concelho": "Vila Nova de Gaia",
    "freguesia": "Vilar de Andorinho",
    "OBJECTID": 1078,
    "BGRI2021": "13172301108",
    "DT21": "13",
    "DTMN21": "1317",
    "DTMNFR21": "131723",
    "DTMNFRSEC21": "131723011",
    "SECNUM21": "011",
    "SSNUM21": "08",
    "SECSSNUM21": "01108",
    "OBJECTID_1": 143476,
    "DT": "13",
    "CC": "17",
    "fr": "23",
    "SEC": "011",
    "SS": "08"
  },
  "addresses": [
    {
      "id": "pt.ine.add.PTCONT.3634345",
      "street": "R SALVADOR DA COSTA MONTEIRO",
      "house": "149",
      "postcode": "4430-519",
      "city": "VILA NOVA DE GAIA",
      "lon": "-8.577476349713974",
      "lat": "41.107899905847425"
    },
    {
      "id": "pt.ine.add.PTCONT.3647112",
      "street": "R ANTÓNIO FERNANDES DE CASTRO",
      "house": "130",
      "postcode": "4430-308",
      "city": "VILA NOVA DE GAIA",
      "lon": "-8.576428977306497",
      "lat": "41.107939958402376"
    },
    {
      "id": "pt.ine.add.PTCONT.3647113",
      "street": "R ANTÓNIO FERNANDES DE CASTRO",
      "house": "130",
      "postcode": "4430-308",
      "city": "VILA NOVA DE GAIA",
      "lon": "-8.576428977306497",
      "lat": "41.107939958402376"
    },
    {
      "id": "pt.ine.add.PTCONT.3665375",
      "street": "R SALVADOR DA COSTA MONTEIRO",
      "house": "7",
      "postcode": "4430-519",
      "city": "VILA NOVA DE GAIA",
      "lon": "-8.577473429513292",
      "lat": "41.109232572513086"
    },
    {
      "id": "pt.ine.add.PTCONT.3738367",
      "street": "R ANTÓNIO FERNANDES DE CASTRO",
      "house": "142",
      "postcode": "4430-308",
      "city": "VILA NOVA DE GAIA",
      "lon": "-8.577333311123658",
      "lat": "41.107873444153945"
    },
    {
      "id": "pt.ine.add.PTCONT.3806179",
      "street": "R ANTÓNIO FERNANDES DE CASTRO",
      "house": "168",
      "postcode": "4430-308",
      "city": "VILA NOVA DE GAIA",
      "lon": "-8.577237830780323",
      "lat": "41.10783779453453"
    },
    {
      "id": "pt.ine.add.PTCONT.3854022",
      "street": "R ANTONIO FERNANDES CASTRO",
      "house": "158",
      "postcode": "4430-308",
      "city": "VILA NOVA DE GAIA",
      "lon": "-8.577011156339568",
      "lat": "41.107766632662475"
    },
    {
      "id": "pt.ine.add.PTCONT.3854023",
      "street": "R ANTONIO FERNANDES DE CASTRO",
      "house": "164",
      "postcode": "4430-308",
      "city": "VILA NOVA DE GAIA",
      "lon": "-8.577011156339568",
      "lat": "41.107766632662475"
    },
    {
      "id": "pt.ine.add.PTCONT.4110870",
      "street": "R ANTÓNIO FERNANDES DE CASTRO",
      "house": "164",
      "postcode": "4430-308",
      "city": "VILA NOVA DE GAIA",
      "lon": "-8.57677269892836",
      "lat": "41.10771352457687"
    },
    {
      "id": "pt.ine.add.PTCONT.4110871",
      "street": "R ANTÓNIO FERNANDES DE CASTRO",
      "house": "164",
      "postcode": "4430-308",
      "city": "VILA NOVA DE GAIA",
      "lon": "-8.57677269892836",
      "lat": "41.10771352457687"
    },
    {
      "id": "pt.ine.add.PTCONT.4148345",
      "street": "R MARIZ",
      "house": "410",
      "postcode": "4430-276",
      "city": "VILA NOVA DE GAIA",
      "lon": "-8.576601641480359",
      "lat": "41.10883073235005"
    },
    {
      "id": "pt.ine.add.PTCONT.4148346",
      "street": "R MARIZ",
      "house": "410",
      "postcode": "4430-276",
      "city": "VILA NOVA DE GAIA",
      "lon": "-8.576601641480359",
      "lat": "41.10883073235005"
    },
    {
      "id": "pt.ine.add.PTCONT.4148347",
      "street": "R MARIZ",
      "house": "410",
      "postcode": "4430-276",
      "city": "VILA NOVA DE GAIA",
      "lon": "-8.576601641480359",
      "lat": "41.10883073235005"
    },
    {
      "id": "pt.ine.add.PTCONT.4148348",
      "street": "R MARIZ",
      "house": "410",
      "postcode": "4430-276",
      "city": "VILA NOVA DE GAIA",
      "lon": "-8.576601641480359",
      "lat": "41.10883073235005"
    },
    {
      "id": "pt.ine.add.PTCONT.4201092",
      "street": "R ANTÓNIO FERNANDES DE CASTRO",
      "house": "102",
      "postcode": "4430-308",
      "city": "VILA NOVA DE GAIA",
      "lon": "-8.57621348168277",
      "lat": "41.1077606987898"
    }
  ]
}