{
  "data": {
    "distrito": "Porto",
    "concelho": "Gondomar",
    "freguesia": "União das freguesias de Fânzeres e São Pedro da Cova",
    "OBJECTID": 738,
    "BGRI2021": "13041302004",
    "DT21": "13",
    "DTMN21": "1304",
    "DTMNFR21": "130413",
    "DTMNFRSEC21": "130413020",
    "SECNUM21": "020",
    "SSNUM21": "04",
    "SECSSNUM21": "02004",
    "OBJECTID_1": 129038,
    "DT": "13",
    "CC": "04",
    "fr": "13",
    "SEC": "020",
    "SS": "04"
  },
  "addresses": [
    {
      "id": "pt.ine.add.PTCONT.3685959",
      "street": "R OLAIAS",
      "house": "298",
      "postcode": "4510-759",
      "city": "SÃO PEDRO DA COVA",
      "lon": "-8.506946340451663",
      "lat": "41.163725479029196"
    },
    {
      "id": "pt.ine.add.PTCONT.3818304",
      "street": "R CASTANHAL",
      "house": "381",
      "postcode": "4510-344",
      "city": "SÃO PEDRO DA COVA",
      "lon": "-8.506686769149782",
      "lat": "41.16417653882745"
    },
    {
      "id": "pt.ine.add.PTCONT.3835970",
      "street": "R DO CASTANHAL",
      "house": "",
      "postcode": "4510-344",
      "city": "SÃO PEDRO DA COVA",
      "lon": "-8.506385675294384",
      "lat": "41.16361024073334"
    },
    {
      "id": "pt.ine.add.PTCONT.3907105",
      "street": "R DAS OLAIAS",
      "house": "51-55",
      "postcode": "4510-999",
      "city": "SÃO PEDRO DA COVA",
      "lon": "-8.506388137873465",
      "lat": "41.16194442713277"
    },
    {
      "id": "pt.ine.add.PTCONT.3992179",
      "street": "R OLAIAS",
      "house": "366",
      "postcode": "4510-759",
      "city": "SÃO PEDRO DA COVA",
      "lon": "-8.506970733196255",
      "lat": "41.16382444774268"
    },
    {
      "id": "pt.ine.add.PTCONT.4064420",
      "street": "R OLAIAS",
      "house": "51",
      "postcode": "4510-759",
      "city": "SÃO PEDRO DA COVA",
      "lon": "-8.50647189773104",
      "lat": "41.162007186156"
    },
    {
      "id": "pt.ine.add.PTCONT.4175414",
      "street": "R OLAIAS",
      "house": "250",
      "postcode": "4510-759",
      "city": "SÃO PEDRO DA COVA",
      "lon": "-8.50651213912405",
      "lat": "41.162799438974474"
    }
  ]
}