{
  "data": {
    "distrito": "Setúbal",
    "concelho": "Santiago do Cacém",
    "freguesia": "Santo André",
    "OBJECTID": 857,
    "BGRI2021": "15090700502",
    "DT21": "15",
    "DTMN21": "1509",
    "DTMNFR21": "150907",
    "DTMNFRSEC21": "150907005",
    "SECNUM21": "005",
    "SSNUM21": "02",
    "SECSSNUM21": "00502",
    "OBJECTID_1": 166544,
    "DT": "15",
    "CC": "09",
    "fr": "07",
    "SEC": "005",
    "SS": "02"
  },
  "addresses": [
    {
      "id": "pt.ine.add.PTCONT.4668263",
      "street": "ARNEIRO DA VINHA",
      "house": "",
      "postcode": "7500-018",
      "city": "VILA NOVA DE SANTO ANDRÉ",
      "lon": "-8.728075540034",
      "lat": "38.09524613772814"
    },
    {
      "id": "pt.ine.add.PTCONT.4687942",
      "street": "FORNO DA CAL",
      "house": "",
      "postcode": "7500-015",
      "city": "VILA NOVA DE SANTO ANDRÉ",
      "lon": "-8.722803049600834",
      "lat": "38.09169612783923"
    },
    {
      "id": "pt.ine.add.PTCONT.4701068",
      "street": "FIGUEIRINHA",
      "house": "2807",
      "postcode": "7500-015",
      "city": "VILA NOVA DE SANTO ANDRÉ",
      "lon": "-8.726289797249148",
      "lat": "38.09433624441603"
    },
    {
      "id": "pt.ine.add.PTCONT.4704366",
      "street": "",
      "house": "",
      "postcode": "7500-015",
      "city": "VILA NOVA DE SANTO ANDRÉ",
      "lon": "-8.72611822512166",
      "lat": "38.09426503811455"
    },
    {
      "id": "pt.ine.add.PTCONT.4791413",
      "street": "QTA VARZEA GRANDE CX POSTAL N",
      "house": "1307",
      "postcode": "7500-018",
      "city": "VILA NOVA DE SANTO ANDRÉ",
      "lon": "-8.723481650543059",
      "lat": "38.09386389844638"
    },
    {
      "id": "pt.ine.add.PTCONT.4966054",
      "street": "ARNEIRO DA VINHA",
      "house": "",
      "postcode": "7500-018",
      "city": "VILA NOVA DE SANTO ANDRÉ",
      "lon": "-8.728187781414388",
      "lat": "38.09502935261405"
    },
    {
      "id": "pt.ine.add.PTCONT.4977017",
      "street": "",
      "house": "",
      "postcode": "7500-015",
      "city": "VILA NOVA DE SANTO ANDRÉ",
      "lon": "-8.727037387383687",
      "lat": "38.09515229018512"
    },
    {
      "id": "pt.ine.add.PTCONT.4981215",
      "street": "QTA VARZEA GRANDE",
      "house": "1307",
      "postcode": "7500-015",
      "city": "VILA NOVA DE SANTO ANDRÉ",
      "lon": "-8.723399971878898",
      "lat": "38.09363007385202"
    },
    {
      "id": "pt.ine.add.PTCONT.5024567",
      "street": "",
      "house": "",
      "postcode": "7500-015",
      "city": "VILA NOVA DE SANTO ANDRÉ",
      "lon": "-8.725873431149573",
      "lat": "38.09218518604179"
    },
    {
      "id": "pt.ine.add.PTCONT.5076939",
      "street": "",
      "house": "",
      "postcode": "7500-015",
      "city": "VILA NOVA DE SANTO ANDRÉ",
      "lon": "-8.725777482635985",
      "lat": "38.094419910757345"
    },
    {
      "id": "pt.ine.add.PTCONT.5095932",
      "street": "",
      "house": "",
      "postcode": "7500-015",
      "city": "VILA NOVA DE SANTO ANDRÉ",
      "lon": "-8.725871806117292",
      "lat": "38.094806823418246"
    }
  ]
}