{
  "data": {
    "distrito": "Setúbal",
    "concelho": "Santiago do Cacém",
    "freguesia": "Santo André",
    "OBJECTID": 817,
    "BGRI2021": "15090700504",
    "DT21": "15",
    "DTMN21": "1509",
    "DTMNFR21": "150907",
    "DTMNFRSEC21": "150907005",
    "SECNUM21": "005",
    "SSNUM21": "04",
    "SECSSNUM21": "00504",
    "OBJECTID_1": 166659,
    "DT": "15",
    "CC": "09",
    "fr": "07",
    "SEC": "005",
    "SS": "04"
  },
  "addresses": [
    {
      "id": "pt.ine.add.PTCONT.4742560",
      "street": "RIBEIRA DA PONTE",
      "house": "4",
      "postcode": "7500-018",
      "city": "VILA NOVA DE SANTO ANDRÉ",
      "lon": "-8.757062166109394",
      "lat": "38.084122800231555"
    },
    {
      "id": "pt.ine.add.PTCONT.4774037",
      "street": "MTE ARROUCADA",
      "house": "",
      "postcode": "7500-014",
      "city": "VILA NOVA DE SANTO ANDRÉ",
      "lon": "-8.762369953762912",
      "lat": "38.0850134205527"
    },
    {
      "id": "pt.ine.add.PTCONT.4826841",
      "street": "",
      "house": "",
      "postcode": "7500-014",
      "city": "VILA NOVA DE SANTO ANDRÉ",
      "lon": "-8.758141186307634",
      "lat": "38.08367562351924"
    },
    {
      "id": "pt.ine.add.PTCONT.4853102",
      "street": "SEM DESIGNACAO",
      "house": "82",
      "postcode": "7500-014",
      "city": "VILA NOVA DE SANTO ANDRÉ",
      "lon": "-8.761971594382574",
      "lat": "38.086411952933624"
    },
    {
      "id": "pt.ine.add.PTCONT.4921342",
      "street": "ESTEVAL C P",
      "house": "C P 1486",
      "postcode": "7500-018",
      "city": "VILA NOVA DE SANTO ANDRÉ",
      "lon": "-8.757586688663013",
      "lat": "38.08414704126156"
    },
    {
      "id": "pt.ine.add.PTCONT.4946315",
      "street": "MTE DO OUTAO LADO DO ROSAL",
      "house": "",
      "postcode": "7500-014",
      "city": "VILA NOVA DE SANTO ANDRÉ",
      "lon": "-8.765038817838661",
      "lat": "38.08123332290517"
    },
    {
      "id": "pt.ine.add.PTCONT.4969626",
      "street": "",
      "house": "",
      "postcode": "7500-018",
      "city": "VILA NOVA DE SANTO ANDRÉ",
      "lon": "-8.756920043590567",
      "lat": "38.08483526859065"
    },
    {
      "id": "pt.ine.add.PTCONT.4973195",
      "street": "",
      "house": "",
      "postcode": "7500-018",
      "city": "VILA NOVA DE SANTO ANDRÉ",
      "lon": "-8.758237199589653",
      "lat": "38.084242682119935"
    },
    {
      "id": "pt.ine.add.PTCONT.5031562",
      "street": "",
      "house": "",
      "postcode": "7500-018",
      "city": "VILA NOVA DE SANTO ANDRÉ",
      "lon": "-8.756985903928161",
      "lat": "38.08453762078745"
    }
  ]
}