{
  "data": {
    "distrito": "Setúbal",
    "concelho": "Seixal",
    "freguesia": "Corroios",
    "OBJECTID": 1053,
    "BGRI2021": "15100502924",
    "DT21": "15",
    "DTMN21": "1510",
    "DTMNFR21": "151005",
    "DTMNFRSEC21": "151005029",
    "SECNUM21": "029",
    "SSNUM21": "24",
    "SECSSNUM21": "02924",
    "OBJECTID_1": 168391,
    "DT": "15",
    "CC": "10",
    "fr": "05",
    "SEC": "029",
    "SS": "24"
  },
  "addresses": [
    {
      "id": "pt.ine.add.PTCONT.4710396",
      "street": "AV FÁBRICA DA PÓLVORA",
      "house": "28",
      "postcode": "2855-383",
      "city": "CORROIOS",
      "lon": "-9.158032313115989",
      "lat": "38.630876965002194"
    },
    {
      "id": "pt.ine.add.PTCONT.4713000",
      "street": "AV LIBERDADE",
      "house": "3",
      "postcode": "2855-385",
      "city": "CORROIOS",
      "lon": "-9.158276140518295",
      "lat": "38.631063996655094"
    },
    {
      "id": "pt.ine.add.PTCONT.4720434",
      "street": "AV LIBERDADE",
      "house": "7",
      "postcode": "2855-385",
      "city": "CORROIOS",
      "lon": "-9.158699199311046",
      "lat": "38.63093417663402"
    },
    {
      "id": "pt.ine.add.PTCONT.4805623",
      "street": "AV LIBERDADE",
      "house": "5",
      "postcode": "2855-385",
      "city": "CORROIOS",
      "lon": "-9.15855069592599",
      "lat": "38.630989526410396"
    },
    {
      "id": "pt.ine.add.PTCONT.4807754",
      "street": "R EÇA DE QUEIROZ",
      "house": "6",
      "postcode": "2855-439",
      "city": "CORROIOS",
      "lon": "-9.15840918457217",
      "lat": "38.63072953465529"
    },
    {
      "id": "pt.ine.add.PTCONT.4892843",
      "street": "R EÇA DE QUEIROZ",
      "house": "4",
      "postcode": "2855-439",
      "city": "CORROIOS",
      "lon": "-9.158237459757972",
      "lat": "38.63076707154198"
    },
    {
      "id": "pt.ine.add.PTCONT.4945285",
      "street": "R CASTILHO",
      "house": "18",
      "postcode": "2855-422",
      "city": "CORROIOS",
      "lon": "-9.15860348928829",
      "lat": "38.63066477558442"
    },
    {
      "id": "pt.ine.add.PTCONT.4959905",
      "street": "R CASTILHO",
      "house": "16",
      "postcode": "2855-422",
      "city": "CORROIOS",
      "lon": "-9.158674309280858",
      "lat": "38.630799274804914"
    },
    {
      "id": "pt.ine.add.PTCONT.5025663",
      "street": "AV LIBERDADE",
      "house": "1",
      "postcode": "2855-385",
      "city": "CORROIOS",
      "lon": "-9.158184664675732",
      "lat": "38.63109182222094"
    },
    {
      "id": "pt.ine.add.PTCONT.5087133",
      "street": "AV LIBERDADE",
      "house": "3 A",
      "postcode": "2855-385",
      "city": "CORROIOS",
      "lon": "-9.158390196561665",
      "lat": "38.63100894912439"
    }
  ]
}