{
  "data": {
    "distrito": "Faro",
    "concelho": "Vila do Bispo",
    "freguesia": "Vila do Bispo e Raposeira",
    "OBJECTID": 103,
    "BGRI2021": "08150600162",
    "DT21": "08",
    "DTMN21": "0815",
    "DTMNFR21": "081506",
    "DTMNFRSEC21": "081506001",
    "SECNUM21": "001",
    "SSNUM21": "62",
    "SECSSNUM21": "00162",
    "OBJECTID_1": 74347,
    "DT": "08",
    "CC": "15",
    "fr": "06",
    "SEC": "001",
    "SS": "62"
  },
  "addresses": [
    {
      "id": "pt.ine.add.PTCONT.1506581",
      "street": "",
      "house": "",
      "postcode": "8650-281",
      "city": "RAPOSEIRA",
      "lon": "-8.886346350397247",
      "lat": "37.08363643236982"
    },
    {
      "id": "pt.ine.add.PTCONT.1570574",
      "street": "",
      "house": "",
      "postcode": "8650-279",
      "city": "RAPOSEIRA",
      "lon": "-8.885453896057815",
      "lat": "37.08437194635967"
    },
    {
      "id": "pt.ine.add.PTCONT.1676535",
      "street": "R POCINHO",
      "house": "",
      "postcode": "8650-296",
      "city": "RAPOSEIRA",
      "lon": "-8.887155515116966",
      "lat": "37.083577227421785"
    },
    {
      "id": "pt.ine.add.PTCONT.1695809",
      "street": "",
      "house": "",
      "postcode": "8650-279",
      "city": "RAPOSEIRA",
      "lon": "-8.886101348280631",
      "lat": "37.0838812712298"
    },
    {
      "id": "pt.ine.add.PTCONT.1700539",
      "street": "RAPOSEIRA",
      "house": "",
      "postcode": "8650-999",
      "city": "VILA DO BISPO",
      "lon": "-8.88562922315282",
      "lat": "37.08276696806669"
    },
    {
      "id": "pt.ine.add.PTCONT.1714470",
      "street": "SIT POCINHO",
      "house": "",
      "postcode": "8650-279",
      "city": "RAPOSEIRA",
      "lon": "-8.886003076111345",
      "lat": "37.08417924104671"
    },
    {
      "id": "pt.ine.add.PTCONT.1743646",
      "street": "SIT COVA DA MULHER",
      "house": "",
      "postcode": "8650-279",
      "city": "RAPOSEIRA",
      "lon": "-8.883798380585665",
      "lat": "37.08528348537437"
    }
  ]
}