{
  "data": {
    "distrito": "Lisboa",
    "concelho": "Odivelas",
    "freguesia": "União das freguesias de Pontinha e Famões",
    "OBJECTID": 654,
    "BGRI2021": "11160802523",
    "DT21": "11",
    "DTMN21": "1116",
    "DTMNFR21": "111608",
    "DTMNFRSEC21": "111608025",
    "SECNUM21": "025",
    "SSNUM21": "23",
    "SECSSNUM21": "02523",
    "OBJECTID_1": 120015,
    "DT": "11",
    "CC": "16",
    "fr": "08",
    "SEC": "025",
    "SS": "23"
  },
  "addresses": [
    {
      "id": "pt.ine.add.PTCONT.2301609",
      "street": "R ALEGRETE",
      "house": "",
      "postcode": "1685-831",
      "city": "FAMÕES",
      "lon": "-9.219301805305408",
      "lat": "38.79968049545283"
    },
    {
      "id": "pt.ine.add.PTCONT.2324630",
      "street": "R FIGUEIRA",
      "house": "",
      "postcode": "1685-852",
      "city": "FAMÕES",
      "lon": "-9.21946717580331",
      "lat": "38.799958196970756"
    },
    {
      "id": "pt.ine.add.PTCONT.2429497",
      "street": "R ALEGRETE",
      "house": "",
      "postcode": "1685-831",
      "city": "FAMÕES",
      "lon": "-9.21907970975016",
      "lat": "38.799457367211986"
    },
    {
      "id": "pt.ine.add.PTCONT.2809451",
      "street": "R MIRATEJO",
      "house": "",
      "postcode": "1685-220",
      "city": "FAMÕES",
      "lon": "-9.219094799420425",
      "lat": "38.798934779660996"
    },
    {
      "id": "pt.ine.add.PTCONT.3033327",
      "street": "TV PERO ESCOBAR",
      "house": "106",
      "postcode": "1685-858",
      "city": "FAMÕES",
      "lon": "-9.219400876928463",
      "lat": "38.7993823198992"
    },
    {
      "id": "pt.ine.add.PTCONT.3033328",
      "street": "TV PERO ESCOBAR",
      "house": "106",
      "postcode": "1685-858",
      "city": "FAMÕES",
      "lon": "-9.219400876928463",
      "lat": "38.7993823198992"
    },
    {
      "id": "pt.ine.add.PTCONT.3033329",
      "street": "TV PERO ESCOBAR",
      "house": "106",
      "postcode": "1685-858",
      "city": "FAMÕES",
      "lon": "-9.219400876928463",
      "lat": "38.7993823198992"
    },
    {
      "id": "pt.ine.add.PTCONT.3033330",
      "street": "TV PERO ESCOBAR",
      "house": "106",
      "postcode": "1685-858",
      "city": "FAMÕES",
      "lon": "-9.219400876928463",
      "lat": "38.7993823198992"
    },
    {
      "id": "pt.ine.add.PTCONT.3033331",
      "street": "TV PERO ESCOBAR",
      "house": "106",
      "postcode": "1685-858",
      "city": "FAMÕES",
      "lon": "-9.219400876928463",
      "lat": "38.7993823198992"
    },
    {
      "id": "pt.ine.add.PTCONT.3033334",
      "street": "TV PERO ESCOBAR",
      "house": "106",
      "postcode": "1685-858",
      "city": "FAMÕES",
      "lon": "-9.219400876928463",
      "lat": "38.7993823198992"
    },
    {
      "id": "pt.ine.add.PTCONT.3033335",
      "street": "TV PERO ESCOBAR",
      "house": "106",
      "postcode": "1685-858",
      "city": "FAMÕES",
      "lon": "-9.219400876928463",
      "lat": "38.7993823198992"
    },
    {
      "id": "pt.ine.add.PTCONT.3034232",
      "street": "TV PERO ESCOBAR",
      "house": "106",
      "postcode": "1685-858",
      "city": "FAMÕES",
      "lon": "-9.219400876928463",
      "lat": "38.7993823198992"
    },
    {
      "id": "pt.ine.add.PTCONT.3080327",
      "street": "R PADRE CRUZ",
      "house": "",
      "postcode": "1685-845",
      "city": "FAMÕES",
      "lon": "-9.219559408780784",
      "lat": "38.79920969931812"
    },
    {
      "id": "pt.ine.add.PTCONT.3163967",
      "street": "R PADRE CRUZ",
      "house": "",
      "postcode": "1685-845",
      "city": "FAMÕES",
      "lon": "-9.219305657547876",
      "lat": "38.799176027795795"
    }
  ]
}