{
  "data": {
    "distrito": "Santarém",
    "concelho": "Rio Maior",
    "freguesia": "União das freguesias de São João da Ribeira e Ribeira de São João",
    "OBJECTID": 130,
    "BGRI2021": "14141800112",
    "DT21": "14",
    "DTMN21": "1414",
    "DTMNFR21": "141418",
    "DTMNFRSEC21": "141418001",
    "SECNUM21": "001",
    "SSNUM21": "12",
    "SECSSNUM21": "00112",
    "OBJECTID_1": 153120,
    "DT": "14",
    "CC": "14",
    "fr": "18",
    "SEC": "001",
    "SS": "12"
  },
  "addresses": [
    {
      "id": "pt.ine.add.PTCONT.4476408",
      "street": "R FAUSTINO",
      "house": "",
      "postcode": "2040-452",
      "city": "SÃO JOÃO DA RIBEIRA",
      "lon": "-8.862762072585642",
      "lat": "39.28083226967053"
    },
    {
      "id": "pt.ine.add.PTCONT.4484217",
      "street": "R 25 ABRIL",
      "house": "65",
      "postcode": "2040-452",
      "city": "SÃO JOÃO DA RIBEIRA",
      "lon": "-8.86234488315305",
      "lat": "39.279717993929445"
    },
    {
      "id": "pt.ine.add.PTCONT.4500641",
      "street": "R COMBATENTES ULTRAMAR",
      "house": "3",
      "postcode": "2040-452",
      "city": "SÃO JOÃO DA RIBEIRA",
      "lon": "-8.862869082306126",
      "lat": "39.28220969602033"
    },
    {
      "id": "pt.ine.add.PTCONT.4500642",
      "street": "R COMBATENTES ULTRAMAR",
      "house": "3",
      "postcode": "2040-452",
      "city": "SÃO JOÃO DA RIBEIRA",
      "lon": "-8.862860016795075",
      "lat": "39.2813360574064"
    },
    {
      "id": "pt.ine.add.PTCONT.4503304",
      "street": "R IGREJA",
      "house": "6A",
      "postcode": "2040-452",
      "city": "SÃO JOÃO DA RIBEIRA",
      "lon": "-8.862022814008027",
      "lat": "39.28107108633821"
    },
    {
      "id": "pt.ine.add.PTCONT.4520228",
      "street": "R IGREJA",
      "house": "2",
      "postcode": "2040-452",
      "city": "SÃO JOÃO DA RIBEIRA",
      "lon": "-8.86172320124662",
      "lat": "39.28011820138385"
    },
    {
      "id": "pt.ine.add.PTCONT.4524132",
      "street": "R IGREJA",
      "house": "6",
      "postcode": "2040-452",
      "city": "SÃO JOÃO DA RIBEIRA",
      "lon": "-8.861550303268645",
      "lat": "39.28020935489751"
    },
    {
      "id": "pt.ine.add.PTCONT.4526468",
      "street": "R CABECA GORDA",
      "house": "",
      "postcode": "2040-452",
      "city": "SÃO JOÃO DA RIBEIRA",
      "lon": "-8.862881605823045",
      "lat": "39.28118280020505"
    },
    {
      "id": "pt.ine.add.PTCONT.4534801",
      "street": "R JOAQUIM FRANCISCO PAULA",
      "house": "",
      "postcode": "2040-452",
      "city": "SÃO JOÃO DA RIBEIRA",
      "lon": "-8.863479467517687",
      "lat": "39.28183657491994"
    },
    {
      "id": "pt.ine.add.PTCONT.4543340",
      "street": "R JOAQUIM FRANCISCO PAULA",
      "house": "3",
      "postcode": "2040-452",
      "city": "SÃO JOÃO DA RIBEIRA",
      "lon": "-8.863501429491254",
      "lat": "39.28171934395801"
    },
    {
      "id": "pt.ine.add.PTCONT.4543341",
      "street": "R JOAQUIM FRANCISCO PAULA",
      "house": "1",
      "postcode": "2040-452",
      "city": "SÃO JOÃO DA RIBEIRA",
      "lon": "-8.863381705173131",
      "lat": "39.2813508009631"
    },
    {
      "id": "pt.ine.add.PTCONT.4558004",
      "street": "TV FAUSTINO",
      "house": "4",
      "postcode": "2040-452",
      "city": "SÃO JOÃO DA RIBEIRA",
      "lon": "-8.862388894925965",
      "lat": "39.28060942831313"
    },
    {
      "id": "pt.ine.add.PTCONT.4570581",
      "street": "R 25 ABRIL",
      "house": "63",
      "postcode": "2040-452",
      "city": "SÃO JOÃO DA RIBEIRA",
      "lon": "-8.862182081803553",
      "lat": "39.27966497038311"
    },
    {
      "id": "pt.ine.add.PTCONT.4580892",
      "street": "R IGREJA",
      "house": "",
      "postcode": "2040-452",
      "city": "SÃO JOÃO DA RIBEIRA",
      "lon": "-8.862360198938712",
      "lat": "39.281195074151185"
    },
    {
      "id": "pt.ine.add.PTCONT.4604298",
      "street": "CSL PINHEIRO MANSO",
      "house": "",
      "postcode": "2040-460",
      "city": "SÃO JOÃO DA RIBEIRA",
      "lon": "-8.861658707086189",
      "lat": "39.28060499223141"
    },
    {
      "id": "pt.ine.add.PTCONT.4614184",
      "street": "R IGREJA",
      "house": "8",
      "postcode": "2040-452",
      "city": "SÃO JOÃO DA RIBEIRA",
      "lon": "-8.862185245033714",
      "lat": "39.281088083720896"
    },
    {
      "id": "pt.ine.add.PTCONT.4624661",
      "street": "R IGREJA",
      "house": "4",
      "postcode": "2040-452",
      "city": "SÃO JOÃO DA RIBEIRA",
      "lon": "-8.861561238998691",
      "lat": "39.280146236275804"
    },
    {
      "id": "pt.ine.add.PTCONT.4624670",
      "street": "R COMBATENTES DO ULTRAMAR",
      "house": "1",
      "postcode": "2040-452",
      "city": "SÃO JOÃO DA RIBEIRA",
      "lon": "-8.862965624355393",
      "lat": "39.28034460669117"
    },
    {
      "id": "pt.ine.add.PTCONT.4656478",
      "street": "TV FAUSTINO",
      "house": "2",
      "postcode": "2040-452",
      "city": "SÃO JOÃO DA RIBEIRA",
      "lon": "-8.862047778785747",
      "lat": "39.28012517704259"
    },
    {
      "id": "pt.ine.add.PTCONT.4661735",
      "street": "R 1 MAIO",
      "house": "32",
      "postcode": "2040-452",
      "city": "SÃO JOÃO DA RIBEIRA",
      "lon": "-8.86267468443885",
      "lat": "39.28246311496509"
    }
  ]
}