{
  "data": {
    "distrito": "Santarém",
    "concelho": "Rio Maior",
    "freguesia": "União das freguesias de São João da Ribeira e Ribeira de São João",
    "OBJECTID": 468,
    "BGRI2021": "14141800136",
    "DT21": "14",
    "DTMN21": "1414",
    "DTMNFR21": "141418",
    "DTMNFRSEC21": "141418001",
    "SECNUM21": "001",
    "SSNUM21": "36",
    "SECSSNUM21": "00136",
    "OBJECTID_1": 153053,
    "DT": "14",
    "CC": "14",
    "fr": "18",
    "SEC": "001",
    "SS": "36"
  },
  "addresses": [
    {
      "id": "pt.ine.add.PTCONT.4394628",
      "street": "R QUINTA PINHEIRO VELHO",
      "house": "",
      "postcode": "2040-460",
      "city": "SÃO JOÃO DA RIBEIRA",
      "lon": "-8.86774063447431",
      "lat": "39.29588795368176"
    },
    {
      "id": "pt.ine.add.PTCONT.4402853",
      "street": "R JOSE DA COSTA",
      "house": "3",
      "postcode": "2040-460",
      "city": "SÃO JOÃO DA RIBEIRA",
      "lon": "-8.869203317933762",
      "lat": "39.29719375813435"
    },
    {
      "id": "pt.ine.add.PTCONT.4454272",
      "street": "ESTR VALE BARCO",
      "house": "",
      "postcode": "2040-462",
      "city": "SÃO JOÃO DA RIBEIRA",
      "lon": "-8.868234362606255",
      "lat": "39.29321872151764"
    },
    {
      "id": "pt.ine.add.PTCONT.4466433",
      "street": "R GUERRA DENTE VALE ROSA",
      "house": "",
      "postcode": "2040-452",
      "city": "SÃO JOÃO DA RIBEIRA",
      "lon": "-8.866850349130488",
      "lat": "39.29277709449231"
    },
    {
      "id": "pt.ine.add.PTCONT.4518886",
      "street": "R 25 DE ABRIL",
      "house": "",
      "postcode": "2040-460",
      "city": "SÃO JOÃO DA RIBEIRA",
      "lon": "-8.86665772275837",
      "lat": "39.29320164437745"
    },
    {
      "id": "pt.ine.add.PTCONT.4557944",
      "street": "R 25 ABRIL VALE ROSA",
      "house": "",
      "postcode": "2040-460",
      "city": "SÃO JOÃO DA RIBEIRA",
      "lon": "-8.866560579246755",
      "lat": "39.292778920303434"
    },
    {
      "id": "pt.ine.add.PTCONT.4557945",
      "street": "R QUEBRA DENTE",
      "house": "S N",
      "postcode": "2040-460",
      "city": "SÃO JOÃO DA RIBEIRA",
      "lon": "-8.865993850852583",
      "lat": "39.29289958208396"
    },
    {
      "id": "pt.ine.add.PTCONT.4585070",
      "street": "R QUEBRA FONTE",
      "house": "",
      "postcode": "2040-460",
      "city": "SÃO JOÃO DA RIBEIRA",
      "lon": "-8.865172606566937",
      "lat": "39.29084211070116"
    },
    {
      "id": "pt.ine.add.PTCONT.4596740",
      "street": "ESTR VALE DA ROSA",
      "house": "",
      "postcode": "2040-512",
      "city": "RIBEIRA DE SÃO JOÃO",
      "lon": "-8.868655876233452",
      "lat": "39.29583713924629"
    },
    {
      "id": "pt.ine.add.PTCONT.4597985",
      "street": "ESTR VALE DA ROSA",
      "house": "",
      "postcode": "2040-512",
      "city": "RIBEIRA DE SÃO JOÃO",
      "lon": "-8.868655876233452",
      "lat": "39.29583713924629"
    },
    {
      "id": "pt.ine.add.PTCONT.4642296",
      "street": "QTA PINHEIRO",
      "house": "",
      "postcode": "2040-460",
      "city": "SÃO JOÃO DA RIBEIRA",
      "lon": "-8.866519097941591",
      "lat": "39.29658019816551"
    },
    {
      "id": "pt.ine.add.PTCONT.4661495",
      "street": "R QUINTA PINHEIRO VELHO",
      "house": "",
      "postcode": "2040-460",
      "city": "SÃO JOÃO DA RIBEIRA",
      "lon": "-8.866349583565741",
      "lat": "39.29588771565606"
    }
  ]
}