{
  "data": {
    "distrito": "Guarda",
    "concelho": "Seia",
    "freguesia": "Santiago",
    "OBJECTID": 445,
    "BGRI2021": "09121600120",
    "DT21": "09",
    "DTMN21": "0912",
    "DTMNFR21": "091216",
    "DTMNFRSEC21": "091216001",
    "SECNUM21": "001",
    "SSNUM21": "20",
    "SECSSNUM21": "00120",
    "OBJECTID_1": 81662,
    "DT": "09",
    "CC": "12",
    "fr": "16",
    "SEC": "001",
    "SS": "20"
  },
  "addresses": [
    {
      "id": "pt.ine.add.PTCONT.1904286",
      "street": "AV GEN LOPES DA SILVA",
      "house": "",
      "postcode": "6270-213",
      "city": "SANTIAGO SEI",
      "lon": "-7.729565854473893",
      "lat": "40.42205149312854"
    },
    {
      "id": "pt.ine.add.PTCONT.1921397",
      "street": "R DA FONTE MOURINHA",
      "house": "",
      "postcode": "6270-213",
      "city": "SANTIAGO SEI",
      "lon": "-7.728742229624129",
      "lat": "40.42185049436751"
    },
    {
      "id": "pt.ine.add.PTCONT.1955496",
      "street": "AV GEN LOPES SILVA",
      "house": "39",
      "postcode": "6270-213",
      "city": "SANTIAGO SEI",
      "lon": "-7.730862308335116",
      "lat": "40.42200197789978"
    },
    {
      "id": "pt.ine.add.PTCONT.1958400",
      "street": "AV GEN LOPES DA SILVA",
      "house": "33",
      "postcode": "6270-213",
      "city": "SANTIAGO SEI",
      "lon": "-7.728680132828018",
      "lat": "40.422381601907865"
    },
    {
      "id": "pt.ine.add.PTCONT.1971259",
      "street": "R DA FONTE MOURINHA",
      "house": "2",
      "postcode": "6270-213",
      "city": "SANTIAGO SEI",
      "lon": "-7.729650487629035",
      "lat": "40.4216915683126"
    },
    {
      "id": "pt.ine.add.PTCONT.1850621",
      "street": "R FONTE MOURINHA",
      "house": "",
      "postcode": "6270-213",
      "city": "SANTIAGO SEI",
      "lon": "-7.7289215075292805",
      "lat": "40.4214278625196"
    }
  ]
}