{
  "data": {
    "distrito": "Braga",
    "concelho": "Guimarães",
    "freguesia": "União das freguesias de Leitões, Oleiros e Figueiredo",
    "OBJECTID": 1051,
    "BGRI2021": "03088300118",
    "DT21": "03",
    "DTMN21": "0308",
    "DTMNFR21": "030883",
    "DTMNFRSEC21": "030883001",
    "SECNUM21": "001",
    "SSNUM21": "18",
    "SECSSNUM21": "00118",
    "OBJECTID_1": 27672,
    "DT": "03",
    "CC": "08",
    "fr": "83",
    "SEC": "001",
    "SS": "18"
  },
  "addresses": [
    {
      "id": "pt.ine.add.PTCONT.493648",
      "street": "TV ANTA",
      "house": "",
      "postcode": "4805-602",
      "city": "FIGUEIREDO GMR",
      "lon": "-8.38762824269676",
      "lat": "41.467706169674"
    },
    {
      "id": "pt.ine.add.PTCONT.496105",
      "street": "R ANTA",
      "house": "17",
      "postcode": "4805-602",
      "city": "FIGUEIREDO GMR",
      "lon": "-8.386551898168902",
      "lat": "41.47103998485978"
    },
    {
      "id": "pt.ine.add.PTCONT.507456",
      "street": "R OUTEIRO",
      "house": "",
      "postcode": "4805-186",
      "city": "FIGUEIREDO GMR",
      "lon": "-8.386645255765067",
      "lat": "41.46734818477886"
    },
    {
      "id": "pt.ine.add.PTCONT.535951",
      "street": "R ANTA",
      "house": "375",
      "postcode": "4805-602",
      "city": "FIGUEIREDO GMR",
      "lon": "-8.387890445739673",
      "lat": "41.470469783061624"
    },
    {
      "id": "pt.ine.add.PTCONT.602145",
      "street": "R ANTA",
      "house": "391",
      "postcode": "4805-602",
      "city": "FIGUEIREDO GMR",
      "lon": "-8.387746053344944",
      "lat": "41.47028102116535"
    },
    {
      "id": "pt.ine.add.PTCONT.603154",
      "street": "R ANTA",
      "house": "391",
      "postcode": "4805-602",
      "city": "FIGUEIREDO GMR",
      "lon": "-8.387746053344944",
      "lat": "41.47028102116535"
    },
    {
      "id": "pt.ine.add.PTCONT.609389",
      "street": "R OUTEIRO",
      "house": "749",
      "postcode": "4805-186",
      "city": "FIGUEIREDO GMR",
      "lon": "-8.387231562634776",
      "lat": "41.46728386379409"
    },
    {
      "id": "pt.ine.add.PTCONT.638463",
      "street": "R OUTEIRO",
      "house": "101",
      "postcode": "4805-186",
      "city": "FIGUEIREDO GMR",
      "lon": "-8.388786802201405",
      "lat": "41.46704631634555"
    },
    {
      "id": "pt.ine.add.PTCONT.664781",
      "street": "TV ANTA",
      "house": "93",
      "postcode": "4805-602",
      "city": "FIGUEIREDO GMR",
      "lon": "-8.388070976078787",
      "lat": "41.46766016977614"
    },
    {
      "id": "pt.ine.add.PTCONT.682502",
      "street": "R ANTA C ANTA",
      "house": "C ANTA",
      "postcode": "4805-602",
      "city": "FIGUEIREDO GMR",
      "lon": "-8.38795532556121",
      "lat": "41.468695873417204"
    },
    {
      "id": "pt.ine.add.PTCONT.702200",
      "street": "R S PAIO",
      "house": "2687",
      "postcode": "4805-184",
      "city": "FIGUEIREDO GMR",
      "lon": "-8.38631265037279",
      "lat": "41.47108553116789"
    },
    {
      "id": "pt.ine.add.PTCONT.712324",
      "street": "R OUTEIRO",
      "house": "3",
      "postcode": "4805-186",
      "city": "FIGUEIREDO GMR",
      "lon": "-8.388729708599602",
      "lat": "41.467748746752264"
    },
    {
      "id": "pt.ine.add.PTCONT.724515",
      "street": "R OUTEIRO",
      "house": "21",
      "postcode": "4805-186",
      "city": "FIGUEIREDO GMR",
      "lon": "-8.38871710151275",
      "lat": "41.467586704731026"
    },
    {
      "id": "pt.ine.add.PTCONT.785971",
      "street": "TV BOUCA",
      "house": "",
      "postcode": "4805-186",
      "city": "FIGUEIREDO GMR",
      "lon": "-8.38589786175378",
      "lat": "41.46582498258067"
    },
    {
      "id": "pt.ine.add.PTCONT.837051",
      "street": "R OUTEIRO",
      "house": "719",
      "postcode": "4805-186",
      "city": "FIGUEIREDO GMR",
      "lon": "-8.387325673276102",
      "lat": "41.46686047293081"
    }
  ]
}