{
  "data": {
    "distrito": "Lisboa",
    "concelho": "Torres Vedras",
    "freguesia": "União das freguesias de Campelos e Outeiro da Cabeça",
    "OBJECTID": 1414,
    "BGRI2021": "11132200122",
    "DT21": "11",
    "DTMN21": "1113",
    "DTMNFR21": "111322",
    "DTMNFRSEC21": "111322001",
    "SECNUM21": "001",
    "SSNUM21": "22",
    "SECSSNUM21": "00122",
    "OBJECTID_1": 116288,
    "DT": "11",
    "CC": "13",
    "fr": "22",
    "SEC": "001",
    "SS": "22"
  },
  "addresses": [
    {
      "id": "pt.ine.add.PTCONT.2527850",
      "street": "R ESPERANÇA",
      "house": "",
      "postcode": "2565-599",
      "city": "OUTEIRO DA CABEÇA",
      "lon": "-9.176163423226912",
      "lat": "39.1907625204844"
    },
    {
      "id": "pt.ine.add.PTCONT.2601609",
      "street": "TV ESTAÇÃO",
      "house": "3",
      "postcode": "2565-599",
      "city": "OUTEIRO DA CABEÇA",
      "lon": "-9.176178979859674",
      "lat": "39.19024897346124"
    },
    {
      "id": "pt.ine.add.PTCONT.2783896",
      "street": "R ESPERANÇA",
      "house": "22",
      "postcode": "2565-599",
      "city": "OUTEIRO DA CABEÇA",
      "lon": "-9.176067500941453",
      "lat": "39.189754578003"
    },
    {
      "id": "pt.ine.add.PTCONT.2783897",
      "street": "R ESPERANÇA",
      "house": "22",
      "postcode": "2565-599",
      "city": "OUTEIRO DA CABEÇA",
      "lon": "-9.176067500941453",
      "lat": "39.189754578003"
    },
    {
      "id": "pt.ine.add.PTCONT.2977411",
      "street": "R ESPERANÇA",
      "house": "28",
      "postcode": "2565-599",
      "city": "OUTEIRO DA CABEÇA",
      "lon": "-9.176782772208382",
      "lat": "39.19037867340701"
    },
    {
      "id": "pt.ine.add.PTCONT.3032461",
      "street": "R ESPERANÇA",
      "house": "L2",
      "postcode": "2565-599",
      "city": "OUTEIRO DA CABEÇA",
      "lon": "-9.178594049785087",
      "lat": "39.188416888249904"
    },
    {
      "id": "pt.ine.add.PTCONT.3041272",
      "street": "R ESPERANÇA",
      "house": "",
      "postcode": "2565-599",
      "city": "OUTEIRO DA CABEÇA",
      "lon": "-9.17585055160996",
      "lat": "39.19073829973151"
    },
    {
      "id": "pt.ine.add.PTCONT.3081520",
      "street": "CASA DA ESTAÇÃO",
      "house": "2",
      "postcode": "2565-600",
      "city": "OUTEIRO DA CABEÇA",
      "lon": "-9.176090021323336",
      "lat": "39.19284382962501"
    },
    {
      "id": "pt.ine.add.PTCONT.3116281",
      "street": "R ESPERANÇA",
      "house": "24",
      "postcode": "2565-599",
      "city": "OUTEIRO DA CABEÇA",
      "lon": "-9.17626264207124",
      "lat": "39.189644745067206"
    },
    {
      "id": "pt.ine.add.PTCONT.3116282",
      "street": "R ESPERANÇA",
      "house": "24",
      "postcode": "2565-599",
      "city": "OUTEIRO DA CABEÇA",
      "lon": "-9.17626264207124",
      "lat": "39.189644745067206"
    },
    {
      "id": "pt.ine.add.PTCONT.3197844",
      "street": "R ESPERANÇA",
      "house": "",
      "postcode": "2565-599",
      "city": "OUTEIRO DA CABEÇA",
      "lon": "-9.176420693855679",
      "lat": "39.19094035992169"
    },
    {
      "id": "pt.ine.add.PTCONT.3292000",
      "street": "R CEMITÉRIO",
      "house": "1",
      "postcode": "2565-607",
      "city": "OUTEIRO DA CABEÇA",
      "lon": "-9.179164447719044",
      "lat": "39.18863694715138"
    }
  ]
}