{
  "data": {
    "distrito": "Santarém",
    "concelho": "Rio Maior",
    "freguesia": "Arrouquelas",
    "OBJECTID": 19,
    "BGRI2021": "14140200111",
    "DT21": "14",
    "DTMN21": "1414",
    "DTMNFR21": "141402",
    "DTMNFRSEC21": "141402001",
    "SECNUM21": "001",
    "SSNUM21": "11",
    "SECSSNUM21": "00111",
    "OBJECTID_1": 152975,
    "DT": "14",
    "CC": "14",
    "fr": "02",
    "SEC": "001",
    "SS": "11"
  },
  "addresses": [
    {
      "id": "pt.ine.add.PTCONT.4396857",
      "street": "LG COMBATENTES DA GRANDE GUERRA",
      "house": "3",
      "postcode": "2040-031",
      "city": "ARROUQUELAS",
      "lon": "-8.894667811956161",
      "lat": "39.25724533177554"
    },
    {
      "id": "pt.ine.add.PTCONT.4488392",
      "street": "R ESCOLA PRIMARIA",
      "house": "7",
      "postcode": "2040-031",
      "city": "ARROUQUELAS",
      "lon": "-8.894506695482907",
      "lat": "39.25734546441312"
    },
    {
      "id": "pt.ine.add.PTCONT.4530949",
      "street": "R ESCOLA PRIMARIA",
      "house": "11",
      "postcode": "2040-031",
      "city": "ARROUQUELAS",
      "lon": "-8.894614272422592",
      "lat": "39.257651005588485"
    },
    {
      "id": "pt.ine.add.PTCONT.4570589",
      "street": "LG COMBATENTES DA GRANDE GUERRA",
      "house": "5",
      "postcode": "2040-031",
      "city": "ARROUQUELAS",
      "lon": "-8.894762440079305",
      "lat": "39.25742485678906"
    },
    {
      "id": "pt.ine.add.PTCONT.4582677",
      "street": "R FURRIEL ANTÓNIO FERNANDO BOM",
      "house": "6",
      "postcode": "2040-031",
      "city": "ARROUQUELAS",
      "lon": "-8.89480762364763",
      "lat": "39.25838833088001"
    },
    {
      "id": "pt.ine.add.PTCONT.4622604",
      "street": "R FUNDADORES DA JUNTA FREGUESIA",
      "house": "11",
      "postcode": "2040-031",
      "city": "ARROUQUELAS",
      "lon": "-8.894575727640591",
      "lat": "39.25837183303528"
    },
    {
      "id": "pt.ine.add.PTCONT.4622611",
      "street": "R GUINE",
      "house": "4",
      "postcode": "2040-031",
      "city": "ARROUQUELAS",
      "lon": "-8.89499238322766",
      "lat": "39.25726122318241"
    },
    {
      "id": "pt.ine.add.PTCONT.4622612",
      "street": "R GUINE",
      "house": "4",
      "postcode": "2040-031",
      "city": "ARROUQUELAS",
      "lon": "-8.89499238322766",
      "lat": "39.25726122318241"
    },
    {
      "id": "pt.ine.add.PTCONT.4628370",
      "street": "R DR JOÃO AFONSO CALADO DA MAIA",
      "house": "99",
      "postcode": "2040-031",
      "city": "ARROUQUELAS",
      "lon": "-8.89526419901878",
      "lat": "39.25775484019173"
    },
    {
      "id": "pt.ine.add.PTCONT.4633454",
      "street": "R FUNDADORES DA JUNTA FREGUESIA",
      "house": "17",
      "postcode": "2040-031",
      "city": "ARROUQUELAS",
      "lon": "-8.894667433567017",
      "lat": "39.25828116143704"
    }
  ]
}