{
  "data": {
    "distrito": "Santarém",
    "concelho": "Rio Maior",
    "freguesia": "Arrouquelas",
    "OBJECTID": 21,
    "BGRI2021": "14140200113",
    "DT21": "14",
    "DTMN21": "1414",
    "DTMNFR21": "141402",
    "DTMNFRSEC21": "141402001",
    "SECNUM21": "001",
    "SSNUM21": "13",
    "SECSSNUM21": "00113",
    "OBJECTID_1": 153137,
    "DT": "14",
    "CC": "14",
    "fr": "02",
    "SEC": "001",
    "SS": "13"
  },
  "addresses": [
    {
      "id": "pt.ine.add.PTCONT.4434876",
      "street": "R DR JOÃO AFONSO CALADO DA MAIA",
      "house": "61",
      "postcode": "2040-031",
      "city": "ARROUQUELAS",
      "lon": "-8.892825509064396",
      "lat": "39.25830219937496"
    },
    {
      "id": "pt.ine.add.PTCONT.4446199",
      "street": "R COMISSAO MELHORAMENTOS",
      "house": "9",
      "postcode": "2040-031",
      "city": "ARROUQUELAS",
      "lon": "-8.891647910723997",
      "lat": "39.25868817783774"
    },
    {
      "id": "pt.ine.add.PTCONT.4467390",
      "street": "R COMISSAO MELHORAMENTOS",
      "house": "3",
      "postcode": "2040-031",
      "city": "ARROUQUELAS",
      "lon": "-8.891564388568657",
      "lat": "39.25846354201385"
    },
    {
      "id": "pt.ine.add.PTCONT.4487795",
      "street": "R ANTÓNIO PEDRO PARENTE",
      "house": "24",
      "postcode": "2040-031",
      "city": "ARROUQUELAS",
      "lon": "-8.893171698838769",
      "lat": "39.25817383971955"
    },
    {
      "id": "pt.ine.add.PTCONT.4518946",
      "street": "R COMISSAO MELHORAMENTOS",
      "house": "3",
      "postcode": "2040-031",
      "city": "ARROUQUELAS",
      "lon": "-8.891574420767798",
      "lat": "39.25831936158251"
    },
    {
      "id": "pt.ine.add.PTCONT.4530948",
      "street": "R ANTÓNIO PEDRO PARENTE",
      "house": "18",
      "postcode": "2040-031",
      "city": "ARROUQUELAS",
      "lon": "-8.892926663217327",
      "lat": "39.25801330925285"
    },
    {
      "id": "pt.ine.add.PTCONT.4601764",
      "street": "R ANTÓNIO PEDRO PARENTE",
      "house": "10",
      "postcode": "2040-031",
      "city": "ARROUQUELAS",
      "lon": "-8.892532092981694",
      "lat": "39.257952832628604"
    },
    {
      "id": "pt.ine.add.PTCONT.4604382",
      "street": "R PRINCIPAL",
      "house": "158",
      "postcode": "2040-031",
      "city": "ARROUQUELAS",
      "lon": "-8.892030248123495",
      "lat": "39.25761383079184"
    },
    {
      "id": "pt.ine.add.PTCONT.4645249",
      "street": "R DR JOÃO AFONSO CALADO DA MAIA",
      "house": "37",
      "postcode": "2040-031",
      "city": "ARROUQUELAS",
      "lon": "-8.891534097650549",
      "lat": "39.258878070162915"
    }
  ]
}