{
  "data": {
    "distrito": "Bragança",
    "concelho": "Vila Flor",
    "freguesia": "Freixiel",
    "OBJECTID": 66,
    "BGRI2021": "04100500101",
    "DT21": "04",
    "DTMN21": "0410",
    "DTMNFR21": "041005",
    "DTMNFRSEC21": "041005001",
    "SECNUM21": "001",
    "SSNUM21": "01",
    "SECSSNUM21": "00101",
    "OBJECTID_1": 38838,
    "DT": "04",
    "CC": "10",
    "fr": "05",
    "SEC": "001",
    "SS": "01"
  },
  "addresses": [
    {
      "id": "pt.ine.add.PTCONT.854352",
      "street": "R DO EIRÓ",
      "house": "1",
      "postcode": "5360-061",
      "city": "FREIXIEL",
      "lon": "-7.282823622024387",
      "lat": "41.30445856420226"
    },
    {
      "id": "pt.ine.add.PTCONT.888322",
      "street": "R DA ESCOLA",
      "house": "5",
      "postcode": "5360-061",
      "city": "FREIXIEL",
      "lon": "-7.28361947422292",
      "lat": "41.30477958142589"
    },
    {
      "id": "pt.ine.add.PTCONT.905153",
      "street": "R DO EIRÓ",
      "house": "5",
      "postcode": "5360-061",
      "city": "FREIXIEL",
      "lon": "-7.2829445366145364",
      "lat": "41.30434240496159"
    },
    {
      "id": "pt.ine.add.PTCONT.905964",
      "street": "R DA ESCOLA",
      "house": "3",
      "postcode": "5360-061",
      "city": "FREIXIEL",
      "lon": "-7.283012431162748",
      "lat": "41.30463103532702"
    },
    {
      "id": "pt.ine.add.PTCONT.905965",
      "street": "R DO EIRÓ",
      "house": "2",
      "postcode": "5360-061",
      "city": "FREIXIEL",
      "lon": "-7.28287021020324",
      "lat": "41.304548948626845"
    },
    {
      "id": "pt.ine.add.PTCONT.908255",
      "street": "R DA ESCOLA",
      "house": "1",
      "postcode": "5360-061",
      "city": "FREIXIEL",
      "lon": "-7.282609531202322",
      "lat": "41.304393954310534"
    },
    {
      "id": "pt.ine.add.PTCONT.912068",
      "street": "R DA FONTE PEQUENA",
      "house": "1",
      "postcode": "5360-061",
      "city": "FREIXIEL",
      "lon": "-7.282228757293309",
      "lat": "41.304292095875425"
    },
    {
      "id": "pt.ine.add.PTCONT.916505",
      "street": "R DA MOREIRA",
      "house": "4",
      "postcode": "5360-061",
      "city": "FREIXIEL",
      "lon": "-7.28169511495904",
      "lat": "41.30400902496584"
    }
  ]
}