{
  "data": {
    "distrito": "Leiria",
    "concelho": "Óbidos",
    "freguesia": "A dos Negros",
    "OBJECTID": 390,
    "BGRI2021": "10120100141",
    "DT21": "10",
    "DTMN21": "1012",
    "DTMNFR21": "101201",
    "DTMNFRSEC21": "101201001",
    "SECNUM21": "001",
    "SSNUM21": "41",
    "SECSSNUM21": "00141",
    "OBJECTID_1": 93586,
    "DT": "10",
    "CC": "12",
    "fr": "01",
    "SEC": "001",
    "SS": "41"
  },
  "addresses": [
    {
      "id": "pt.ine.add.PTCONT.2003803",
      "street": "ESTR PAVORAIS",
      "house": "",
      "postcode": "2510-321",
      "city": "A DOS NEGROS",
      "lon": "-9.113487656615533",
      "lat": "39.352956605377884"
    },
    {
      "id": "pt.ine.add.PTCONT.2005553",
      "street": "CSL CALÇADA",
      "house": "1",
      "postcode": "2510-325",
      "city": "A DOS NEGROS",
      "lon": "-9.114107115816402",
      "lat": "39.35328464208191"
    },
    {
      "id": "pt.ine.add.PTCONT.2011929",
      "street": "R ARNEIROS",
      "house": "12",
      "postcode": "2510-321",
      "city": "A DOS NEGROS",
      "lon": "-9.111030691491427",
      "lat": "39.351473117767625"
    },
    {
      "id": "pt.ine.add.PTCONT.2044725",
      "street": "R ARNEIROS",
      "house": "2",
      "postcode": "2510-321",
      "city": "A DOS NEGROS",
      "lon": "-9.110713858591934",
      "lat": "39.3512145782451"
    },
    {
      "id": "pt.ine.add.PTCONT.2059611",
      "street": "R ALMOINHAS",
      "house": "5",
      "postcode": "2510-321",
      "city": "A DOS NEGROS",
      "lon": "-9.11067931048454",
      "lat": "39.351232882356"
    },
    {
      "id": "pt.ine.add.PTCONT.2072732",
      "street": "R ARNEIROS",
      "house": "16",
      "postcode": "2510-321",
      "city": "A DOS NEGROS",
      "lon": "-9.112256458359397",
      "lat": "39.35202124166586"
    },
    {
      "id": "pt.ine.add.PTCONT.2075177",
      "street": "ESTR PRINCIPAL",
      "house": "7",
      "postcode": "2510-321",
      "city": "A DOS NEGROS",
      "lon": "-9.113133743320999",
      "lat": "39.35253625993936"
    },
    {
      "id": "pt.ine.add.PTCONT.2079626",
      "street": "ESTR ULMEIRO",
      "house": "",
      "postcode": "2510-321",
      "city": "A DOS NEGROS",
      "lon": "-9.108767487366208",
      "lat": "39.3514020443811"
    },
    {
      "id": "pt.ine.add.PTCONT.2086967",
      "street": "R ARNEIROS",
      "house": "6",
      "postcode": "2510-321",
      "city": "A DOS NEGROS",
      "lon": "-9.110681569547742",
      "lat": "39.35139498844671"
    },
    {
      "id": "pt.ine.add.PTCONT.2088591",
      "street": "CSL CAMARÃO",
      "house": "1",
      "postcode": "2510-323",
      "city": "A DOS NEGROS",
      "lon": "-9.115016962839544",
      "lat": "39.352808607713904"
    },
    {
      "id": "pt.ine.add.PTCONT.2106057",
      "street": "R ARNEIROS",
      "house": "4",
      "postcode": "2510-321",
      "city": "A DOS NEGROS",
      "lon": "-9.110749410776679",
      "lat": "39.35126832127507"
    },
    {
      "id": "pt.ine.add.PTCONT.2175947",
      "street": "ESTR PRINCIPAL",
      "house": "7A",
      "postcode": "2510-321",
      "city": "A DOS NEGROS",
      "lon": "-9.11267744789865",
      "lat": "39.352260886343224"
    },
    {
      "id": "pt.ine.add.PTCONT.2181705",
      "street": "CSL CAMARÃO",
      "house": "2",
      "postcode": "2510-323",
      "city": "A DOS NEGROS",
      "lon": "-9.115071180399221",
      "lat": "39.35253794192585"
    },
    {
      "id": "pt.ine.add.PTCONT.2184691",
      "street": "R ALMOINHAS",
      "house": "9",
      "postcode": "2510-321",
      "city": "A DOS NEGROS",
      "lon": "-9.110564693779505",
      "lat": "39.35133292152786"
    },
    {
      "id": "pt.ine.add.PTCONT.2191425",
      "street": "R ALMOINHAS",
      "house": "7",
      "postcode": "2510-321",
      "city": "A DOS NEGROS",
      "lon": "-9.110621939424883",
      "lat": "39.35127839900866"
    },
    {
      "id": "pt.ine.add.PTCONT.2191485",
      "street": "CSL CALÇADA CASA DO VALE",
      "house": "1A",
      "postcode": "2510-325",
      "city": "A DOS NEGROS",
      "lon": "-9.114292978652438",
      "lat": "39.35247245020986"
    },
    {
      "id": "pt.ine.add.PTCONT.2240549",
      "street": "R ALMOINHAS",
      "house": "13",
      "postcode": "2510-321",
      "city": "A DOS NEGROS",
      "lon": "-9.110579556268803",
      "lat": "39.35156697734306"
    },
    {
      "id": "pt.ine.add.PTCONT.2242214",
      "street": "R ALMOINHAS",
      "house": "11",
      "postcode": "2510-321",
      "city": "A DOS NEGROS",
      "lon": "-9.110530898481933",
      "lat": "39.35140526096069"
    }
  ]
}