{
  "data": {
    "distrito": "Santarém",
    "concelho": "Ourém",
    "freguesia": "União das freguesias de Gondemaria e Olival",
    "OBJECTID": 1277,
    "BGRI2021": "14212000103",
    "DT21": "14",
    "DTMN21": "1421",
    "DTMNFR21": "142120",
    "DTMNFRSEC21": "142120001",
    "SECNUM21": "001",
    "SSNUM21": "03",
    "SECSSNUM21": "00103",
    "OBJECTID_1": 159746,
    "DT": "14",
    "CC": "21",
    "fr": "20",
    "SEC": "001",
    "SS": "03"
  },
  "addresses": [
    {
      "id": "pt.ine.add.PTCONT.4411639",
      "street": "R DESPORTOS",
      "house": "21",
      "postcode": "2490-124",
      "city": "GONDEMARIA",
      "lon": "-8.63446446246405",
      "lat": "39.68324408809852"
    },
    {
      "id": "pt.ine.add.PTCONT.4425926",
      "street": "R FÁTIMA",
      "house": "33",
      "postcode": "2490-124",
      "city": "GONDEMARIA",
      "lon": "-8.635595684112314",
      "lat": "39.68170807187711"
    },
    {
      "id": "pt.ine.add.PTCONT.4433976",
      "street": "R FÁTIMA",
      "house": "23",
      "postcode": "2490-124",
      "city": "GONDEMARIA",
      "lon": "-8.634651224112066",
      "lat": "39.683279308153324"
    },
    {
      "id": "pt.ine.add.PTCONT.4446457",
      "street": "ESTR OURÉM",
      "house": "38",
      "postcode": "2490-124",
      "city": "GONDEMARIA",
      "lon": "-8.631223441490253",
      "lat": "39.67993458840749"
    },
    {
      "id": "pt.ine.add.PTCONT.4489405",
      "street": "R DESPORTOS",
      "house": "19",
      "postcode": "2490-124",
      "city": "GONDEMARIA",
      "lon": "-8.63397268496366",
      "lat": "39.68293998484912"
    },
    {
      "id": "pt.ine.add.PTCONT.4546998",
      "street": "R DESPORTOS",
      "house": "5",
      "postcode": "2490-124",
      "city": "GONDEMARIA",
      "lon": "-8.632590173016817",
      "lat": "39.68196421685076"
    },
    {
      "id": "pt.ine.add.PTCONT.4573283",
      "street": "ESTR PRINCIPAL DE OURÉM",
      "house": "40",
      "postcode": "2490-124",
      "city": "GONDEMARIA",
      "lon": "-8.630392781672892",
      "lat": "39.67950582993627"
    },
    {
      "id": "pt.ine.add.PTCONT.4610238",
      "street": "R DESPORTOS",
      "house": "11",
      "postcode": "2490-124",
      "city": "GONDEMARIA",
      "lon": "-8.63331317621563",
      "lat": "39.68200613802398"
    },
    {
      "id": "pt.ine.add.PTCONT.4633303",
      "street": "ESTR PRINCIPAL",
      "house": "34",
      "postcode": "2490-124",
      "city": "GONDEMARIA",
      "lon": "-8.630907054672385",
      "lat": "39.67970177256854"
    },
    {
      "id": "pt.ine.add.PTCONT.4650687",
      "street": "ESTR PRINCIPAL",
      "house": "28",
      "postcode": "2490-124",
      "city": "GONDEMARIA",
      "lon": "-8.631552133688709",
      "lat": "39.68025741688803"
    },
    {
      "id": "pt.ine.add.PTCONT.4660176",
      "street": "R PRINCIPAL DE OURÉM",
      "house": "38",
      "postcode": "2490-124",
      "city": "GONDEMARIA",
      "lon": "-8.6301114956684",
      "lat": "39.679290874862055"
    }
  ]
}