{
  "data": {
    "distrito": "Braga",
    "concelho": "Vila Nova de Famalicão",
    "freguesia": "Louro",
    "OBJECTID": 296,
    "BGRI2021": "03122300103",
    "DT21": "03",
    "DTMN21": "0312",
    "DTMNFR21": "031223",
    "DTMNFRSEC21": "031223001",
    "SECNUM21": "001",
    "SSNUM21": "03",
    "SECSSNUM21": "00103",
    "OBJECTID_1": 31464,
    "DT": "03",
    "CC": "12",
    "fr": "23",
    "SEC": "001",
    "SS": "03"
  },
  "addresses": [
    {
      "id": "pt.ine.add.PTCONT.490596",
      "street": "R PÓVOA",
      "house": "4",
      "postcode": "4760-590",
      "city": "LOURO",
      "lon": "-8.552068158235565",
      "lat": "41.42855303055301"
    },
    {
      "id": "pt.ine.add.PTCONT.490598",
      "street": "TV PENA BOA",
      "house": "8",
      "postcode": "4760-539",
      "city": "LOURO",
      "lon": "-8.548539541144033",
      "lat": "41.42489222000966"
    },
    {
      "id": "pt.ine.add.PTCONT.495873",
      "street": "R ARTUR FERNANDES DA COSTA",
      "house": "421",
      "postcode": "4760-783",
      "city": "LOURO",
      "lon": "-8.55283439640962",
      "lat": "41.42678546657611"
    },
    {
      "id": "pt.ine.add.PTCONT.505431",
      "street": "R ARTUR FERNANDES DA COSTA",
      "house": "393",
      "postcode": "4760-783",
      "city": "LOURO",
      "lon": "-8.552246678765718",
      "lat": "41.42840831739263"
    },
    {
      "id": "pt.ine.add.PTCONT.523900",
      "street": "R NSA SRA DA CONCEIÇÃO",
      "house": "9",
      "postcode": "4760-560",
      "city": "LOURO",
      "lon": "-8.548967221839403",
      "lat": "41.430049929811794"
    },
    {
      "id": "pt.ine.add.PTCONT.523901",
      "street": "R NSA SRA DA CONCEIÇÃO",
      "house": "9",
      "postcode": "4760-560",
      "city": "LOURO",
      "lon": "-8.548967221839403",
      "lat": "41.430049929811794"
    },
    {
      "id": "pt.ine.add.PTCONT.634874",
      "street": "R PÓVOA",
      "house": "2",
      "postcode": "4760-590",
      "city": "LOURO",
      "lon": "-8.552318978689337",
      "lat": "41.428489089372924"
    },
    {
      "id": "pt.ine.add.PTCONT.678776",
      "street": "TV NSA SRA DA CONCEIÇÃO",
      "house": "5",
      "postcode": "4760-560",
      "city": "LOURO",
      "lon": "-8.54883671561345",
      "lat": "41.43022147615826"
    },
    {
      "id": "pt.ine.add.PTCONT.706307",
      "street": "TV NSA SRA DA CONCEIÇÃO",
      "house": "5",
      "postcode": "4760-560",
      "city": "LOURO",
      "lon": "-8.548065264188326",
      "lat": "41.429314864094664"
    },
    {
      "id": "pt.ine.add.PTCONT.706308",
      "street": "TV NSA SRA DA CONCEIÇÃO",
      "house": "32",
      "postcode": "4760-560",
      "city": "LOURO",
      "lon": "-8.548065264188326",
      "lat": "41.429314864094664"
    },
    {
      "id": "pt.ine.add.PTCONT.706309",
      "street": "TV NSA SRA DA CONCEIÇÃO",
      "house": "32",
      "postcode": "4760-560",
      "city": "LOURO",
      "lon": "-8.548065264188326",
      "lat": "41.429314864094664"
    },
    {
      "id": "pt.ine.add.PTCONT.706310",
      "street": "TV NSA SRA DA CONCEIÇÃO",
      "house": "32",
      "postcode": "4760-560",
      "city": "LOURO",
      "lon": "-8.548065264188326",
      "lat": "41.429314864094664"
    },
    {
      "id": "pt.ine.add.PTCONT.727320",
      "street": "TV NSA SRA DA CONCEIÇÃO",
      "house": "5",
      "postcode": "4760-560",
      "city": "LOURO",
      "lon": "-8.548267550165857",
      "lat": "41.42914305959964"
    },
    {
      "id": "pt.ine.add.PTCONT.727321",
      "street": "TV NSA SRA DA CONCEIÇÃO",
      "house": "6",
      "postcode": "4760-560",
      "city": "LOURO",
      "lon": "-8.548267550165857",
      "lat": "41.42914305959964"
    },
    {
      "id": "pt.ine.add.PTCONT.727322",
      "street": "TV NSA SRA DA CONCEIÇÃO",
      "house": "8",
      "postcode": "4760-560",
      "city": "LOURO",
      "lon": "-8.548267550165857",
      "lat": "41.42914305959964"
    },
    {
      "id": "pt.ine.add.PTCONT.727323",
      "street": "TV NSA SRA DA CONCEIÇÃO",
      "house": "7",
      "postcode": "4760-560",
      "city": "LOURO",
      "lon": "-8.548267550165857",
      "lat": "41.42914305959964"
    },
    {
      "id": "pt.ine.add.PTCONT.760795",
      "street": "R PÓVOA",
      "house": "6",
      "postcode": "4760-590",
      "city": "LOURO",
      "lon": "-8.551984705632611",
      "lat": "41.428598354084784"
    },
    {
      "id": "pt.ine.add.PTCONT.789512",
      "street": "TV PENA BOA",
      "house": "",
      "postcode": "4760-539",
      "city": "LOURO",
      "lon": "-8.54647528685344",
      "lat": "41.42572801752739"
    }
  ]
}