{
  "data": {
    "distrito": "Beja",
    "concelho": "Alvito",
    "freguesia": "Alvito",
    "OBJECTID": 21,
    "BGRI2021": "02030100107",
    "DT21": "02",
    "DTMN21": "0203",
    "DTMNFR21": "020301",
    "DTMNFRSEC21": "020301001",
    "SECNUM21": "001",
    "SSNUM21": "07",
    "SECSSNUM21": "00107",
    "OBJECTID_1": 13276,
    "DT": "02",
    "CC": "03",
    "fr": "01",
    "SEC": "001",
    "SS": "07"
  },
  "addresses": [
    {
      "id": "pt.ine.add.PTCONT.382310",
      "street": "HRD HERDADE PARREIRAS",
      "house": "",
      "postcode": "7920-201",
      "city": "ALVITO",
      "lon": "-7.9623278324593",
      "lat": "38.20609724526623"
    },
    {
      "id": "pt.ine.add.PTCONT.382867",
      "street": "MTE CHOURICO",
      "house": "",
      "postcode": "7920-201",
      "city": "ALVITO",
      "lon": "-7.977553368788283",
      "lat": "38.19243376420284"
    },
    {
      "id": "pt.ine.add.PTCONT.387103",
      "street": "MTE ASSENTES DDE BAIXO",
      "house": "",
      "postcode": "7920-201",
      "city": "ALVITO",
      "lon": "-7.957222784073259",
      "lat": "38.187738411438474"
    },
    {
      "id": "pt.ine.add.PTCONT.403262",
      "street": "MTE CHOURICO",
      "house": "",
      "postcode": "7920-201",
      "city": "ALVITO",
      "lon": "-7.977781212841313",
      "lat": "38.19265028162186"
    },
    {
      "id": "pt.ine.add.PTCONT.412170",
      "street": "HRD HERDADE PARREIRAS",
      "house": "",
      "postcode": "7920-201",
      "city": "ALVITO",
      "lon": "-7.962510677280205",
      "lat": "38.20602543935119"
    },
    {
      "id": "pt.ine.add.PTCONT.434831",
      "street": "MTE ASSENTES DA CONCHA",
      "house": "",
      "postcode": "7920-201",
      "city": "ALVITO",
      "lon": "-7.951857305124208",
      "lat": "38.19722572557582"
    }
  ]
}