{
  "data": {
    "distrito": "Beja",
    "concelho": "Alvito",
    "freguesia": "Alvito",
    "OBJECTID": 6,
    "BGRI2021": "02030100111",
    "DT21": "02",
    "DTMN21": "0203",
    "DTMNFR21": "020301",
    "DTMNFRSEC21": "020301001",
    "SECNUM21": "001",
    "SSNUM21": "11",
    "SECSSNUM21": "00111",
    "OBJECTID_1": 13302,
    "DT": "02",
    "CC": "03",
    "fr": "01",
    "SEC": "001",
    "SS": "11"
  },
  "addresses": [
    {
      "id": "pt.ine.add.PTCONT.357740",
      "street": "MTE ZAMBUJOSA",
      "house": "",
      "postcode": "7920-201",
      "city": "ALVITO",
      "lon": "-8.01949164475267",
      "lat": "38.22990508046005"
    },
    {
      "id": "pt.ine.add.PTCONT.384763",
      "street": "MOINHO DA AZINHEIRA",
      "house": "",
      "postcode": "7920-201",
      "city": "ALVITO",
      "lon": "-8.035442768012564",
      "lat": "38.23296445682685"
    },
    {
      "id": "pt.ine.add.PTCONT.388701",
      "street": "MTE MONTAL VERDE",
      "house": "",
      "postcode": "7920-201",
      "city": "ALVITO",
      "lon": "-8.013545795967497",
      "lat": "38.21318757284316"
    },
    {
      "id": "pt.ine.add.PTCONT.405034",
      "street": "HORTA DOS MOINHOS",
      "house": "",
      "postcode": "7920-201",
      "city": "ALVITO",
      "lon": "-8.026112521581911",
      "lat": "38.23218155426034"
    },
    {
      "id": "pt.ine.add.PTCONT.405035",
      "street": "HORTA DOS MOINHOS",
      "house": "",
      "postcode": "7920-201",
      "city": "ALVITO",
      "lon": "-8.026112521581911",
      "lat": "38.23218155426034"
    },
    {
      "id": "pt.ine.add.PTCONT.417788",
      "street": "MTE MONTAL VERDE",
      "house": "",
      "postcode": "7920-201",
      "city": "ALVITO",
      "lon": "-8.013866011584408",
      "lat": "38.212881593795885"
    },
    {
      "id": "pt.ine.add.PTCONT.418591",
      "street": "MOINHO DA AZINHEIRA",
      "house": "",
      "postcode": "7920-201",
      "city": "ALVITO",
      "lon": "-8.03546527377298",
      "lat": "38.23321672568978"
    },
    {
      "id": "pt.ine.add.PTCONT.431472",
      "street": "MOINHO DA AZINHEIRA",
      "house": "",
      "postcode": "7920-201",
      "city": "ALVITO",
      "lon": "-8.035568452886707",
      "lat": "38.232928525603434"
    },
    {
      "id": "pt.ine.add.PTCONT.434830",
      "street": "MTE ZAMBUJOSA",
      "house": "",
      "postcode": "7920-201",
      "city": "ALVITO",
      "lon": "-8.01935422747353",
      "lat": "38.23013917973285"
    },
    {
      "id": "pt.ine.add.PTCONT.444034",
      "street": "MOINHO DA AZINHEIRA",
      "house": "",
      "postcode": "7920-201",
      "city": "ALVITO",
      "lon": "-8.035534633713597",
      "lat": "38.23259516693554"
    }
  ]
}