{
  "data": {
    "distrito": "Beja",
    "concelho": "Alvito",
    "freguesia": "Alvito",
    "OBJECTID": 108,
    "BGRI2021": "02030100128",
    "DT21": "02",
    "DTMN21": "0203",
    "DTMNFR21": "020301",
    "DTMNFRSEC21": "020301001",
    "SECNUM21": "001",
    "SSNUM21": "28",
    "SECSSNUM21": "00128",
    "OBJECTID_1": 13269,
    "DT": "02",
    "CC": "03",
    "fr": "01",
    "SEC": "001",
    "SS": "28"
  },
  "addresses": [
    {
      "id": "pt.ine.add.PTCONT.357689",
      "street": "LG GEN HUMBERTO DELGADO",
      "house": "6",
      "postcode": "7920-027",
      "city": "ALVITO",
      "lon": "-7.990157769392651",
      "lat": "38.25559347426821"
    },
    {
      "id": "pt.ine.add.PTCONT.358991",
      "street": "R BEJA",
      "house": "41",
      "postcode": "7920-046",
      "city": "ALVITO",
      "lon": "-7.990923282480718",
      "lat": "38.25557638646098"
    },
    {
      "id": "pt.ine.add.PTCONT.363657",
      "street": "ROSSIO DE S SEBASTIﾃグ",
      "house": "8",
      "postcode": "7920-029",
      "city": "ALVITO",
      "lon": "-7.990203169622764",
      "lat": "38.255746680781364"
    },
    {
      "id": "pt.ine.add.PTCONT.369723",
      "street": "R S SEBASTIﾃグ",
      "house": "2",
      "postcode": "7920-046",
      "city": "ALVITO",
      "lon": "-7.990877424267356",
      "lat": "38.25565741094935"
    },
    {
      "id": "pt.ine.add.PTCONT.383638",
      "street": "R S LUZIA",
      "house": "1",
      "postcode": "7920-047",
      "city": "ALVITO",
      "lon": "-7.990729461083555",
      "lat": "38.25536894687013"
    },
    {
      "id": "pt.ine.add.PTCONT.390862",
      "street": "LG GEN HUMBERTO DELGADO",
      "house": "7",
      "postcode": "7920-027",
      "city": "ALVITO",
      "lon": "-7.9901919033628594",
      "lat": "38.25566558700479"
    },
    {
      "id": "pt.ine.add.PTCONT.400816",
      "street": "R S SEBASTIAO",
      "house": "5",
      "postcode": "7920-046",
      "city": "ALVITO",
      "lon": "-7.990706013286209",
      "lat": "38.25567522086811"
    },
    {
      "id": "pt.ine.add.PTCONT.405759",
      "street": "R S LUZIA",
      "house": "3",
      "postcode": "7920-047",
      "city": "ALVITO",
      "lon": "-7.990603715604352",
      "lat": "38.2554048298265"
    },
    {
      "id": "pt.ine.add.PTCONT.416988",
      "street": "R BEJA",
      "house": "49",
      "postcode": "7920-046",
      "city": "ALVITO",
      "lon": "-7.990855030806806",
      "lat": "38.25542315252334"
    },
    {
      "id": "pt.ine.add.PTCONT.416989",
      "street": "R BEJA",
      "house": "45",
      "postcode": "7920-046",
      "city": "ALVITO",
      "lon": "-7.990855030806806",
      "lat": "38.25542315252334"
    },
    {
      "id": "pt.ine.add.PTCONT.416990",
      "street": "R BEJA",
      "house": "47",
      "postcode": "7920-046",
      "city": "ALVITO",
      "lon": "-7.990855030806806",
      "lat": "38.25542315252334"
    },
    {
      "id": "pt.ine.add.PTCONT.441451",
      "street": "R S SEBASTIﾃグ",
      "house": "10",
      "postcode": "7920-046",
      "city": "ALVITO",
      "lon": "-7.99037458089226",
      "lat": "38.255728871597874"
    },
    {
      "id": "pt.ine.add.PTCONT.447056",
      "street": "R S LUZIA",
      "house": "11",
      "postcode": "7920-047",
      "city": "ALVITO",
      "lon": "-7.990226513708817",
      "lat": "38.255494460136354"
    },
    {
      "id": "pt.ine.add.PTCONT.450113",
      "street": "R BEJA",
      "house": "37",
      "postcode": "7920-046",
      "city": "ALVITO",
      "lon": "-7.990946009699258",
      "lat": "38.25563947626275"
    },
    {
      "id": "pt.ine.add.PTCONT.455163",
      "street": "R S SEBASTIﾃグ",
      "house": "8",
      "postcode": "7920-046",
      "city": "ALVITO",
      "lon": "-7.990489007634297",
      "lat": "38.25563892176274"
    }
  ]
}