{
  "data": {
    "distrito": "Beja",
    "concelho": "Alvito",
    "freguesia": "Alvito",
    "OBJECTID": 64,
    "BGRI2021": "02030100147",
    "DT21": "02",
    "DTMN21": "0203",
    "DTMNFR21": "020301",
    "DTMNFRSEC21": "020301001",
    "SECNUM21": "001",
    "SSNUM21": "47",
    "SECSSNUM21": "00147",
    "OBJECTID_1": 13259,
    "DT": "02",
    "CC": "03",
    "fr": "01",
    "SEC": "001",
    "SS": "47"
  },
  "addresses": [
    {
      "id": "pt.ine.add.PTCONT.353135",
      "street": "AV BOMBEIROS VOLUNTARIOS",
      "house": "3",
      "postcode": "7920-011",
      "city": "ALVITO",
      "lon": "-7.994027768860556",
      "lat": "38.25721972555352"
    },
    {
      "id": "pt.ine.add.PTCONT.376734",
      "street": "LG TRINDADE",
      "house": "7A",
      "postcode": "7920-018",
      "city": "ALVITO",
      "lon": "-7.994484866477358",
      "lat": "38.25717522192621"
    },
    {
      "id": "pt.ine.add.PTCONT.383100",
      "street": "R IGREJAS",
      "house": "4",
      "postcode": "7920-036",
      "city": "ALVITO",
      "lon": "-7.994850100323341",
      "lat": "38.25737384844276"
    },
    {
      "id": "pt.ine.add.PTCONT.409809",
      "street": "LG TRINDADE",
      "house": "7",
      "postcode": "7920-018",
      "city": "ALVITO",
      "lon": "-7.99427924547",
      "lat": "38.25715696106859"
    },
    {
      "id": "pt.ine.add.PTCONT.410553",
      "street": "LG TRINDADE",
      "house": "7",
      "postcode": "7920-018",
      "city": "ALVITO",
      "lon": "-7.99427924547",
      "lat": "38.25715696106859"
    },
    {
      "id": "pt.ine.add.PTCONT.422648",
      "street": "R JOAO DEUS",
      "house": "19C",
      "postcode": "7920-054",
      "city": "ALVITO",
      "lon": "-7.994449597596252",
      "lat": "38.25769769604914"
    },
    {
      "id": "pt.ine.add.PTCONT.439092",
      "street": "R JOÃO DE DEUS",
      "house": "19A",
      "postcode": "7920-054",
      "city": "ALVITO",
      "lon": "-7.994129652756371",
      "lat": "38.25771533536379"
    },
    {
      "id": "pt.ine.add.PTCONT.451108",
      "street": "R JOÃO DE DEUS",
      "house": "21",
      "postcode": "7920-054",
      "city": "ALVITO",
      "lon": "-7.994632420708165",
      "lat": "38.25768890303075"
    }
  ]
}