{
  "data": {
    "distrito": "Porto",
    "concelho": "Baião",
    "freguesia": "União das freguesias de Loivos da Ribeira e Tresouras",
    "OBJECTID": 74,
    "BGRI2021": "13022400117",
    "DT21": "13",
    "DTMN21": "1302",
    "DTMNFR21": "130224",
    "DTMNFRSEC21": "130224001",
    "SECNUM21": "001",
    "SSNUM21": "17",
    "SECSSNUM21": "00117",
    "OBJECTID_1": 126698,
    "DT": "13",
    "CC": "02",
    "fr": "24",
    "SEC": "001",
    "SS": "17"
  },
  "addresses": [
    {
      "id": "pt.ine.add.PTCONT.3721003",
      "street": "R REGADAS",
      "house": "",
      "postcode": "4640-341",
      "city": "LOIVOS DA RIBEIRA",
      "lon": "-7.917673917536038",
      "lat": "41.15533338770333"
    },
    {
      "id": "pt.ine.add.PTCONT.3777435",
      "street": "CAM ALTO DE PARADA",
      "house": "35",
      "postcode": "4640-542",
      "city": "TRESOURAS",
      "lon": "-7.916691970873363",
      "lat": "41.15686229204471"
    },
    {
      "id": "pt.ine.add.PTCONT.3798745",
      "street": "TV PARADA",
      "house": "292",
      "postcode": "4640-542",
      "city": "TRESOURAS",
      "lon": "-7.917254402591055",
      "lat": "41.15610697928432"
    },
    {
      "id": "pt.ine.add.PTCONT.3869427",
      "street": "R REGADAS",
      "house": "627",
      "postcode": "4640-341",
      "city": "LOIVOS DA RIBEIRA",
      "lon": "-7.918066358883747",
      "lat": "41.1555502261996"
    },
    {
      "id": "pt.ine.add.PTCONT.4096796",
      "street": "R REGADAS",
      "house": "",
      "postcode": "4640-341",
      "city": "LOIVOS DA RIBEIRA",
      "lon": "-7.917756929382075",
      "lat": "41.1554505999121"
    },
    {
      "id": "pt.ine.add.PTCONT.4116138",
      "street": "R REGADAS",
      "house": "461",
      "postcode": "4640-341",
      "city": "LOIVOS DA RIBEIRA",
      "lon": "-7.917960019696393",
      "lat": "41.155279896126025"
    },
    {
      "id": "pt.ine.add.PTCONT.4142537",
      "street": "R SALGUEIRAIS",
      "house": "574",
      "postcode": "4640-349",
      "city": "LOIVOS DA RIBEIRA",
      "lon": "-7.920297556379119",
      "lat": "41.161884448002155"
    },
    {
      "id": "pt.ine.add.PTCONT.4342789",
      "street": "R SALGUEIRAIS",
      "house": "",
      "postcode": "4640-544",
      "city": "TRESOURAS",
      "lon": "-7.917865621660615",
      "lat": "41.16228512606826"
    },
    {
      "id": "pt.ine.add.PTCONT.4379076",
      "street": "R PARADA",
      "house": "214",
      "postcode": "4640-542",
      "city": "TRESOURAS",
      "lon": "-7.917110019363682",
      "lat": "41.15653891897438"
    }
  ]
}