{
  "data": {
    "distrito": "Leiria",
    "concelho": "Alvaiázere",
    "freguesia": "Maçãs de Dona Maria",
    "OBJECTID": 488,
    "BGRI2021": "10020400226",
    "DT21": "10",
    "DTMN21": "1002",
    "DTMNFR21": "100204",
    "DTMNFRSEC21": "100204002",
    "SECNUM21": "002",
    "SSNUM21": "26",
    "SECSSNUM21": "00226",
    "OBJECTID_1": 85578,
    "DT": "10",
    "CC": "02",
    "fr": "04",
    "SEC": "002",
    "SS": "26"
  },
  "addresses": [
    {
      "id": "pt.ine.add.PTCONT.1984347",
      "street": "ESTR HERDEIROS ANASTACIA MONTEIRO",
      "house": "",
      "postcode": "3250-293",
      "city": "MAÇÃS DE DONA MARIA",
      "lon": "-8.353275378088187",
      "lat": "39.879235024005"
    },
    {
      "id": "pt.ine.add.PTCONT.1997276",
      "street": "R NEXEBRA",
      "house": "5",
      "postcode": "3250-293",
      "city": "MAÇÃS DE DONA MARIA",
      "lon": "-8.353697711085735",
      "lat": "39.87970255304542"
    },
    {
      "id": "pt.ine.add.PTCONT.2001731",
      "street": "R SANTO ANTÓNIO",
      "house": "18",
      "postcode": "3250-293",
      "city": "MAÇÃS DE DONA MARIA",
      "lon": "-8.354705830331229",
      "lat": "39.87693567376955"
    },
    {
      "id": "pt.ine.add.PTCONT.2059559",
      "street": "R NEXEBRA",
      "house": "19",
      "postcode": "3250-273",
      "city": "MAÇÃS DE DONA MARIA",
      "lon": "-8.355848151499345",
      "lat": "39.879545334893"
    },
    {
      "id": "pt.ine.add.PTCONT.2235331",
      "street": "ESTR JORGE HUMBERTO MENDES ALVES",
      "house": "",
      "postcode": "3250-293",
      "city": "MAÇÃS DE DONA MARIA",
      "lon": "-8.353422907047552",
      "lat": "39.87784776191961"
    }
  ]
}