{
  "data": {
    "distrito": "Setúbal",
    "concelho": "Almada",
    "freguesia": "União das freguesias de Charneca de Caparica e Sobreda",
    "OBJECTID": 1252,
    "BGRI2021": "15031400602",
    "DT21": "15",
    "DTMN21": "1503",
    "DTMNFR21": "150314",
    "DTMNFRSEC21": "150314006",
    "SECNUM21": "006",
    "SSNUM21": "02",
    "SECSSNUM21": "00602",
    "OBJECTID_1": 162109,
    "DT": "15",
    "CC": "03",
    "fr": "14",
    "SEC": "006",
    "SS": "02"
  },
  "addresses": [
    {
      "id": "pt.ine.add.PTCONT.4710779",
      "street": "R QUINTA DA GRAÇA",
      "house": "6",
      "postcode": "2815-815",
      "city": "SOBREDA",
      "lon": "-9.183503906137501",
      "lat": "38.63718182582433"
    },
    {
      "id": "pt.ine.add.PTCONT.4865799",
      "street": "R QUINTA DA GRAÇA",
      "house": "62",
      "postcode": "2815-815",
      "city": "SOBREDA",
      "lon": "-9.183556241879199",
      "lat": "38.63604635074091"
    },
    {
      "id": "pt.ine.add.PTCONT.4867821",
      "street": "R QUINTA DA GRAÇA",
      "house": "62",
      "postcode": "2815-815",
      "city": "SOBREDA",
      "lon": "-9.183556241879199",
      "lat": "38.63604635074091"
    },
    {
      "id": "pt.ine.add.PTCONT.4889765",
      "street": "R QUINTA DA GRAÇA",
      "house": "",
      "postcode": "2815-815",
      "city": "SOBREDA",
      "lon": "-9.183363738533544",
      "lat": "38.63702094073043"
    },
    {
      "id": "pt.ine.add.PTCONT.4914703",
      "street": "R PADRE ANTÓNIO VIEIRA",
      "house": "33",
      "postcode": "2815-823",
      "city": "SOBREDA",
      "lon": "-9.183674580278865",
      "lat": "38.63707219749039"
    },
    {
      "id": "pt.ine.add.PTCONT.4918141",
      "street": "R QUINTA DA GRAÇA",
      "house": "",
      "postcode": "2815-815",
      "city": "SOBREDA",
      "lon": "-9.18336584166727",
      "lat": "38.637165049477005"
    },
    {
      "id": "pt.ine.add.PTCONT.4918142",
      "street": "R QUINTA DA GRAÇA",
      "house": "",
      "postcode": "2815-815",
      "city": "SOBREDA",
      "lon": "-9.18336584166727",
      "lat": "38.637165049477005"
    },
    {
      "id": "pt.ine.add.PTCONT.4918236",
      "street": "R PADRE ANTÓNIO VIEIRA",
      "house": "35",
      "postcode": "2815-823",
      "city": "SOBREDA",
      "lon": "-9.183891319121757",
      "lat": "38.63697116312472"
    },
    {
      "id": "pt.ine.add.PTCONT.4953924",
      "street": "R QUINTA DA GRAÇA",
      "house": "38",
      "postcode": "2815-815",
      "city": "SOBREDA",
      "lon": "-9.18340743762941",
      "lat": "38.636867412790615"
    },
    {
      "id": "pt.ine.add.PTCONT.5045283",
      "street": "R QUINTA DA GRACA",
      "house": "5",
      "postcode": "2815-815",
      "city": "SOBREDA",
      "lon": "-9.183891098161356",
      "lat": "38.63616945513834"
    },
    {
      "id": "pt.ine.add.PTCONT.5045356",
      "street": "R QUINTA DA GRACA",
      "house": "5",
      "postcode": "2815-815",
      "city": "SOBREDA",
      "lon": "-9.183891098161356",
      "lat": "38.63616945513834"
    },
    {
      "id": "pt.ine.add.PTCONT.5045357",
      "street": "R QUINTA DA GRAÇA",
      "house": "5",
      "postcode": "2815-815",
      "city": "SOBREDA",
      "lon": "-9.183891098161356",
      "lat": "38.63616945513834"
    },
    {
      "id": "pt.ine.add.PTCONT.5047709",
      "street": "R QUINTA GARRIDO",
      "house": "5",
      "postcode": "2815-865",
      "city": "SOBREDA",
      "lon": "-9.183891098161356",
      "lat": "38.63616945513834"
    },
    {
      "id": "pt.ine.add.PTCONT.5047792",
      "street": "R QUINTA DA GRACA",
      "house": "5",
      "postcode": "2815-815",
      "city": "SOBREDA",
      "lon": "-9.183891098161356",
      "lat": "38.63616945513834"
    },
    {
      "id": "pt.ine.add.PTCONT.5047932",
      "street": "R QUINTA DA GRACA",
      "house": "5",
      "postcode": "2815-815",
      "city": "SOBREDA",
      "lon": "-9.183891098161356",
      "lat": "38.63616945513834"
    },
    {
      "id": "pt.ine.add.PTCONT.5088625",
      "street": "R PADRE ANTÓNIO VIEIRA",
      "house": "41",
      "postcode": "2815-823",
      "city": "SOBREDA",
      "lon": "-9.183818736495766",
      "lat": "38.63671959171292"
    },
    {
      "id": "pt.ine.add.PTCONT.5121322",
      "street": "R PADRE ANTÓNIO VIEIRA",
      "house": "31",
      "postcode": "2815-823",
      "city": "SOBREDA",
      "lon": "-9.183584816282545",
      "lat": "38.63721713120613"
    }
  ]
}