{
  "data": {
    "ilha": "Ilha Terceira (Açores)",
    "concelho": "Angra do Heroísmo",
    "freguesia": "Raminho",
    "OBJECTID": 480,
    "BGRI2021": "43011100105",
    "DT21": "43",
    "DTMN21": "4301",
    "DTMNFR21": "430111",
    "DTMNFRSEC21": "430111001",
    "SECNUM21": "001",
    "SSNUM21": "05",
    "SECSSNUM21": "00105",
    "OBJECTID_1": 208394,
    "DT": "43",
    "CC": "01",
    "fr": "11",
    "SEC": "001",
    "SS": "05",
    "BGRI2021_1": "43011100105"
  },
  "addresses": [
    {
      "id": "pt.ine.add.AC26.11672",
      "street": "R LAMEIRO DO CAREPA",
      "house": "",
      "postcode": "9700-403",
      "city": "RAMINHO",
      "lon": "-27.342574250437995",
      "lat": "38.781891368837506"
    },
    {
      "id": "pt.ine.add.AC26.11673",
      "street": "R LAMEIRO DO CAREPA",
      "house": "24",
      "postcode": "9700-403",
      "city": "RAMINHO",
      "lon": "-27.342229291928916",
      "lat": "38.78198249612678"
    },
    {
      "id": "pt.ine.add.AC26.11674",
      "street": "R RIBEIRA DO BORGES",
      "house": "4",
      "postcode": "9700-408",
      "city": "RAMINHO",
      "lon": "-27.342000581751666",
      "lat": "38.78230758540277"
    },
    {
      "id": "pt.ine.add.AC26.11675",
      "street": "R RIBEIRA DO BORGES",
      "house": "",
      "postcode": "9700-408",
      "city": "RAMINHO",
      "lon": "-27.34144984665877",
      "lat": "38.782705708811356"
    },
    {
      "id": "pt.ine.add.AC26.12510",
      "street": "R CABO DO RAMINHO",
      "house": "56",
      "postcode": "9700-401",
      "city": "RAMINHO",
      "lon": "-27.34630136532131",
      "lat": "38.7788614773137"
    },
    {
      "id": "pt.ine.add.AC26.46655",
      "street": "R RIBEIRA DO BORGES",
      "house": "6",
      "postcode": "9700-408",
      "city": "RAMINHO",
      "lon": "-27.34185121338808",
      "lat": "38.782371104043705"
    },
    {
      "id": "pt.ine.add.AC26.56273",
      "street": "R RIBEIRA DO BORGES",
      "house": "2",
      "postcode": "9700-408",
      "city": "RAMINHO",
      "lon": "-27.342103510199102",
      "lat": "38.782163097591706"
    },
    {
      "id": "pt.ine.add.AC26.57594",
      "street": "R LAMEIRO DO CAREPA",
      "house": "16",
      "postcode": "9700-403",
      "city": "RAMINHO",
      "lon": "-27.34281429702243",
      "lat": "38.7815301985274"
    },
    {
      "id": "pt.ine.add.AC26.72495",
      "street": "R PRESA GRANDE",
      "house": "",
      "postcode": "9700-407",
      "city": "RAMINHO",
      "lon": "-27.341094142432823",
      "lat": "38.78295907399492"
    },
    {
      "id": "pt.ine.add.AC26.82556",
      "street": "R LAMEIRO DO CAREPA",
      "house": "18",
      "postcode": "9700-403",
      "city": "RAMINHO",
      "lon": "-27.342653849343183",
      "lat": "38.78168386729957"
    },
    {
      "id": "pt.ine.add.AC26.98474",
      "street": "LAMEIRO DO CAREPA",
      "house": "6",
      "postcode": "9700-403",
      "city": "RAMINHO",
      "lon": "-27.34407552111325",
      "lat": "38.78044509272881"
    },
    {
      "id": "pt.ine.add.AC26.101902",
      "street": "R CABO DO RAMINHO",
      "house": "60",
      "postcode": "9700-401",
      "city": "RAMINHO",
      "lon": "-27.3456586672775",
      "lat": "38.77927791650447"
    }
  ]
}