{
  "data": {
    "distrito": "Faro",
    "concelho": "Loulé",
    "freguesia": "Loulé (São Clemente)",
    "OBJECTID": 111,
    "BGRI2021": "08080800413",
    "DT21": "08",
    "DTMN21": "0808",
    "DTMNFR21": "080808",
    "DTMNFRSEC21": "080808004",
    "SECNUM21": "004",
    "SSNUM21": "13",
    "SECSSNUM21": "00413",
    "OBJECTID_1": 69917,
    "DT": "08",
    "CC": "08",
    "fr": "08",
    "SEC": "004",
    "SS": "13"
  },
  "addresses": [
    {
      "id": "pt.ine.add.PTCONT.1514993",
      "street": "SIT POÇO NOVO AS ROMAS",
      "house": "CP 355-Z",
      "postcode": "8100-255",
      "city": "LOULÉ",
      "lon": "-7.96335166118669",
      "lat": "37.142935276954354"
    },
    {
      "id": "pt.ine.add.PTCONT.1523477",
      "street": "CASA COELHO",
      "house": "",
      "postcode": "8100-243",
      "city": "LOULÉ",
      "lon": "-7.957679538098196",
      "lat": "37.14263867886947"
    },
    {
      "id": "pt.ine.add.PTCONT.1534543",
      "street": "POÇO NOVO",
      "house": "1059",
      "postcode": "8100-246",
      "city": "LOULÉ",
      "lon": "-7.966213497414689",
      "lat": "37.14160577264679"
    },
    {
      "id": "pt.ine.add.PTCONT.1566729",
      "street": "CABECEIRA DE APRA",
      "house": "",
      "postcode": "8100-243",
      "city": "LOULÉ",
      "lon": "-7.957349751582307",
      "lat": "37.1440979065666"
    },
    {
      "id": "pt.ine.add.PTCONT.1636428",
      "street": "MTE CATARINA",
      "house": "",
      "postcode": "8100-243",
      "city": "LOULÉ",
      "lon": "-7.960796205104337",
      "lat": "37.143129822702114"
    },
    {
      "id": "pt.ine.add.PTCONT.1650834",
      "street": "",
      "house": "",
      "postcode": "8100-255",
      "city": "LOULÉ",
      "lon": "-7.963975189362056",
      "lat": "37.14092680514324"
    },
    {
      "id": "pt.ine.add.PTCONT.1710693",
      "street": "MTE PEDRAS",
      "house": "",
      "postcode": "8100-243",
      "city": "LOULÉ",
      "lon": "-7.957520440858248",
      "lat": "37.14329621671237"
    },
    {
      "id": "pt.ine.add.PTCONT.1719286",
      "street": "CASA ROSA",
      "house": "",
      "postcode": "8100-255",
      "city": "LOULÉ",
      "lon": "-7.964534572259197",
      "lat": "37.1424503929724"
    },
    {
      "id": "pt.ine.add.PTCONT.1719287",
      "street": "VILLA JOSEPHINE",
      "house": "",
      "postcode": "8100-243",
      "city": "LOULÉ",
      "lon": "-7.957822511977867",
      "lat": "37.14408959604085"
    },
    {
      "id": "pt.ine.add.PTCONT.1724946",
      "street": "",
      "house": "",
      "postcode": "8100-246",
      "city": "LOULÉ",
      "lon": "-7.963040923894167",
      "lat": "37.1409615107878"
    },
    {
      "id": "pt.ine.add.PTCONT.1727859",
      "street": "",
      "house": "",
      "postcode": "8100-243",
      "city": "LOULÉ",
      "lon": "-7.959462816873234",
      "lat": "37.14541656745488"
    },
    {
      "id": "pt.ine.add.PTCONT.1740816",
      "street": "CASINHA ROSA",
      "house": "",
      "postcode": "8100-243",
      "city": "LOULÉ",
      "lon": "-7.959567866650052",
      "lat": "37.14377679347215"
    },
    {
      "id": "pt.ine.add.PTCONT.1745588",
      "street": "CABECEIRA DE APRA",
      "house": "",
      "postcode": "8100-243",
      "city": "LOULÉ",
      "lon": "-7.959366460122645",
      "lat": "37.14325388396647"
    },
    {
      "id": "pt.ine.add.PTCONT.1754097",
      "street": "",
      "house": "",
      "postcode": "8100-243",
      "city": "LOULÉ",
      "lon": "-7.957316380666048",
      "lat": "37.14392665581082"
    },
    {
      "id": "pt.ine.add.PTCONT.1803847",
      "street": "CABECEIRA DE APRA CASA DA HERA",
      "house": "70A Z",
      "postcode": "8100-243",
      "city": "LOULÉ",
      "lon": "-7.957296976612748",
      "lat": "37.14258404849027"
    },
    {
      "id": "pt.ine.add.PTCONT.1816723",
      "street": "SIT CABECEIRA DE APRA MONTE CATARINA",
      "house": "CCI 701 Z",
      "postcode": "8100-243",
      "city": "LOULÉ",
      "lon": "-7.960626307772048",
      "lat": "37.14359812651289"
    },
    {
      "id": "pt.ine.add.PTCONT.1818822",
      "street": "SIT CABECEIRA DE APRA MONTE CATARINA",
      "house": "CCI 701 Z",
      "postcode": "8100-243",
      "city": "LOULÉ",
      "lon": "-7.960626307772048",
      "lat": "37.14359812651289"
    }
  ]
}