{
  "data": {
    "distrito": "Lisboa",
    "concelho": "Mafra",
    "freguesia": "Encarnação",
    "OBJECTID": 1770,
    "BGRI2021": "11090400431",
    "DT21": "11",
    "DTMN21": "1109",
    "DTMNFR21": "110904",
    "DTMNFRSEC21": "110904004",
    "SECNUM21": "004",
    "SSNUM21": "31",
    "SECSSNUM21": "00431",
    "OBJECTID_1": 109496,
    "DT": "11",
    "CC": "09",
    "fr": "04",
    "SEC": "004",
    "SS": "31"
  },
  "addresses": [
    {
      "id": "pt.ine.add.PTCONT.2403617",
      "street": "R ALTO DOS MOINHOS",
      "house": "4",
      "postcode": "2640-229",
      "city": "ENCARNAÇÃO",
      "lon": "-9.366032068253132",
      "lat": "39.03621871803793"
    },
    {
      "id": "pt.ine.add.PTCONT.2488277",
      "street": "R CASTELOS DE CIMA",
      "house": "11",
      "postcode": "2640-232",
      "city": "ENCARNAÇÃO",
      "lon": "-9.366423062910533",
      "lat": "39.03545797408214"
    },
    {
      "id": "pt.ine.add.PTCONT.2726592",
      "street": "R ALTO DOS MOINHOS",
      "house": "4",
      "postcode": "2640-229",
      "city": "ENCARNAÇÃO",
      "lon": "-9.365753687549978",
      "lat": "39.03614960250332"
    },
    {
      "id": "pt.ine.add.PTCONT.2757163",
      "street": "R COMBATENTES DO ULTRAMAR",
      "house": "7",
      "postcode": "2640-229",
      "city": "ENCARNAÇÃO",
      "lon": "-9.366633964296405",
      "lat": "39.03695995613361"
    },
    {
      "id": "pt.ine.add.PTCONT.2865812",
      "street": "R ALTO DOS MOINHOS",
      "house": "12",
      "postcode": "2640-229",
      "city": "ENCARNAÇÃO",
      "lon": "-9.36691344543915",
      "lat": "39.037092108704776"
    },
    {
      "id": "pt.ine.add.PTCONT.2911533",
      "street": "R ALTO DOS MOINHOS",
      "house": "2",
      "postcode": "2640-229",
      "city": "ENCARNAÇÃO",
      "lon": "-9.366345247173715",
      "lat": "39.036296472208605"
    },
    {
      "id": "pt.ine.add.PTCONT.3123460",
      "street": "R MOINHOS",
      "house": "26",
      "postcode": "2640-229",
      "city": "ENCARNAÇÃO",
      "lon": "-9.366917204675014",
      "lat": "39.03730824314254"
    },
    {
      "id": "pt.ine.add.PTCONT.3153349",
      "street": "R CASTELOS CIMA",
      "house": "13",
      "postcode": "2640-232",
      "city": "ENCARNAÇÃO",
      "lon": "-9.366144094910217",
      "lat": "39.03601937396393"
    },
    {
      "id": "pt.ine.add.PTCONT.3216101",
      "street": "R CASTELOS DE CIMA",
      "house": "13",
      "postcode": "2640-232",
      "city": "ENCARNAÇÃO",
      "lon": "-9.366194003121201",
      "lat": "39.035568483243594"
    },
    {
      "id": "pt.ine.add.PTCONT.3264087",
      "street": "R ALTO DOS MOINHOS",
      "house": "10",
      "postcode": "2640-229",
      "city": "ENCARNAÇÃO",
      "lon": "-9.366806388478794",
      "lat": "39.03691309603859"
    }
  ]
}