{
  "data": {
    "distrito": "Beja",
    "concelho": "Castro Verde",
    "freguesia": "Santa Bárbara de Padrões",
    "OBJECTID": 241,
    "BGRI2021": "02060400134",
    "DT21": "02",
    "DTMN21": "0206",
    "DTMNFR21": "020604",
    "DTMNFRSEC21": "020604001",
    "SECNUM21": "001",
    "SSNUM21": "34",
    "SECSSNUM21": "00134",
    "OBJECTID_1": 14544,
    "DT": "02",
    "CC": "06",
    "fr": "04",
    "SEC": "001",
    "SS": "34"
  },
  "addresses": [
    {
      "id": "pt.ine.add.PTCONT.369918",
      "street": "AV ZECA AFONSO",
      "house": "6",
      "postcode": "7780-450",
      "city": "SANTA BÁRBARA DE PADRÕES",
      "lon": "-7.986888672855851",
      "lat": "37.63632135371792"
    },
    {
      "id": "pt.ine.add.PTCONT.371262",
      "street": "AV ZECA AFONSO",
      "house": "10",
      "postcode": "7780-450",
      "city": "SANTA BÁRBARA DE PADRÕES",
      "lon": "-7.986742219304248",
      "lat": "37.6358977093897"
    },
    {
      "id": "pt.ine.add.PTCONT.383228",
      "street": "AV ZECA AFONSO",
      "house": "10 A",
      "postcode": "7780-450",
      "city": "SANTA BÁRBARA DE PADRÕES",
      "lon": "-7.986674578312373",
      "lat": "37.63572643838657"
    },
    {
      "id": "pt.ine.add.PTCONT.393537",
      "street": "AV ZECA AFONSO",
      "house": "8 A",
      "postcode": "7780-450",
      "city": "SANTA BÁRBARA DE PADRÕES",
      "lon": "-7.986832290024663",
      "lat": "37.63618613615018"
    },
    {
      "id": "pt.ine.add.PTCONT.401875",
      "street": "LG 1 MAIO",
      "house": "7",
      "postcode": "7780-486",
      "city": "SANTA BÁRBARA DE PADRÕES",
      "lon": "-7.987158907936838",
      "lat": "37.637177623542044"
    },
    {
      "id": "pt.ine.add.PTCONT.401928",
      "street": "LG 1 DE MAIO",
      "house": "",
      "postcode": "7780-486",
      "city": "SANTA BÁRBARA DE PADRÕES",
      "lon": "-7.987158907936838",
      "lat": "37.637177623542044"
    },
    {
      "id": "pt.ine.add.PTCONT.401929",
      "street": "LG 1 DE MAIO",
      "house": "",
      "postcode": "7780-486",
      "city": "SANTA BÁRBARA DE PADRÕES",
      "lon": "-7.987158907936838",
      "lat": "37.637177623542044"
    },
    {
      "id": "pt.ine.add.PTCONT.411129",
      "street": "AV ZECA AFONSO",
      "house": "8",
      "postcode": "7780-450",
      "city": "SANTA BÁRBARA DE PADRÕES",
      "lon": "-7.986741989551834",
      "lat": "37.63601483709874"
    },
    {
      "id": "pt.ine.add.PTCONT.411733",
      "street": "MTE NOVO DE SANTA BARBARA",
      "house": "",
      "postcode": "7780-405",
      "city": "SANTA BÁRBARA DE PADRÕES",
      "lon": "-7.987785058797418",
      "lat": "37.63562870308308"
    },
    {
      "id": "pt.ine.add.PTCONT.413149",
      "street": "AV ZECA AFONSO",
      "house": "4",
      "postcode": "7780-450",
      "city": "SANTA BÁRBARA DE PADRÕES",
      "lon": "-7.986922308482424",
      "lat": "37.6365015922983"
    },
    {
      "id": "pt.ine.add.PTCONT.452057",
      "street": "AV ZECA AFONSO",
      "house": "2",
      "postcode": "7780-450",
      "city": "SANTA BÁRBARA DE PADRÕES",
      "lon": "-7.986933426257445",
      "lat": "37.63660972421053"
    }
  ]
}