{
  "data": {
    "distrito": "Beja",
    "concelho": "Castro Verde",
    "freguesia": "Santa Bárbara de Padrões",
    "OBJECTID": 226,
    "BGRI2021": "02060400136",
    "DT21": "02",
    "DTMN21": "0206",
    "DTMNFR21": "020604",
    "DTMNFRSEC21": "020604001",
    "SECNUM21": "001",
    "SSNUM21": "36",
    "SECSSNUM21": "00136",
    "OBJECTID_1": 14430,
    "DT": "02",
    "CC": "06",
    "fr": "04",
    "SEC": "001",
    "SS": "36"
  },
  "addresses": [
    {
      "id": "pt.ine.add.PTCONT.358360",
      "street": "R DO ROSMANINHO",
      "house": "",
      "postcode": "7780-488",
      "city": "SANTA BÁRBARA DE PADRÕES",
      "lon": "-7.984841414888047",
      "lat": "37.63705875207161"
    },
    {
      "id": "pt.ine.add.PTCONT.362375",
      "street": "R DO ROSMANINHO",
      "house": "6",
      "postcode": "7780-488",
      "city": "SANTA BÁRBARA DE PADRÕES",
      "lon": "-7.985029392357732",
      "lat": "37.63694071412337"
    },
    {
      "id": "pt.ine.add.PTCONT.363229",
      "street": "LG DA LUZ",
      "house": "6",
      "postcode": "7780-493",
      "city": "SANTA BÁRBARA DE PADRÕES",
      "lon": "-7.985459847637959",
      "lat": "37.63697729296579"
    },
    {
      "id": "pt.ine.add.PTCONT.370406",
      "street": "R DAS FLORES",
      "house": "4",
      "postcode": "7780-462",
      "city": "SANTA BÁRBARA DE PADRÕES",
      "lon": "-7.984870759399398",
      "lat": "37.63694952476525"
    },
    {
      "id": "pt.ine.add.PTCONT.375432",
      "street": "R ARANNIS",
      "house": "4",
      "postcode": "7780-491",
      "city": "SANTA BÁRBARA DE PADRÕES",
      "lon": "-7.9845875899294265",
      "lat": "37.6369131292712"
    },
    {
      "id": "pt.ine.add.PTCONT.377966",
      "street": "R DA LIBERDADE",
      "house": "",
      "postcode": "7780-494",
      "city": "SANTA BÁRBARA DE PADRÕES",
      "lon": "-7.985040185621242",
      "lat": "37.63721102298342"
    },
    {
      "id": "pt.ine.add.PTCONT.386022",
      "street": "R DA LIBERDADE",
      "house": "2",
      "postcode": "7780-494",
      "city": "SANTA BÁRBARA DE PADRÕES",
      "lon": "-7.985323552744617",
      "lat": "37.63714830935793"
    },
    {
      "id": "pt.ine.add.PTCONT.392264",
      "street": "R DE S MARCOS",
      "house": "1",
      "postcode": "7780-469",
      "city": "SANTA BÁRBARA DE PADRÕES",
      "lon": "-7.984565071066786",
      "lat": "37.637061668742874"
    },
    {
      "id": "pt.ine.add.PTCONT.413150",
      "street": "R DA LIBERDADE",
      "house": "1 A",
      "postcode": "7780-494",
      "city": "SANTA BÁRBARA DE PADRÕES",
      "lon": "-7.985142313619837",
      "lat": "37.63713006251493"
    },
    {
      "id": "pt.ine.add.PTCONT.414156",
      "street": "R FRIA",
      "house": "2",
      "postcode": "7780-479",
      "city": "SANTA BÁRBARA DE PADRÕES",
      "lon": "-7.985085075393176",
      "lat": "37.63742731555331"
    },
    {
      "id": "pt.ine.add.PTCONT.423495",
      "street": "R DE S MARCOS",
      "house": "2",
      "postcode": "7780-469",
      "city": "SANTA BÁRBARA DE PADRÕES",
      "lon": "-7.984722846849045",
      "lat": "37.63726468336349"
    },
    {
      "id": "pt.ine.add.PTCONT.427951",
      "street": "R DO ROSMANINHO",
      "house": "6",
      "postcode": "7780-488",
      "city": "SANTA BÁRBARA DE PADRÕES",
      "lon": "-7.984983912793551",
      "lat": "37.63702174563008"
    },
    {
      "id": "pt.ine.add.PTCONT.443623",
      "street": "LG DA LUZ",
      "house": "4",
      "postcode": "7780-493",
      "city": "SANTA BÁRBARA DE PADRÕES",
      "lon": "-7.985391691350966",
      "lat": "37.63706730609309"
    },
    {
      "id": "pt.ine.add.PTCONT.446171",
      "street": "R DAS FLORES",
      "house": "4",
      "postcode": "7780-462",
      "city": "SANTA BÁRBARA DE PADRÕES",
      "lon": "-7.9847121084852875",
      "lat": "37.636967345015144"
    },
    {
      "id": "pt.ine.add.PTCONT.450801",
      "street": "R DO ROSMANINHO",
      "house": "2",
      "postcode": "7780-488",
      "city": "SANTA BÁRBARA DE PADRÕES",
      "lon": "-7.984972368482251",
      "lat": "37.63712984926176"
    },
    {
      "id": "pt.ine.add.PTCONT.451414",
      "street": "R HORTES",
      "house": "2",
      "postcode": "7780-479",
      "city": "SANTA BÁRBARA DE PADRÕES",
      "lon": "-7.984796039092006",
      "lat": "37.6374317097705"
    },
    {
      "id": "pt.ine.add.PTCONT.455511",
      "street": "R ARANNIS",
      "house": "2",
      "postcode": "7780-469",
      "city": "SANTA BÁRBARA DE PADRÕES",
      "lon": "-7.98456476921286",
      "lat": "37.63699418913747"
    }
  ]
}