{
  "data": {
    "distrito": "Braga",
    "concelho": "Barcelos",
    "freguesia": "União das freguesias de Negreiros e Chavão",
    "OBJECTID": 975,
    "BGRI2021": "0302FB00119",
    "DT21": "03",
    "DTMN21": "0302",
    "DTMNFR21": "0302FB",
    "DTMNFRSEC21": "0302FB001",
    "SECNUM21": "001",
    "SSNUM21": "19",
    "SECSSNUM21": "00119",
    "OBJECTID_1": 20971,
    "DT": "03",
    "CC": "02",
    "fr": "FB",
    "SEC": "001",
    "SS": "19"
  },
  "addresses": [
    {
      "id": "pt.ine.add.PTCONT.478465",
      "street": "R S JOÃO",
      "house": "1743",
      "postcode": "4775-443",
      "city": "CHAVÃO",
      "lon": "-8.599995181675142",
      "lat": "41.45214783854246"
    },
    {
      "id": "pt.ine.add.PTCONT.692850",
      "street": "R S JOÃO",
      "house": "1667",
      "postcode": "4775-443",
      "city": "CHAVÃO",
      "lon": "-8.599172589239606",
      "lat": "41.45259236467886"
    },
    {
      "id": "pt.ine.add.PTCONT.695114",
      "street": "LG S BRAZ",
      "house": "55",
      "postcode": "4775-085",
      "city": "CHAVÃO",
      "lon": "-8.600947333225415",
      "lat": "41.45141465521274"
    },
    {
      "id": "pt.ine.add.PTCONT.709898",
      "street": "R CANGOSTA DA ALDEIA",
      "house": "63",
      "postcode": "4775-084",
      "city": "CHAVÃO",
      "lon": "-8.595550874736615",
      "lat": "41.44986079393607"
    },
    {
      "id": "pt.ine.add.PTCONT.814841",
      "street": "LG COMENDA",
      "house": "20",
      "postcode": "4775-001",
      "city": "CHAVÃO",
      "lon": "-8.599683706852261",
      "lat": "41.45210408281185"
    }
  ]
}