{
  "data": {
    "distrito": "Faro",
    "concelho": "Loulé",
    "freguesia": "União de freguesias de Querença, Tôr e Benafim",
    "OBJECTID": 1834,
    "BGRI2021": "08081200311",
    "DT21": "08",
    "DTMN21": "0808",
    "DTMNFR21": "080812",
    "DTMNFRSEC21": "080812003",
    "SECNUM21": "003",
    "SSNUM21": "11",
    "SECSSNUM21": "00311",
    "OBJECTID_1": 69501,
    "DT": "08",
    "CC": "08",
    "fr": "12",
    "SEC": "003",
    "SS": "11"
  },
  "addresses": [
    {
      "id": "pt.ine.add.PTCONT.1598581",
      "street": "",
      "house": "",
      "postcode": "8100-363",
      "city": "BENAFIM",
      "lon": "-8.129829887812082",
      "lat": "37.2140148874835"
    },
    {
      "id": "pt.ine.add.PTCONT.1648884",
      "street": "SIT NAVE CERDEIROS",
      "house": "",
      "postcode": "8100-363",
      "city": "BENAFIM",
      "lon": "-8.130111584328134",
      "lat": "37.212924624590286"
    },
    {
      "id": "pt.ine.add.PTCONT.1661764",
      "street": "",
      "house": "",
      "postcode": "8100-363",
      "city": "BENAFIM",
      "lon": "-8.130010145616383",
      "lat": "37.214023902833404"
    },
    {
      "id": "pt.ine.add.PTCONT.1687933",
      "street": "",
      "house": "",
      "postcode": "8100-363",
      "city": "BENAFIM",
      "lon": "-8.13053969713206",
      "lat": "37.21275343515199"
    },
    {
      "id": "pt.ine.add.PTCONT.1713658",
      "street": "SIT NAVE CORDEIROS",
      "house": "",
      "postcode": "8100-363",
      "city": "BENAFIM",
      "lon": "-8.130314374180308",
      "lat": "37.212861556049326"
    },
    {
      "id": "pt.ine.add.PTCONT.1719330",
      "street": "SIT NAVE OOS CORDEIROS",
      "house": "",
      "postcode": "8100-363",
      "city": "BENAFIM",
      "lon": "-8.129920038131077",
      "lat": "37.21351030203651"
    },
    {
      "id": "pt.ine.add.PTCONT.1839659",
      "street": "SIT CHARNECA DA NAVE DOS CORDEIROS",
      "house": "",
      "postcode": "8100-355",
      "city": "BENAFIM",
      "lon": "-8.136600949242833",
      "lat": "37.21648375728979"
    }
  ]
}