{
  "data": {
    "distrito": "Viana do Castelo",
    "concelho": "Viana do Castelo",
    "freguesia": "Amonde",
    "OBJECTID": 120,
    "BGRI2021": "16090300102",
    "DT21": "16",
    "DTMN21": "1609",
    "DTMNFR21": "160903",
    "DTMNFRSEC21": "160903001",
    "SECNUM21": "001",
    "SSNUM21": "02",
    "SECSSNUM21": "00102",
    "OBJECTID_1": 179045,
    "DT": "16",
    "CC": "09",
    "fr": "03",
    "SEC": "001",
    "SS": "02"
  },
  "addresses": [
    {
      "id": "pt.ine.add.PTCONT.5142615",
      "street": "CAM SENHOR DA LUZ",
      "house": "",
      "postcode": "4925-301",
      "city": "AMONDE",
      "lon": "-8.75591461862418",
      "lat": "41.785524005381504"
    },
    {
      "id": "pt.ine.add.PTCONT.5184516",
      "street": "TV FONTE DA LOURINHA",
      "house": "",
      "postcode": "4925-301",
      "city": "AMONDE",
      "lon": "-8.755308300408387",
      "lat": "41.78502310363202"
    },
    {
      "id": "pt.ine.add.PTCONT.5184517",
      "street": "TV LAGES",
      "house": "",
      "postcode": "4925-301",
      "city": "AMONDE",
      "lon": "-8.754251542699574",
      "lat": "41.783966427600035"
    },
    {
      "id": "pt.ine.add.PTCONT.5186818",
      "street": "TV LAGES",
      "house": "",
      "postcode": "4925-301",
      "city": "AMONDE",
      "lon": "-8.754544694091576",
      "lat": "41.78318155119349"
    },
    {
      "id": "pt.ine.add.PTCONT.5197101",
      "street": "CAM SENHOR DA LUZ",
      "house": "",
      "postcode": "4925-301",
      "city": "AMONDE",
      "lon": "-8.75662440925918",
      "lat": "41.785529158553764"
    },
    {
      "id": "pt.ine.add.PTCONT.5207949",
      "street": "CAM MANGUEIRA",
      "house": "",
      "postcode": "4925-301",
      "city": "AMONDE",
      "lon": "-8.75526699178273",
      "lat": "41.7844831267607"
    },
    {
      "id": "pt.ine.add.PTCONT.5220554",
      "street": "CAM MANGUEIRA",
      "house": "",
      "postcode": "4925-301",
      "city": "AMONDE",
      "lon": "-8.753967589587134",
      "lat": "41.78321168151866"
    },
    {
      "id": "pt.ine.add.PTCONT.5221614",
      "street": "CAM MANGUEIRA",
      "house": "",
      "postcode": "4925-301",
      "city": "AMONDE",
      "lon": "-8.753833974206335",
      "lat": "41.78307735334729"
    },
    {
      "id": "pt.ine.add.PTCONT.5236893",
      "street": "ESTR AMONDE",
      "house": "",
      "postcode": "4925-301",
      "city": "AMONDE",
      "lon": "-8.754351421496654",
      "lat": "41.78434402799492"
    },
    {
      "id": "pt.ine.add.PTCONT.5239470",
      "street": "CAM GOLAS",
      "house": "",
      "postcode": "4925-301",
      "city": "AMONDE",
      "lon": "-8.754755553507835",
      "lat": "41.78259519289392"
    },
    {
      "id": "pt.ine.add.PTCONT.5243116",
      "street": "TV LAGES",
      "house": "",
      "postcode": "4925-301",
      "city": "AMONDE",
      "lon": "-8.754467709531399",
      "lat": "41.783929245253006"
    },
    {
      "id": "pt.ine.add.PTCONT.5255596",
      "street": "ESTR AMONDE",
      "house": "",
      "postcode": "4925-301",
      "city": "AMONDE",
      "lon": "-8.753743476965344",
      "lat": "41.783672063090485"
    },
    {
      "id": "pt.ine.add.PTCONT.5260366",
      "street": "CAM REGO",
      "house": "",
      "postcode": "4925-301",
      "city": "AMONDE",
      "lon": "-8.754880794502641",
      "lat": "41.783107705864396"
    },
    {
      "id": "pt.ine.add.PTCONT.5275664",
      "street": "ESTR AMONDE",
      "house": "",
      "postcode": "4925-301",
      "city": "AMONDE",
      "lon": "-8.754206034972695",
      "lat": "41.78423677397322"
    }
  ]
}