{
  "data": {
    "distrito": "Coimbra",
    "concelho": "Penacova",
    "freguesia": "Lorvão",
    "OBJECTID": 218,
    "BGRI2021": "06130400105",
    "DT21": "06",
    "DTMN21": "0613",
    "DTMNFR21": "061304",
    "DTMNFRSEC21": "061304001",
    "SECNUM21": "001",
    "SSNUM21": "05",
    "SECSSNUM21": "00105",
    "OBJECTID_1": 55725,
    "DT": "06",
    "CC": "13",
    "fr": "04",
    "SEC": "001",
    "SS": "05"
  },
  "addresses": [
    {
      "id": "pt.ine.add.PTCONT.1101673",
      "street": "R PORTELINHA",
      "house": "C1",
      "postcode": "3360-101",
      "city": "LORVÃO",
      "lon": "-8.33989866231362",
      "lat": "40.26182886643061"
    },
    {
      "id": "pt.ine.add.PTCONT.1115660",
      "street": "R SUL",
      "house": "3",
      "postcode": "3360-101",
      "city": "LORVÃO",
      "lon": "-8.340118803182685",
      "lat": "40.26077479639248"
    },
    {
      "id": "pt.ine.add.PTCONT.1138993",
      "street": "R PORTELINHA",
      "house": "7",
      "postcode": "3360-101",
      "city": "LORVÃO",
      "lon": "-8.340793200957737",
      "lat": "40.26219650147188"
    },
    {
      "id": "pt.ine.add.PTCONT.1148409",
      "street": "ESTR SERRA",
      "house": "",
      "postcode": "3360-101",
      "city": "LORVÃO",
      "lon": "-8.339180627174098",
      "lat": "40.26151494495941"
    },
    {
      "id": "pt.ine.add.PTCONT.1226954",
      "street": "R PORTELINHA",
      "house": "3",
      "postcode": "3360-101",
      "city": "LORVÃO",
      "lon": "-8.340463828325465",
      "lat": "40.262125045882186"
    },
    {
      "id": "pt.ine.add.PTCONT.1233313",
      "street": "AVELEIRA",
      "house": "",
      "postcode": "3360-101",
      "city": "LORVÃO",
      "lon": "-8.341874204236301",
      "lat": "40.26203245231695"
    },
    {
      "id": "pt.ine.add.PTCONT.1245051",
      "street": "ESTR SERRA",
      "house": "",
      "postcode": "3360-101",
      "city": "LORVÃO",
      "lon": "-8.33890921749204",
      "lat": "40.26117320825005"
    },
    {
      "id": "pt.ine.add.PTCONT.1258268",
      "street": "R PORTELINHA",
      "house": "1",
      "postcode": "3360-101",
      "city": "LORVÃO",
      "lon": "-8.340263656215962",
      "lat": "40.262017335020886"
    },
    {
      "id": "pt.ine.add.PTCONT.1301334",
      "street": "R SUL",
      "house": "1",
      "postcode": "3360-101",
      "city": "LORVÃO",
      "lon": "-8.340107679252387",
      "lat": "40.26098194928294"
    },
    {
      "id": "pt.ine.add.PTCONT.1349167",
      "street": "R LAMPACEIRA",
      "house": "2",
      "postcode": "3360-101",
      "city": "LORVÃO",
      "lon": "-8.341917792658366",
      "lat": "40.260915656810134"
    },
    {
      "id": "pt.ine.add.PTCONT.1357686",
      "street": "R PORTELINHA",
      "house": "5",
      "postcode": "3360-101",
      "city": "LORVÃO",
      "lon": "-8.341487131826518",
      "lat": "40.26231232914218"
    }
  ]
}