{
  "data": {
    "distrito": "Vila Real",
    "concelho": "Chaves",
    "freguesia": "São Pedro de Agostém",
    "OBJECTID": 1340,
    "BGRI2021": "17033300104",
    "DT21": "17",
    "DTMN21": "1703",
    "DTMNFR21": "170333",
    "DTMNFRSEC21": "170333001",
    "SECNUM21": "001",
    "SSNUM21": "04",
    "SECSSNUM21": "00104",
    "OBJECTID_1": 180774,
    "DT": "17",
    "CC": "03",
    "fr": "33",
    "SEC": "001",
    "SS": "04"
  },
  "addresses": [
    {
      "id": "pt.ine.add.PTCONT.5295342",
      "street": "R DIREITA",
      "house": "",
      "postcode": "5400-763",
      "city": "SÃO PEDRO DE AGOSTEM",
      "lon": "-7.5081600119192995",
      "lat": "41.666550000918704"
    },
    {
      "id": "pt.ine.add.PTCONT.5306220",
      "street": "TV DA FONTE",
      "house": "1",
      "postcode": "5400-763",
      "city": "SÃO PEDRO DE AGOSTEM",
      "lon": "-7.506765664702012",
      "lat": "41.66670447428348"
    },
    {
      "id": "pt.ine.add.PTCONT.5327694",
      "street": "R FONTE",
      "house": "N 4",
      "postcode": "5400-763",
      "city": "SÃO PEDRO DE AGOSTEM",
      "lon": "-7.507400103223727",
      "lat": "41.666906007502845"
    },
    {
      "id": "pt.ine.add.PTCONT.5337345",
      "street": "R DA FONTE",
      "house": "",
      "postcode": "5400-763",
      "city": "SÃO PEDRO DE AGOSTEM",
      "lon": "-7.507859844519244",
      "lat": "41.66654836839233"
    },
    {
      "id": "pt.ine.add.PTCONT.5347817",
      "street": "R DO TANQUE",
      "house": "1",
      "postcode": "5400-763",
      "city": "SÃO PEDRO DE AGOSTEM",
      "lon": "-7.50633359737797",
      "lat": "41.66668411184751"
    },
    {
      "id": "pt.ine.add.PTCONT.5367002",
      "street": "R DIREITA",
      "house": "16",
      "postcode": "5400-763",
      "city": "SÃO PEDRO DE AGOSTEM",
      "lon": "-7.507953720706051",
      "lat": "41.666773967194736"
    },
    {
      "id": "pt.ine.add.PTCONT.5389751",
      "street": "BC DA EIRA",
      "house": "1",
      "postcode": "5400-763",
      "city": "SÃO PEDRO DE AGOSTEM",
      "lon": "-7.5071010680050225",
      "lat": "41.666787333322986"
    },
    {
      "id": "pt.ine.add.PTCONT.5407655",
      "street": "R DIREITA",
      "house": "1",
      "postcode": "5400-763",
      "city": "SÃO PEDRO DE AGOSTEM",
      "lon": "-7.508053083705524",
      "lat": "41.66643237361331"
    },
    {
      "id": "pt.ine.add.PTCONT.5413196",
      "street": "R DIREITA",
      "house": "24",
      "postcode": "5400-763",
      "city": "SÃO PEDRO DE AGOSTEM",
      "lon": "-7.507182847888094",
      "lat": "41.66702187038295"
    },
    {
      "id": "pt.ine.add.PTCONT.5415696",
      "street": "R DA FONTE",
      "house": "1",
      "postcode": "5400-763",
      "city": "SÃO PEDRO DE AGOSTEM",
      "lon": "-7.507449699257781",
      "lat": "41.66674421403169"
    },
    {
      "id": "pt.ine.add.PTCONT.5418536",
      "street": "BC DA EIRA",
      "house": "3",
      "postcode": "5400-763",
      "city": "SÃO PEDRO DE AGOSTEM",
      "lon": "-7.507268987961037",
      "lat": "41.66680625485016"
    }
  ]
}