{
  "data": {
    "distrito": "Vila Real",
    "concelho": "Chaves",
    "freguesia": "São Pedro de Agostém",
    "OBJECTID": 1398,
    "BGRI2021": "17033300108",
    "DT21": "17",
    "DTMN21": "1703",
    "DTMNFR21": "170333",
    "DTMNFRSEC21": "170333001",
    "SECNUM21": "001",
    "SSNUM21": "08",
    "SECSSNUM21": "00108",
    "OBJECTID_1": 182342,
    "DT": "17",
    "CC": "03",
    "fr": "33",
    "SEC": "001",
    "SS": "08"
  },
  "addresses": [
    {
      "id": "pt.ine.add.PTCONT.5294012",
      "street": "R DA FONTE",
      "house": "7",
      "postcode": "5400-763",
      "city": "SÃO PEDRO DE AGOSTEM",
      "lon": "-7.507828426518636",
      "lat": "41.66731349715196"
    },
    {
      "id": "pt.ine.add.PTCONT.5302272",
      "street": "R DO CANTO",
      "house": "2",
      "postcode": "5400-763",
      "city": "SÃO PEDRO DE AGOSTEM",
      "lon": "-7.507938142945462",
      "lat": "41.66714302701292"
    },
    {
      "id": "pt.ine.add.PTCONT.5356903",
      "street": "R DIREITA",
      "house": "5",
      "postcode": "5400-763",
      "city": "SÃO PEDRO DE AGOSTEM",
      "lon": "-7.508360818301213",
      "lat": "41.66689322660107"
    },
    {
      "id": "pt.ine.add.PTCONT.5375563",
      "street": "R DE STA BÁRBARA",
      "house": "1",
      "postcode": "5400-763",
      "city": "SÃO PEDRO DE AGOSTEM",
      "lon": "-7.513004668833503",
      "lat": "41.669709467840036"
    },
    {
      "id": "pt.ine.add.PTCONT.5381908",
      "street": "R DE PORTELO",
      "house": "",
      "postcode": "5400-763",
      "city": "SÃO PEDRO DE AGOSTEM",
      "lon": "-7.50823726842378",
      "lat": "41.66725269597757"
    },
    {
      "id": "pt.ine.add.PTCONT.5413195",
      "street": "BR NOVO",
      "house": "",
      "postcode": "5400-763",
      "city": "SÃO PEDRO DE AGOSTEM",
      "lon": "-7.508911308850835",
      "lat": "41.66832777801181"
    },
    {
      "id": "pt.ine.add.PTCONT.5415695",
      "street": "R DIREITA",
      "house": "11",
      "postcode": "5400-763",
      "city": "SÃO PEDRO DE AGOSTEM",
      "lon": "-7.507782838553097",
      "lat": "41.66706115042371"
    }
  ]
}