{
  "data": {
    "distrito": "Viseu",
    "concelho": "Castro Daire",
    "freguesia": "Pinheiro",
    "OBJECTID": 164,
    "BGRI2021": "18031900114",
    "DT21": "18",
    "DTMN21": "1803",
    "DTMNFR21": "180319",
    "DTMNFRSEC21": "180319001",
    "SECNUM21": "001",
    "SSNUM21": "14",
    "SECSSNUM21": "00114",
    "OBJECTID_1": 189070,
    "DT": "18",
    "CC": "03",
    "fr": "19",
    "SEC": "001",
    "SS": "14"
  },
  "addresses": [
    {
      "id": "pt.ine.add.PTCONT.5472536",
      "street": "R S CAETANO",
      "house": "283",
      "postcode": "3600-552",
      "city": "PINHEIRO CDR",
      "lon": "-7.993706425490384",
      "lat": "40.918738253598754"
    },
    {
      "id": "pt.ine.add.PTCONT.5525826",
      "street": "R BICA",
      "house": "2",
      "postcode": "3600-552",
      "city": "PINHEIRO CDR",
      "lon": "-7.993610075287696",
      "lat": "40.919395484482585"
    },
    {
      "id": "pt.ine.add.PTCONT.5540280",
      "street": "R FLORES",
      "house": "",
      "postcode": "3600-552",
      "city": "PINHEIRO CDR",
      "lon": "-7.993622495391322",
      "lat": "40.919134361509016"
    },
    {
      "id": "pt.ine.add.PTCONT.5551239",
      "street": "TV BOAVISTA",
      "house": "11",
      "postcode": "3600-552",
      "city": "PINHEIRO CDR",
      "lon": "-7.993516318507621",
      "lat": "40.918819066469766"
    },
    {
      "id": "pt.ine.add.PTCONT.5640630",
      "street": "R S CAETANO",
      "house": "238",
      "postcode": "3600-552",
      "city": "PINHEIRO CDR",
      "lon": "-7.993588339994838",
      "lat": "40.918440953727846"
    },
    {
      "id": "pt.ine.add.PTCONT.5645919",
      "street": "R BICA",
      "house": "",
      "postcode": "3600-552",
      "city": "PINHEIRO CDR",
      "lon": "-7.992886182640814",
      "lat": "40.919277544685784"
    }
  ]
}