{
  "data": {
    "distrito": "Coimbra",
    "concelho": "Montemor-O-Velho",
    "freguesia": "União das freguesias de Montemor-o-Velho e Gatões",
    "OBJECTID": 481,
    "BGRI2021": "06101600130",
    "DT21": "06",
    "DTMN21": "0610",
    "DTMNFR21": "061016",
    "DTMNFRSEC21": "061016001",
    "SECNUM21": "001",
    "SSNUM21": "30",
    "SECSSNUM21": "00130",
    "OBJECTID_1": 53870,
    "DT": "06",
    "CC": "10",
    "fr": "16",
    "SEC": "001",
    "SS": "30"
  },
  "addresses": [
    {
      "id": "pt.ine.add.PTCONT.1124436",
      "street": "R STA MARIA MADALENA",
      "house": "",
      "postcode": "3140-260",
      "city": "MONTEMOR-O-VELHO",
      "lon": "-8.683114725146059",
      "lat": "40.175250645392644"
    },
    {
      "id": "pt.ine.add.PTCONT.1146446",
      "street": "R MADALENA",
      "house": "",
      "postcode": "3140-260",
      "city": "MONTEMOR-O-VELHO",
      "lon": "-8.683098887289969",
      "lat": "40.17501331097184"
    },
    {
      "id": "pt.ine.add.PTCONT.1159039",
      "street": "R MADALENA",
      "house": "",
      "postcode": "3140-260",
      "city": "MONTEMOR-O-VELHO",
      "lon": "-8.68312646511718",
      "lat": "40.175250589620525"
    },
    {
      "id": "pt.ine.add.PTCONT.1180032",
      "street": "R CASTELO",
      "house": "",
      "postcode": "3140-264",
      "city": "MONTEMOR-O-VELHO",
      "lon": "-8.685383883317767",
      "lat": "40.17420416998782"
    },
    {
      "id": "pt.ine.add.PTCONT.1180031",
      "street": "R CASTELO",
      "house": "",
      "postcode": "3140-264",
      "city": "MONTEMOR-O-VELHO",
      "lon": "-8.68559240266134",
      "lat": "40.17417924026966"
    },
    {
      "id": "pt.ine.add.PTCONT.1218625",
      "street": "R CASTELO",
      "house": "",
      "postcode": "3140-264",
      "city": "MONTEMOR-O-VELHO",
      "lon": "-8.685267945217587",
      "lat": "40.17438484009355"
    },
    {
      "id": "pt.ine.add.PTCONT.1230982",
      "street": "R CASTELO",
      "house": "",
      "postcode": "3140-264",
      "city": "MONTEMOR-O-VELHO",
      "lon": "-8.685161046293695",
      "lat": "40.17423225030583"
    },
    {
      "id": "pt.ine.add.PTCONT.1261998",
      "street": "R CASTELO",
      "house": "8",
      "postcode": "3140-264",
      "city": "MONTEMOR-O-VELHO",
      "lon": "-8.684948052287735",
      "lat": "40.17402613101202"
    },
    {
      "id": "pt.ine.add.PTCONT.1281979",
      "street": "R CASTELO",
      "house": "",
      "postcode": "3140-264",
      "city": "MONTEMOR-O-VELHO",
      "lon": "-8.68551324002693",
      "lat": "40.17423057043464"
    },
    {
      "id": "pt.ine.add.PTCONT.1300399",
      "street": "R ABADE JOAO",
      "house": "N 2",
      "postcode": "3140-251",
      "city": "MONTEMOR-O-VELHO",
      "lon": "-8.68483029007227",
      "lat": "40.173981662966824"
    },
    {
      "id": "pt.ine.add.PTCONT.1313022",
      "street": "R MADALENA",
      "house": "",
      "postcode": "3140-260",
      "city": "MONTEMOR-O-VELHO",
      "lon": "-8.68312646511718",
      "lat": "40.175250589620525"
    }
  ]
}