{
  "data": {
    "distrito": "Faro",
    "concelho": "Faro",
    "freguesia": "União das freguesias de Conceição e Estoi",
    "OBJECTID": 698,
    "BGRI2021": "08050700216",
    "DT21": "08",
    "DTMN21": "0805",
    "DTMNFR21": "080507",
    "DTMNFRSEC21": "080507002",
    "SECNUM21": "002",
    "SSNUM21": "16",
    "SECSSNUM21": "00216",
    "OBJECTID_1": 66276,
    "DT": "08",
    "CC": "05",
    "fr": "07",
    "SEC": "002",
    "SS": "16"
  },
  "addresses": [
    {
      "id": "pt.ine.add.PTCONT.1468194",
      "street": "MTE CANADA ESTRADA DE MONCARAPACHO",
      "house": "",
      "postcode": "8005-539",
      "city": "FARO",
      "lon": "-7.89109931708701",
      "lat": "37.09080946819391"
    },
    {
      "id": "pt.ine.add.PTCONT.1512308",
      "street": "VALE SEIXO",
      "house": "CX124",
      "postcode": "8005-539",
      "city": "FARO",
      "lon": "-7.891914467856458",
      "lat": "37.0891351451547"
    },
    {
      "id": "pt.ine.add.PTCONT.1515875",
      "street": "ESTR MONCARAPACHO",
      "house": "",
      "postcode": "8005-539",
      "city": "FARO",
      "lon": "-7.890437278750607",
      "lat": "37.09031252882777"
    },
    {
      "id": "pt.ine.add.PTCONT.1573091",
      "street": "",
      "house": "",
      "postcode": "8005-539",
      "city": "FARO",
      "lon": "-7.889090722392149",
      "lat": "37.08581344275201"
    },
    {
      "id": "pt.ine.add.PTCONT.1643818",
      "street": "R OLHÃO",
      "house": "119",
      "postcode": "8005-464",
      "city": "FARO",
      "lon": "-7.893278943088698",
      "lat": "37.09158881312681"
    },
    {
      "id": "pt.ine.add.PTCONT.1665289",
      "street": "",
      "house": "",
      "postcode": "8005-539",
      "city": "FARO",
      "lon": "-7.8922961139717644",
      "lat": "37.08937920870761"
    },
    {
      "id": "pt.ine.add.PTCONT.1676562",
      "street": "",
      "house": "",
      "postcode": "8005-539",
      "city": "FARO",
      "lon": "-7.891357157216551",
      "lat": "37.08753912227131"
    },
    {
      "id": "pt.ine.add.PTCONT.1689653",
      "street": "",
      "house": "",
      "postcode": "8005-539",
      "city": "FARO",
      "lon": "-7.891791602128606",
      "lat": "37.08886457521593"
    },
    {
      "id": "pt.ine.add.PTCONT.1744690",
      "street": "ESTR OLHÃO",
      "house": "147R",
      "postcode": "8005-539",
      "city": "FARO",
      "lon": "-7.891774621040672",
      "lat": "37.08712548173497"
    },
    {
      "id": "pt.ine.add.PTCONT.1744691",
      "street": "ESTR OLHÃO",
      "house": "147R",
      "postcode": "8005-539",
      "city": "FARO",
      "lon": "-7.891774621040672",
      "lat": "37.08712548173497"
    },
    {
      "id": "pt.ine.add.PTCONT.1767558",
      "street": "ESTR OLHÃO",
      "house": "",
      "postcode": "8005-539",
      "city": "FARO",
      "lon": "-7.892122001381401",
      "lat": "37.0875316682222"
    },
    {
      "id": "pt.ine.add.PTCONT.1769286",
      "street": "R MONCARAPACHO",
      "house": "95 A",
      "postcode": "8005-539",
      "city": "FARO",
      "lon": "-7.893109770129074",
      "lat": "37.09173264148866"
    },
    {
      "id": "pt.ine.add.PTCONT.1787056",
      "street": "",
      "house": "",
      "postcode": "8005-539",
      "city": "FARO",
      "lon": "-7.891177630191915",
      "lat": "37.087403596150544"
    },
    {
      "id": "pt.ine.add.PTCONT.1789872",
      "street": "R OLHÃO",
      "house": "",
      "postcode": "8005-464",
      "city": "FARO",
      "lon": "-7.892640575052485",
      "lat": "37.090713486082336"
    },
    {
      "id": "pt.ine.add.PTCONT.1797329",
      "street": "VALE DE SEIXO",
      "house": "127R",
      "postcode": "8005-539",
      "city": "FARO",
      "lon": "-7.8915104150183",
      "lat": "37.08886400272325"
    },
    {
      "id": "pt.ine.add.PTCONT.1797330",
      "street": "VALE DE SEIXO",
      "house": "127R",
      "postcode": "8005-539",
      "city": "FARO",
      "lon": "-7.8915104150183",
      "lat": "37.08886400272325"
    },
    {
      "id": "pt.ine.add.PTCONT.1801807",
      "street": "VALE DE SEIRO",
      "house": "",
      "postcode": "8005-539",
      "city": "FARO",
      "lon": "-7.892931993121243",
      "lat": "37.09103846052442"
    },
    {
      "id": "pt.ine.add.PTCONT.1801808",
      "street": "VALE DE SEIRO",
      "house": "",
      "postcode": "8005-539",
      "city": "FARO",
      "lon": "-7.892931993121243",
      "lat": "37.09103846052442"
    },
    {
      "id": "pt.ine.add.PTCONT.1835317",
      "street": "VALE DE MOURO",
      "house": "6023",
      "postcode": "8005-539",
      "city": "FARO",
      "lon": "-7.889187932280161",
      "lat": "37.087066125839286"
    }
  ]
}