{
  "data": {
    "distrito": "Lisboa",
    "concelho": "Cadaval",
    "freguesia": "União das freguesias de Lamas e Cercal",
    "OBJECTID": 167,
    "BGRI2021": "11041200117",
    "DT21": "11",
    "DTMN21": "1104",
    "DTMNFR21": "110412",
    "DTMNFRSEC21": "110412001",
    "SECNUM21": "001",
    "SSNUM21": "17",
    "SECSSNUM21": "00117",
    "OBJECTID_1": 100378,
    "DT": "11",
    "CC": "04",
    "fr": "12",
    "SEC": "001",
    "SS": "17"
  },
  "addresses": [
    {
      "id": "pt.ine.add.PTCONT.2274448",
      "street": "R CAPELA",
      "house": "7",
      "postcode": "2550-377",
      "city": "LAMAS CDV",
      "lon": "-9.050285979499824",
      "lat": "39.22165332348779"
    },
    {
      "id": "pt.ine.add.PTCONT.2414551",
      "street": "R CAPELA",
      "house": "5",
      "postcode": "2550-377",
      "city": "LAMAS CDV",
      "lon": "-9.050192296293925",
      "lat": "39.22157299653455"
    },
    {
      "id": "pt.ine.add.PTCONT.2804686",
      "street": "R S VICENTE",
      "house": "1",
      "postcode": "2550-377",
      "city": "LAMAS CDV",
      "lon": "-9.051229004719241",
      "lat": "39.222042209952974"
    },
    {
      "id": "pt.ine.add.PTCONT.2999880",
      "street": "R CAPELA",
      "house": "3",
      "postcode": "2550-377",
      "city": "LAMAS CDV",
      "lon": "-9.049829612694886",
      "lat": "39.22128762182529"
    },
    {
      "id": "pt.ine.add.PTCONT.3145204",
      "street": "R LAJES",
      "house": "4",
      "postcode": "2550-377",
      "city": "LAMAS CDV",
      "lon": "-9.050154044926783",
      "lat": "39.22130308241812"
    },
    {
      "id": "pt.ine.add.PTCONT.3195039",
      "street": "R CAPELA",
      "house": "13",
      "postcode": "2550-377",
      "city": "LAMAS CDV",
      "lon": "-9.050869481208789",
      "lat": "39.222000007339034"
    },
    {
      "id": "pt.ine.add.PTCONT.3268612",
      "street": "LG NSA SRA DO ROSÁRIO",
      "house": "1",
      "postcode": "2550-377",
      "city": "LAMAS CDV",
      "lon": "-9.051009128331104",
      "lat": "39.222052950015396"
    },
    {
      "id": "pt.ine.add.PTCONT.3351338",
      "street": "R CAPELA",
      "house": "9",
      "postcode": "2550-377",
      "city": "LAMAS CDV",
      "lon": "-9.050379311255982",
      "lat": "39.221706631605876"
    },
    {
      "id": "pt.ine.add.PTCONT.3433518",
      "street": "R CAPELA",
      "house": "1",
      "postcode": "2550-377",
      "city": "LAMAS CDV",
      "lon": "-9.049561316337224",
      "lat": "39.22113661103177"
    }
  ]
}