{
  "data": {
    "distrito": "Lisboa",
    "concelho": "Torres Vedras",
    "freguesia": "União das freguesias de Campelos e Outeiro da Cabeça",
    "OBJECTID": 1471,
    "BGRI2021": "11132200342",
    "DT21": "11",
    "DTMN21": "1113",
    "DTMNFR21": "111322",
    "DTMNFRSEC21": "111322003",
    "SECNUM21": "003",
    "SSNUM21": "42",
    "SECSSNUM21": "00342",
    "OBJECTID_1": 115039,
    "DT": "11",
    "CC": "13",
    "fr": "22",
    "SEC": "003",
    "SS": "42"
  },
  "addresses": [
    {
      "id": "pt.ine.add.PTCONT.2272374",
      "street": "ESTR VALE CANIÇOS",
      "house": "35",
      "postcode": "2565-003",
      "city": "CAMPELOS",
      "lon": "-9.215392342035512",
      "lat": "39.195466705032224"
    },
    {
      "id": "pt.ine.add.PTCONT.2401091",
      "street": "R VALE CANIÇOS",
      "house": "9",
      "postcode": "2565-003",
      "city": "CAMPELOS",
      "lon": "-9.21203237942369",
      "lat": "39.19980327490102"
    },
    {
      "id": "pt.ine.add.PTCONT.2803745",
      "street": "ESTR VALE CANIÇOS",
      "house": "33",
      "postcode": "2565-003",
      "city": "CAMPELOS",
      "lon": "-9.215143247091794",
      "lat": "39.1958293037772"
    },
    {
      "id": "pt.ine.add.PTCONT.2814627",
      "street": "R PRINCIPAL DO BREJO",
      "house": "1",
      "postcode": "2565-003",
      "city": "CAMPELOS",
      "lon": "-9.215245231910824",
      "lat": "39.19644084078437"
    },
    {
      "id": "pt.ine.add.PTCONT.2951308",
      "street": "R PRINCIPAL DO BREJO",
      "house": "5",
      "postcode": "2565-003",
      "city": "CAMPELOS",
      "lon": "-9.215812626069605",
      "lat": "39.19645358319621"
    },
    {
      "id": "pt.ine.add.PTCONT.2968066",
      "street": "R PRINCIPAL BREJO",
      "house": "18",
      "postcode": "2565-003",
      "city": "CAMPELOS",
      "lon": "-9.217170777842094",
      "lat": "39.19670215945035"
    },
    {
      "id": "pt.ine.add.PTCONT.3262571",
      "street": "R PRINCIPAL DO BREJO",
      "house": "11",
      "postcode": "2565-003",
      "city": "CAMPELOS",
      "lon": "-9.216523056155744",
      "lat": "39.19673520632918"
    }
  ]
}