{
  "data": {
    "distrito": "Porto",
    "concelho": "Marco de Canaveses",
    "freguesia": "Soalhães",
    "OBJECTID": 660,
    "BGRI2021": "13072200313",
    "DT21": "13",
    "DTMN21": "1307",
    "DTMNFR21": "130722",
    "DTMNFRSEC21": "130722003",
    "SECNUM21": "003",
    "SSNUM21": "13",
    "SECSSNUM21": "00313",
    "OBJECTID_1": 131124,
    "DT": "13",
    "CC": "07",
    "fr": "22",
    "SEC": "003",
    "SS": "13"
  },
  "addresses": [
    {
      "id": "pt.ine.add.PTCONT.3582146",
      "street": "R AMBARÃO",
      "house": "813",
      "postcode": "4630-613",
      "city": "SOALHÃES",
      "lon": "-8.116735496951653",
      "lat": "41.16933739725529"
    },
    {
      "id": "pt.ine.add.PTCONT.3657352",
      "street": "TV MATOS",
      "house": "23",
      "postcode": "4630-765",
      "city": "SOALHÃES",
      "lon": "-8.119476241513377",
      "lat": "41.16922970178715"
    },
    {
      "id": "pt.ine.add.PTCONT.3735317",
      "street": "TV MATOS",
      "house": "54",
      "postcode": "4630-765",
      "city": "SOALHÃES",
      "lon": "-8.119226095200895",
      "lat": "41.16878845774015"
    },
    {
      "id": "pt.ine.add.PTCONT.3760757",
      "street": "R PEREIRO",
      "house": "351 CASA 2",
      "postcode": "4630-705",
      "city": "SOALHÃES",
      "lon": "-8.118844516885837",
      "lat": "41.17000400109847"
    },
    {
      "id": "pt.ine.add.PTCONT.3872656",
      "street": "R AMBARÃO",
      "house": "617",
      "postcode": "4630-613",
      "city": "SOALHÃES",
      "lon": "-8.116652326986808",
      "lat": "41.168364913328816"
    },
    {
      "id": "pt.ine.add.PTCONT.3976882",
      "street": "R MATOS",
      "house": "5",
      "postcode": "4630-765",
      "city": "SOALHÃES",
      "lon": "-8.119321240780074",
      "lat": "41.16966189310511"
    },
    {
      "id": "pt.ine.add.PTCONT.4077769",
      "street": "R MATOS",
      "house": "85",
      "postcode": "4630-765",
      "city": "SOALHÃES",
      "lon": "-8.119905190875642",
      "lat": "41.169391830421276"
    },
    {
      "id": "pt.ine.add.PTCONT.4143554",
      "street": "TV MATOS",
      "house": "49",
      "postcode": "4630-765",
      "city": "SOALHÃES",
      "lon": "-8.118415606378957",
      "lat": "41.16966178114344"
    },
    {
      "id": "pt.ine.add.PTCONT.4366690",
      "street": "R AMBARÃO",
      "house": "799",
      "postcode": "4630-613",
      "city": "SOALHÃES",
      "lon": "-8.116985741214092",
      "lat": "41.16931942381385"
    },
    {
      "id": "pt.ine.add.PTCONT.4375155",
      "street": "R PEREIRO",
      "house": "351 CASA 1",
      "postcode": "4630-705",
      "city": "SOALHÃES",
      "lon": "-8.119023296158845",
      "lat": "41.16984194444997"
    }
  ]
}