{
  "data": {
    "distrito": "Évora",
    "concelho": "Vila Viçosa",
    "freguesia": "Nossa Senhora da Conceição e São Bartolomeu",
    "OBJECTID": 34,
    "BGRI2021": "07140600214",
    "DT21": "07",
    "DTMN21": "0714",
    "DTMNFR21": "071406",
    "DTMNFRSEC21": "071406002",
    "SECNUM21": "002",
    "SSNUM21": "14",
    "SECSSNUM21": "00214",
    "OBJECTID_1": 64143,
    "DT": "07",
    "CC": "14",
    "fr": "06",
    "SEC": "002",
    "SS": "14"
  },
  "addresses": [
    {
      "id": "pt.ine.add.PTCONT.1373544",
      "street": "LG PLAMES",
      "house": "124",
      "postcode": "7160-210",
      "city": "VILA VIÇOSA",
      "lon": "-7.414097310679996",
      "lat": "38.782862813744536"
    },
    {
      "id": "pt.ine.add.PTCONT.1385507",
      "street": "R CAPUCHOS",
      "house": "5",
      "postcode": "7160-211",
      "city": "VILA VIÇOSA",
      "lon": "-7.4116562905401",
      "lat": "38.78140544844631"
    },
    {
      "id": "pt.ine.add.PTCONT.1400607",
      "street": "OUTEIRO DO FICALHO",
      "house": "2",
      "postcode": "7160-239",
      "city": "VILA VIÇOSA",
      "lon": "-7.412226419817446",
      "lat": "38.78078741922881"
    },
    {
      "id": "pt.ine.add.PTCONT.1405091",
      "street": "OUTEIRO DO FICALHO",
      "house": "",
      "postcode": "7160-239",
      "city": "VILA VIÇOSA",
      "lon": "-7.412433638309267",
      "lat": "38.781923697219376"
    },
    {
      "id": "pt.ine.add.PTCONT.1413497",
      "street": "R CAPUCHOS",
      "house": "4",
      "postcode": "7160-211",
      "city": "VILA VIÇOSA",
      "lon": "-7.4118076132561255",
      "lat": "38.78123523178201"
    },
    {
      "id": "pt.ine.add.PTCONT.1432933",
      "street": "LG CAPUCHOS",
      "house": "",
      "postcode": "7160-211",
      "city": "VILA VIÇOSA",
      "lon": "-7.4112111131162415",
      "lat": "38.782763293642496"
    },
    {
      "id": "pt.ine.add.PTCONT.1440896",
      "street": "FORRAGIAL AOS FOGOS",
      "house": "",
      "postcode": "7160-239",
      "city": "VILA VIÇOSA",
      "lon": "-7.413557859462928",
      "lat": "38.782281934340084"
    },
    {
      "id": "pt.ine.add.PTCONT.1452690",
      "street": "ESTR CAPUCHOS",
      "house": "",
      "postcode": "7160-211",
      "city": "VILA VIÇOSA",
      "lon": "-7.4113314449117915",
      "lat": "38.781664672636786"
    },
    {
      "id": "pt.ine.add.PTCONT.1453692",
      "street": "OUTEIRO DO FICALHO",
      "house": "",
      "postcode": "7160-239",
      "city": "VILA VIÇOSA",
      "lon": "-7.4112385665737985",
      "lat": "38.78174517035741"
    },
    {
      "id": "pt.ine.add.PTCONT.1456532",
      "street": "OUTEIRO DO FICALHO",
      "house": "",
      "postcode": "7160-239",
      "city": "VILA VIÇOSA",
      "lon": "-7.412748604833628",
      "lat": "38.78150226622957"
    },
    {
      "id": "pt.ine.add.PTCONT.1464620",
      "street": "ESTR CAPUCHOS",
      "house": "",
      "postcode": "7160-210",
      "city": "VILA VIÇOSA",
      "lon": "-7.412022324396719",
      "lat": "38.78102781955401"
    },
    {
      "id": "pt.ine.add.PTCONT.1466089",
      "street": "OUTEIRO DO FICALHO",
      "house": "",
      "postcode": "7160-239",
      "city": "VILA VIÇOSA",
      "lon": "-7.41287428212881",
      "lat": "38.78044911229964"
    }
  ]
}