{
  "data": {
    "distrito": "Braga",
    "concelho": "Fafe",
    "freguesia": "Golães",
    "OBJECTID": 526,
    "BGRI2021": "03071400127",
    "DT21": "03",
    "DTMN21": "0307",
    "DTMNFR21": "030714",
    "DTMNFRSEC21": "030714001",
    "SECNUM21": "001",
    "SSNUM21": "27",
    "SECSSNUM21": "00127",
    "OBJECTID_1": 25992,
    "DT": "03",
    "CC": "07",
    "fr": "14",
    "SEC": "001",
    "SS": "27"
  },
  "addresses": [
    {
      "id": "pt.ine.add.PTCONT.528604",
      "street": "R PADRE EDUARDO LOBO",
      "house": "296",
      "postcode": "4820-476",
      "city": "GOLÃES",
      "lon": "-8.194085760074536",
      "lat": "41.46655796981626"
    },
    {
      "id": "pt.ine.add.PTCONT.563956",
      "street": "R PADRE EDUARDO LOBO",
      "house": "",
      "postcode": "4820-476",
      "city": "GOLÃES",
      "lon": "-8.194349084216453",
      "lat": "41.46653081822119"
    },
    {
      "id": "pt.ine.add.PTCONT.580519",
      "street": "TV PORTELADA",
      "house": "4",
      "postcode": "4820-465",
      "city": "GOLÃES",
      "lon": "-8.192720347047535",
      "lat": "41.46570331462805"
    },
    {
      "id": "pt.ine.add.PTCONT.607885",
      "street": "R CALVÁRIO",
      "house": "5",
      "postcode": "4820-449",
      "city": "GOLÃES",
      "lon": "-8.194636400059565",
      "lat": "41.46655767661258"
    },
    {
      "id": "pt.ine.add.PTCONT.633933",
      "street": "TV CALVÁRIO",
      "house": "125",
      "postcode": "4820-449",
      "city": "GOLÃES",
      "lon": "-8.193547057070397",
      "lat": "41.46652223850015"
    },
    {
      "id": "pt.ine.add.PTCONT.643964",
      "street": "R MARCA",
      "house": "218",
      "postcode": "4820-476",
      "city": "GOLÃES",
      "lon": "-8.191152778652743",
      "lat": "41.46630737785738"
    },
    {
      "id": "pt.ine.add.PTCONT.652651",
      "street": "R MARCA",
      "house": "160",
      "postcode": "4820-476",
      "city": "GOLÃES",
      "lon": "-8.191512043840833",
      "lat": "41.46647827018219"
    },
    {
      "id": "pt.ine.add.PTCONT.657382",
      "street": "R PORTELADA",
      "house": "8S",
      "postcode": "4820-465",
      "city": "GOLÃES",
      "lon": "-8.192529192522576",
      "lat": "41.466108589218926"
    },
    {
      "id": "pt.ine.add.PTCONT.682066",
      "street": "TV CALVÁRIO",
      "house": "71",
      "postcode": "4820-449",
      "city": "GOLÃES",
      "lon": "-8.193786373291772",
      "lat": "41.466423069577516"
    },
    {
      "id": "pt.ine.add.PTCONT.725895",
      "street": "R BAIRRO",
      "house": "42",
      "postcode": "4820-445",
      "city": "GOLÃES",
      "lon": "-8.191535443116525",
      "lat": "41.46587499674262"
    },
    {
      "id": "pt.ine.add.PTCONT.734726",
      "street": "TV PORTELADA",
      "house": "9",
      "postcode": "4820-465",
      "city": "GOLÃES",
      "lon": "-8.192397182357887",
      "lat": "41.46573949726042"
    },
    {
      "id": "pt.ine.add.PTCONT.775095",
      "street": "TV CALVÁRIO",
      "house": "",
      "postcode": "4820-449",
      "city": "GOLÃES",
      "lon": "-8.193606766926445",
      "lat": "41.466369140755674"
    },
    {
      "id": "pt.ine.add.PTCONT.785786",
      "street": "R PORTELADA",
      "house": "67",
      "postcode": "4820-465",
      "city": "GOLÃES",
      "lon": "-8.192576925844145",
      "lat": "41.46594649427934"
    },
    {
      "id": "pt.ine.add.PTCONT.827760",
      "street": "R PORTELADA",
      "house": "175",
      "postcode": "4820-465",
      "city": "GOLÃES",
      "lon": "-8.19239686247822",
      "lat": "41.46538834513872"
    },
    {
      "id": "pt.ine.add.PTCONT.838943",
      "street": "TV PORTELADA",
      "house": "12",
      "postcode": "4820-465",
      "city": "GOLÃES",
      "lon": "-8.192576613219275",
      "lat": "41.46560434607197"
    }
  ]
}