{
  "data": {
    "distrito": "Leiria",
    "concelho": "Caldas da Rainha",
    "freguesia": "Alvorninha",
    "OBJECTID": 896,
    "BGRI2021": "10060200318",
    "DT21": "10",
    "DTMN21": "1006",
    "DTMNFR21": "100602",
    "DTMNFRSEC21": "100602003",
    "SECNUM21": "003",
    "SSNUM21": "18",
    "SECSSNUM21": "00318",
    "OBJECTID_1": 87553,
    "DT": "10",
    "CC": "06",
    "fr": "02",
    "SEC": "003",
    "SS": "18"
  },
  "addresses": [
    {
      "id": "pt.ine.add.PTCONT.1979583",
      "street": "R ESCOLA VELHA",
      "house": "33",
      "postcode": "2500-368",
      "city": "ALVORNINHA",
      "lon": "-9.062136597826697",
      "lat": "39.39647607195873"
    },
    {
      "id": "pt.ine.add.PTCONT.2023143",
      "street": "R TANQUE",
      "house": "8",
      "postcode": "2500-368",
      "city": "ALVORNINHA",
      "lon": "-9.057867225969568",
      "lat": "39.39667221065289"
    },
    {
      "id": "pt.ine.add.PTCONT.2035698",
      "street": "R CASAL GOMES",
      "house": "11",
      "postcode": "2500-368",
      "city": "ALVORNINHA",
      "lon": "-9.061312803809596",
      "lat": "39.393879651129545"
    },
    {
      "id": "pt.ine.add.PTCONT.2045883",
      "street": "R ESCOLA VELHA",
      "house": "23",
      "postcode": "2500-368",
      "city": "ALVORNINHA",
      "lon": "-9.060797301153714",
      "lat": "39.397027173410294"
    },
    {
      "id": "pt.ine.add.PTCONT.2053419",
      "street": "R ESCOLA",
      "house": "15",
      "postcode": "2500-368",
      "city": "ALVORNINHA",
      "lon": "-9.059402804226828",
      "lat": "39.39779486469825"
    },
    {
      "id": "pt.ine.add.PTCONT.2124912",
      "street": "R CASAL GOMES",
      "house": "17",
      "postcode": "2500-368",
      "city": "ALVORNINHA",
      "lon": "-9.061961717109076",
      "lat": "39.39379340998111"
    },
    {
      "id": "pt.ine.add.PTCONT.2150937",
      "street": "R ESCOLA VELHA",
      "house": "27",
      "postcode": "2500-368",
      "city": "ALVORNINHA",
      "lon": "-9.061233371792332",
      "lat": "39.39664540538565"
    },
    {
      "id": "pt.ine.add.PTCONT.2164044",
      "street": "R CASAL GOMES",
      "house": "8",
      "postcode": "2500-368",
      "city": "ALVORNINHA",
      "lon": "-9.060513952448913",
      "lat": "39.39403913924228"
    }
  ]
}