{
  "data": {
    "distrito": "Leiria",
    "concelho": "Leiria",
    "freguesia": "Maceira",
    "OBJECTID": 832,
    "BGRI2021": "10091300215",
    "DT21": "10",
    "DTMN21": "1009",
    "DTMNFR21": "100913",
    "DTMNFRSEC21": "100913002",
    "SECNUM21": "002",
    "SSNUM21": "15",
    "SECSSNUM21": "00215",
    "OBJECTID_1": 89619,
    "DT": "10",
    "CC": "09",
    "fr": "13",
    "SEC": "002",
    "SS": "15"
  },
  "addresses": [
    {
      "id": "pt.ine.add.PTCONT.2057615",
      "street": "R LARANJEIRAS",
      "house": "6",
      "postcode": "2405-002",
      "city": "MACEIRA LRA",
      "lon": "-8.911191322487692",
      "lat": "39.702848943790386"
    },
    {
      "id": "pt.ine.add.PTCONT.2062444",
      "street": "ESTR MARINHA GRANDE",
      "house": "",
      "postcode": "2405-002",
      "city": "MACEIRA LRA",
      "lon": "-8.910617606544909",
      "lat": "39.702636630862685"
    },
    {
      "id": "pt.ine.add.PTCONT.2086265",
      "street": "ESTR MARINHA GRANDE",
      "house": "21",
      "postcode": "2405-002",
      "city": "MACEIRA LRA",
      "lon": "-8.910843676183672",
      "lat": "39.70304040961982"
    },
    {
      "id": "pt.ine.add.PTCONT.2108259",
      "street": "R ROSSIO",
      "house": "1",
      "postcode": "2405-002",
      "city": "MACEIRA LRA",
      "lon": "-8.910437871949249",
      "lat": "39.70220552190816"
    },
    {
      "id": "pt.ine.add.PTCONT.2130103",
      "street": "R BERGEIRA",
      "house": "2",
      "postcode": "2405-002",
      "city": "MACEIRA LRA",
      "lon": "-8.910636881425415",
      "lat": "39.70227624146912"
    },
    {
      "id": "pt.ine.add.PTCONT.2155785",
      "street": "R LARANJEIRAS",
      "house": "4A",
      "postcode": "2405-002",
      "city": "MACEIRA LRA",
      "lon": "-8.911189400672631",
      "lat": "39.702677833030364"
    },
    {
      "id": "pt.ine.add.PTCONT.2186331",
      "street": "ESTR MARINHA GRANDE",
      "house": "15",
      "postcode": "2405-002",
      "city": "MACEIRA LRA",
      "lon": "-8.910097643449728",
      "lat": "39.70201866249903"
    },
    {
      "id": "pt.ine.add.PTCONT.2213427",
      "street": "R LARANJEIRAS",
      "house": "8",
      "postcode": "2405-002",
      "city": "MACEIRA LRA",
      "lon": "-8.91136701658431",
      "lat": "39.70291981832622"
    },
    {
      "id": "pt.ine.add.PTCONT.2257146",
      "street": "R LARANJEIRAS",
      "house": "2",
      "postcode": "2405-002",
      "city": "MACEIRA LRA",
      "lon": "-8.91101229163065",
      "lat": "39.702480876592304"
    },
    {
      "id": "pt.ine.add.PTCONT.2266734",
      "street": "R LARANJEIRAS",
      "house": "4",
      "postcode": "2405-002",
      "city": "MACEIRA LRA",
      "lon": "-8.910979236146684",
      "lat": "39.70265222169852"
    }
  ]
}