{
  "data": {
    "distrito": "Braga",
    "concelho": "Vila Verde",
    "freguesia": "União das freguesias de Esqueiros, Nevogilde e Travassós",
    "OBJECTID": 1079,
    "BGRI2021": "03136300115",
    "DT21": "03",
    "DTMN21": "0313",
    "DTMNFR21": "031363",
    "DTMNFRSEC21": "031363001",
    "SECNUM21": "001",
    "SSNUM21": "15",
    "SECSSNUM21": "00115",
    "OBJECTID_1": 32409,
    "DT": "03",
    "CC": "13",
    "fr": "63",
    "SEC": "001",
    "SS": "15"
  },
  "addresses": [
    {
      "id": "pt.ine.add.PTCONT.541960",
      "street": "R SÃO MARTINHO",
      "house": "448",
      "postcode": "4730-585",
      "city": "TRAVASSÓS VVD",
      "lon": "-8.461646767010814",
      "lat": "41.66494335266864"
    },
    {
      "id": "pt.ine.add.PTCONT.550646",
      "street": "R DA DEVESA",
      "house": "12",
      "postcode": "4730-585",
      "city": "TRAVASSÓS VVD",
      "lon": "-8.464176167143764",
      "lat": "41.66414378026639"
    },
    {
      "id": "pt.ine.add.PTCONT.627822",
      "street": "",
      "house": "",
      "postcode": "4730-585",
      "city": "TRAVASSÓS VVD",
      "lon": "-8.463614463554013",
      "lat": "41.66230866708491"
    },
    {
      "id": "pt.ine.add.PTCONT.632713",
      "street": "DEVESA",
      "house": "",
      "postcode": "4730-160",
      "city": "ESQUEIROS",
      "lon": "-8.46521497250151",
      "lat": "41.6630153363807"
    },
    {
      "id": "pt.ine.add.PTCONT.662935",
      "street": "",
      "house": "",
      "postcode": "4730-585",
      "city": "TRAVASSÓS VVD",
      "lon": "-8.461370653669292",
      "lat": "41.664953145146995"
    },
    {
      "id": "pt.ine.add.PTCONT.670653",
      "street": "",
      "house": "",
      "postcode": "4730-585",
      "city": "TRAVASSÓS VVD",
      "lon": "-8.464114611639623",
      "lat": "41.66384683955052"
    },
    {
      "id": "pt.ine.add.PTCONT.688349",
      "street": "",
      "house": "",
      "postcode": "4730-585",
      "city": "TRAVASSÓS VVD",
      "lon": "-8.464215845561561",
      "lat": "41.662514018559776"
    },
    {
      "id": "pt.ine.add.PTCONT.724558",
      "street": "R DA DEVESA",
      "house": "198",
      "postcode": "4730-585",
      "city": "TRAVASSÓS VVD",
      "lon": "-8.464948239676433",
      "lat": "41.66251190641929"
    },
    {
      "id": "pt.ine.add.PTCONT.775070",
      "street": "",
      "house": "",
      "postcode": "4730-585",
      "city": "TRAVASSÓS VVD",
      "lon": "-8.463396047493914",
      "lat": "41.661859115980256"
    },
    {
      "id": "pt.ine.add.PTCONT.835448",
      "street": "R DA IGREJA",
      "house": "385",
      "postcode": "4730-585",
      "city": "TRAVASSÓS VVD",
      "lon": "-8.463980463680148",
      "lat": "41.66344206485858"
    }
  ]
}