{
  "data": {
    "distrito": "Braga",
    "concelho": "Vila Verde",
    "freguesia": "Moure",
    "OBJECTID": 754,
    "BGRI2021": "03132800121",
    "DT21": "03",
    "DTMN21": "0313",
    "DTMNFR21": "031328",
    "DTMNFRSEC21": "031328001",
    "SECNUM21": "001",
    "SSNUM21": "21",
    "SECSSNUM21": "00121",
    "OBJECTID_1": 32818,
    "DT": "03",
    "CC": "13",
    "fr": "28",
    "SEC": "001",
    "SS": "21"
  },
  "addresses": [
    {
      "id": "pt.ine.add.PTCONT.553181",
      "street": "AV GÂNDARA",
      "house": "94",
      "postcode": "4730-300",
      "city": "MOURE VVD",
      "lon": "-8.482038492511014",
      "lat": "41.64338268532667"
    },
    {
      "id": "pt.ine.add.PTCONT.617984",
      "street": "TV 1 DA GANDARA",
      "house": "3",
      "postcode": "4730-300",
      "city": "MOURE VVD",
      "lon": "-8.482570511337443",
      "lat": "41.64410135757564"
    },
    {
      "id": "pt.ine.add.PTCONT.641308",
      "street": "AV PADRE MÁRIO",
      "house": "",
      "postcode": "4730-300",
      "city": "MOURE VVD",
      "lon": "-8.482769500393765",
      "lat": "41.6431643774551"
    },
    {
      "id": "pt.ine.add.PTCONT.697130",
      "street": "LUGUAR GANDRA",
      "house": "94A",
      "postcode": "4730-300",
      "city": "MOURE VVD",
      "lon": "-8.482208525409773",
      "lat": "41.6437513168992"
    },
    {
      "id": "pt.ine.add.PTCONT.777870",
      "street": "AV GANDARA",
      "house": "7",
      "postcode": "4730-300",
      "city": "MOURE VVD",
      "lon": "-8.48238963944077",
      "lat": "41.64394884602815"
    },
    {
      "id": "pt.ine.add.PTCONT.847346",
      "street": "TV 5 DA GANDARA",
      "house": "5",
      "postcode": "4730-303",
      "city": "MOURE VVD",
      "lon": "-8.482375983334157",
      "lat": "41.64364276493767"
    }
  ]
}