{
  "data": {
    "distrito": "Évora",
    "concelho": "Mourão",
    "freguesia": "Mourão",
    "OBJECTID": 84,
    "BGRI2021": "07080300107",
    "DT21": "07",
    "DTMN21": "0708",
    "DTMNFR21": "070803",
    "DTMNFRSEC21": "070803001",
    "SECNUM21": "001",
    "SSNUM21": "07",
    "SECSSNUM21": "00107",
    "OBJECTID_1": 62351,
    "DT": "07",
    "CC": "08",
    "fr": "03",
    "SEC": "001",
    "SS": "07"
  },
  "addresses": [
    {
      "id": "pt.ine.add.PTCONT.1369130",
      "street": "AV PAPA JOÃO PAULO II",
      "house": "14",
      "postcode": "7240-238",
      "city": "MOURÃO",
      "lon": "-7.341103626884133",
      "lat": "38.380161451056836"
    },
    {
      "id": "pt.ine.add.PTCONT.1374443",
      "street": "AV PAPA JOÃO PAULO II",
      "house": "12",
      "postcode": "7240-238",
      "city": "MOURÃO",
      "lon": "-7.341202697456178",
      "lat": "38.38009301876421"
    },
    {
      "id": "pt.ine.add.PTCONT.1393485",
      "street": "AV PAPA JOAO PAULO II",
      "house": "4",
      "postcode": "7240-238",
      "city": "MOURÃO",
      "lon": "-7.3417132270156955",
      "lat": "38.37972745617303"
    },
    {
      "id": "pt.ine.add.PTCONT.1427565",
      "street": "AV PAPA JOÃO PAULO II",
      "house": "10",
      "postcode": "7240-275",
      "city": "MOURÃO",
      "lon": "-7.341352739910368",
      "lat": "38.37997692160278"
    },
    {
      "id": "pt.ine.add.PTCONT.1432303",
      "street": "R DR MANUEL RAMOS",
      "house": "3",
      "postcode": "7240-228",
      "city": "MOURÃO",
      "lon": "-7.341701639778823",
      "lat": "38.37946579237936"
    },
    {
      "id": "pt.ine.add.PTCONT.1441069",
      "street": "AV PAPA JOAO PAULO II",
      "house": "8",
      "postcode": "7240-238",
      "city": "MOURÃO",
      "lon": "-7.341444313876242",
      "lat": "38.3799071304337"
    },
    {
      "id": "pt.ine.add.PTCONT.1442761",
      "street": "ESTR CIRCUNVALACAO",
      "house": "27",
      "postcode": "7240-238",
      "city": "MOURÃO",
      "lon": "-7.341447303589861",
      "lat": "38.37964741361342"
    },
    {
      "id": "pt.ine.add.PTCONT.1449503",
      "street": "R DR MANUEL RAMOS",
      "house": "5",
      "postcode": "7240-238",
      "city": "MOURÃO",
      "lon": "-7.341545134979008",
      "lat": "38.37957802495741"
    },
    {
      "id": "pt.ine.add.PTCONT.1453404",
      "street": "LOTEAM BARRUSCA",
      "house": "21",
      "postcode": "7240-238",
      "city": "MOURÃO",
      "lon": "-7.341603297888063",
      "lat": "38.37979357877702"
    },
    {
      "id": "pt.ine.add.PTCONT.1454762",
      "street": "AV PAPA JOAO PAULO II",
      "house": "16",
      "postcode": "7240-238",
      "city": "MOURÃO",
      "lon": "-7.3409426749884785",
      "lat": "38.380285824160836"
    },
    {
      "id": "pt.ine.add.PTCONT.1460963",
      "street": "AV PAPA JOAO PAULO II",
      "house": "2",
      "postcode": "7240-238",
      "city": "MOURÃO",
      "lon": "-7.341884343721075",
      "lat": "38.37961398603444"
    }
  ]
}