{
  "data": {
    "distrito": "Évora",
    "concelho": "Mourão",
    "freguesia": "Mourão",
    "OBJECTID": 43,
    "BGRI2021": "07080300123",
    "DT21": "07",
    "DTMN21": "0708",
    "DTMNFR21": "070803",
    "DTMNFRSEC21": "070803001",
    "SECNUM21": "001",
    "SSNUM21": "23",
    "SECSSNUM21": "00123",
    "OBJECTID_1": 62389,
    "DT": "07",
    "CC": "08",
    "fr": "03",
    "SEC": "001",
    "SS": "23"
  },
  "addresses": [
    {
      "id": "pt.ine.add.PTCONT.1370505",
      "street": "R DOUTOR MANUEL RAMOS",
      "house": "33",
      "postcode": "7240-246",
      "city": "MOURÃO",
      "lon": "-7.339606858827885",
      "lat": "38.38160466558667"
    },
    {
      "id": "pt.ine.add.PTCONT.1374456",
      "street": "R DOUTOR MANUEL RAMOS",
      "house": "29",
      "postcode": "7240-246",
      "city": "MOURÃO",
      "lon": "-7.339800348060603",
      "lat": "38.381196465480016"
    },
    {
      "id": "pt.ine.add.PTCONT.1382425",
      "street": "AV PAPA JOAO PAULO II",
      "house": "28",
      "postcode": "7240-246",
      "city": "MOURÃO",
      "lon": "-7.340114404259514",
      "lat": "38.38132913087362"
    },
    {
      "id": "pt.ine.add.PTCONT.1445818",
      "street": "LOTEAM BARRUSCA",
      "house": "7",
      "postcode": "7240-230",
      "city": "MOURÃO",
      "lon": "-7.340287182432706",
      "lat": "38.381120013906425"
    },
    {
      "id": "pt.ine.add.PTCONT.1446448",
      "street": "ESTR CIRCUNVALACAO",
      "house": "10",
      "postcode": "7240-228",
      "city": "MOURÃO",
      "lon": "-7.340714110458255",
      "lat": "38.3805970954235"
    },
    {
      "id": "pt.ine.add.PTCONT.1464526",
      "street": "AV PAPA JOAO PAULO II",
      "house": "32",
      "postcode": "7240-246",
      "city": "MOURÃO",
      "lon": "-7.339932449077416",
      "lat": "38.381694058795986"
    }
  ]
}