{
  "data": {
    "distrito": "Lisboa",
    "concelho": "Lourinhã",
    "freguesia": "Reguengo Grande",
    "OBJECTID": 584,
    "BGRI2021": "11080500115",
    "DT21": "11",
    "DTMN21": "1108",
    "DTMNFR21": "110805",
    "DTMNFRSEC21": "110805001",
    "SECNUM21": "001",
    "SSNUM21": "15",
    "SECSSNUM21": "00115",
    "OBJECTID_1": 107113,
    "DT": "11",
    "CC": "08",
    "fr": "05",
    "SEC": "001",
    "SS": "15"
  },
  "addresses": [
    {
      "id": "pt.ine.add.PTCONT.2361779",
      "street": "R COMÉRCIO",
      "house": "8",
      "postcode": "2530-602",
      "city": "REGUENGO GRANDE",
      "lon": "-9.214365101563248",
      "lat": "39.28694288617713"
    },
    {
      "id": "pt.ine.add.PTCONT.2574814",
      "street": "R ARROCHELA",
      "house": "11",
      "postcode": "2530-596",
      "city": "REGUENGO GRANDE",
      "lon": "-9.214640460130422",
      "lat": "39.28676018881525"
    },
    {
      "id": "pt.ine.add.PTCONT.2618744",
      "street": "R ARROCHELA",
      "house": "5",
      "postcode": "2530-596",
      "city": "REGUENGO GRANDE",
      "lon": "-9.21505959295815",
      "lat": "39.28688239231602"
    },
    {
      "id": "pt.ine.add.PTCONT.2846375",
      "street": "R COMÉRCIO",
      "house": "10",
      "postcode": "2530-602",
      "city": "REGUENGO GRANDE",
      "lon": "-9.214306050070453",
      "lat": "39.28687137869192"
    },
    {
      "id": "pt.ine.add.PTCONT.2865688",
      "street": "TV MESTRE MARIA",
      "house": "12",
      "postcode": "2530-623",
      "city": "REGUENGO GRANDE",
      "lon": "-9.21464447753958",
      "lat": "39.28702135410084"
    },
    {
      "id": "pt.ine.add.PTCONT.2876136",
      "street": "R ARROCHELA",
      "house": "13",
      "postcode": "2530-596",
      "city": "REGUENGO GRANDE",
      "lon": "-9.214479188092785",
      "lat": "39.2868247357535"
    },
    {
      "id": "pt.ine.add.PTCONT.2883271",
      "street": "TV MESTRE MARIA",
      "house": "10",
      "postcode": "2530-623",
      "city": "REGUENGO GRANDE",
      "lon": "-9.214874727925734",
      "lat": "39.28692013809293"
    },
    {
      "id": "pt.ine.add.PTCONT.3448455",
      "street": "TV ARROCHELA",
      "house": "1",
      "postcode": "2530-618",
      "city": "REGUENGO GRANDE",
      "lon": "-9.214641152783447",
      "lat": "39.28680521731362"
    }
  ]
}