{
  "data": {
    "distrito": "Castelo Branco",
    "concelho": "Vila de Rei",
    "freguesia": "Vila de Rei",
    "OBJECTID": 170,
    "BGRI2021": "05100300243",
    "DT21": "05",
    "DTMN21": "0510",
    "DTMNFR21": "051003",
    "DTMNFRSEC21": "051003002",
    "SECNUM21": "002",
    "SSNUM21": "43",
    "SECSSNUM21": "00243",
    "OBJECTID_1": 46429,
    "DT": "05",
    "CC": "10",
    "fr": "03",
    "SEC": "002",
    "SS": "43"
  },
  "addresses": [
    {
      "id": "pt.ine.add.PTCONT.972346",
      "street": "R BANDA DALEM",
      "house": "",
      "postcode": "6110-151",
      "city": "VILA DE REI",
      "lon": "-8.089927193541417",
      "lat": "39.65301996946894"
    },
    {
      "id": "pt.ine.add.PTCONT.980403",
      "street": "R EIRAS",
      "house": "",
      "postcode": "6110-149",
      "city": "VILA DE REI",
      "lon": "-8.094525987331199",
      "lat": "39.65953345665912"
    },
    {
      "id": "pt.ine.add.PTCONT.992658",
      "street": "R EIRAS",
      "house": "",
      "postcode": "6110-149",
      "city": "VILA DE REI",
      "lon": "-8.094409359118071",
      "lat": "39.65971355243165"
    },
    {
      "id": "pt.ine.add.PTCONT.1074164",
      "street": "R BANDA DALEM",
      "house": "",
      "postcode": "6110-151",
      "city": "VILA DE REI",
      "lon": "-8.090078732397487",
      "lat": "39.65291194483947"
    },
    {
      "id": "pt.ine.add.PTCONT.1086222",
      "street": "R PRINCIPAL",
      "house": "14",
      "postcode": "6110-151",
      "city": "VILA DE REI",
      "lon": "-8.089064186126238",
      "lat": "39.65425356851477"
    },
    {
      "id": "pt.ine.add.PTCONT.1094240",
      "street": "R LAGOA",
      "house": "5",
      "postcode": "6110-168",
      "city": "VILA DE REI",
      "lon": "-8.100520669615962",
      "lat": "39.648556080356606"
    }
  ]
}