{
  "data": {
    "distrito": "Castelo Branco",
    "concelho": "Vila de Rei",
    "freguesia": "Vila de Rei",
    "OBJECTID": 263,
    "BGRI2021": "05100300270",
    "DT21": "05",
    "DTMN21": "0510",
    "DTMNFR21": "051003",
    "DTMNFRSEC21": "051003002",
    "SECNUM21": "002",
    "SSNUM21": "70",
    "SECSSNUM21": "00270",
    "OBJECTID_1": 46634,
    "DT": "05",
    "CC": "10",
    "fr": "03",
    "SEC": "002",
    "SS": "70"
  },
  "addresses": [
    {
      "id": "pt.ine.add.PTCONT.976949",
      "street": "R S JOSE",
      "house": "",
      "postcode": "6110-109",
      "city": "VILA DE REI",
      "lon": "-8.111414640532841",
      "lat": "39.68471159187579"
    },
    {
      "id": "pt.ine.add.PTCONT.990655",
      "street": "R EIRA",
      "house": "",
      "postcode": "6110-109",
      "city": "VILA DE REI",
      "lon": "-8.11135594854235",
      "lat": "39.68600854409518"
    },
    {
      "id": "pt.ine.add.PTCONT.1006604",
      "street": "R VINHAS",
      "house": "",
      "postcode": "6110-109",
      "city": "VILA DE REI",
      "lon": "-8.110481927062295",
      "lat": "39.68517976174766"
    },
    {
      "id": "pt.ine.add.PTCONT.1010102",
      "street": "R CABECINHAS",
      "house": "",
      "postcode": "6110-109",
      "city": "VILA DE REI",
      "lon": "-8.110890037662259",
      "lat": "39.68482857965883"
    },
    {
      "id": "pt.ine.add.PTCONT.1072580",
      "street": "R VINHAS",
      "house": "",
      "postcode": "6110-109",
      "city": "VILA DE REI",
      "lon": "-8.110901385982421",
      "lat": "39.68579229754702"
    },
    {
      "id": "pt.ine.add.PTCONT.1092731",
      "street": "R S JOSE",
      "house": "",
      "postcode": "6110-109",
      "city": "VILA DE REI",
      "lon": "-8.110307064842468",
      "lat": "39.685197740924316"
    }
  ]
}