{
  "data": {
    "distrito": "Lisboa",
    "concelho": "Loures",
    "freguesia": "União das freguesias de Santa Iria de Azoia, São João da Talha e Bobadela",
    "OBJECTID": 1241,
    "BGRI2021": "11072801603",
    "DT21": "11",
    "DTMN21": "1107",
    "DTMNFR21": "110728",
    "DTMNFRSEC21": "110728016",
    "SECNUM21": "016",
    "SSNUM21": "03",
    "SECSSNUM21": "01603",
    "OBJECTID_1": 105730,
    "DT": "11",
    "CC": "07",
    "fr": "28",
    "SEC": "016",
    "SS": "03"
  },
  "addresses": [
    {
      "id": "pt.ine.add.PTCONT.3266091",
      "street": "R 1 DE MAIO",
      "house": "",
      "postcode": "2690-200",
      "city": "SANTA IRIA DE AZÓIA",
      "lon": "-9.089184695323826",
      "lat": "38.84214528254106"
    },
    {
      "id": "pt.ine.add.PTCONT.3295285",
      "street": "R SENHORA DO ALMORTAO",
      "house": "",
      "postcode": "2690-202",
      "city": "SANTA IRIA DE AZÓIA",
      "lon": "-9.089154846211889",
      "lat": "38.842496828186476"
    },
    {
      "id": "pt.ine.add.PTCONT.3295286",
      "street": "R SENHORA DO ALMORTAO",
      "house": "",
      "postcode": "2690-202",
      "city": "SANTA IRIA DE AZÓIA",
      "lon": "-9.089154846211889",
      "lat": "38.842496828186476"
    },
    {
      "id": "pt.ine.add.PTCONT.3295287",
      "street": "R SENHORA DO ALMORTAO",
      "house": "",
      "postcode": "2690-202",
      "city": "SANTA IRIA DE AZÓIA",
      "lon": "-9.089154846211889",
      "lat": "38.842496828186476"
    },
    {
      "id": "pt.ine.add.PTCONT.3295288",
      "street": "R SENHORA DO ALMORTAO",
      "house": "",
      "postcode": "2690-202",
      "city": "SANTA IRIA DE AZÓIA",
      "lon": "-9.089154846211889",
      "lat": "38.842496828186476"
    },
    {
      "id": "pt.ine.add.PTCONT.3295289",
      "street": "R SENHORA DO ALMORTAO",
      "house": "",
      "postcode": "2690-202",
      "city": "SANTA IRIA DE AZÓIA",
      "lon": "-9.089154846211889",
      "lat": "38.842496828186476"
    },
    {
      "id": "pt.ine.add.PTCONT.3349002",
      "street": "R FLORES",
      "house": "",
      "postcode": "2690-173",
      "city": "SANTA IRIA DE AZÓIA",
      "lon": "-9.08943770028231",
      "lat": "38.84211618813412"
    },
    {
      "id": "pt.ine.add.PTCONT.3349003",
      "street": "R FLORES",
      "house": "",
      "postcode": "2690-173",
      "city": "SANTA IRIA DE AZÓIA",
      "lon": "-9.08943770028231",
      "lat": "38.84211618813412"
    },
    {
      "id": "pt.ine.add.PTCONT.3349004",
      "street": "R FLORES",
      "house": "",
      "postcode": "2690-173",
      "city": "SANTA IRIA DE AZÓIA",
      "lon": "-9.08943770028231",
      "lat": "38.84211618813412"
    },
    {
      "id": "pt.ine.add.PTCONT.3349005",
      "street": "R FLORES",
      "house": "",
      "postcode": "2690-173",
      "city": "SANTA IRIA DE AZÓIA",
      "lon": "-9.08943770028231",
      "lat": "38.84211618813412"
    },
    {
      "id": "pt.ine.add.PTCONT.3349006",
      "street": "R FLORES",
      "house": "",
      "postcode": "2690-173",
      "city": "SANTA IRIA DE AZÓIA",
      "lon": "-9.08943770028231",
      "lat": "38.84211618813412"
    },
    {
      "id": "pt.ine.add.PTCONT.3349007",
      "street": "R FLORES",
      "house": "",
      "postcode": "2690-173",
      "city": "SANTA IRIA DE AZÓIA",
      "lon": "-9.08943770028231",
      "lat": "38.84211618813412"
    },
    {
      "id": "pt.ine.add.PTCONT.3349008",
      "street": "R FLORES",
      "house": "",
      "postcode": "2690-173",
      "city": "SANTA IRIA DE AZÓIA",
      "lon": "-9.08943770028231",
      "lat": "38.84211618813412"
    },
    {
      "id": "pt.ine.add.PTCONT.3349009",
      "street": "R FLORES",
      "house": "",
      "postcode": "2690-173",
      "city": "SANTA IRIA DE AZÓIA",
      "lon": "-9.08943770028231",
      "lat": "38.84211618813412"
    },
    {
      "id": "pt.ine.add.PTCONT.3395755",
      "street": "R PRINCIPAL",
      "house": "",
      "postcode": "2690-526",
      "city": "SANTA IRIA DE AZÓIA",
      "lon": "-9.08849369517961",
      "lat": "38.842150936628904"
    },
    {
      "id": "pt.ine.add.PTCONT.3395790",
      "street": "R PRINCIPAL",
      "house": "",
      "postcode": "2690-526",
      "city": "SANTA IRIA DE AZÓIA",
      "lon": "-9.08849369517961",
      "lat": "38.842150936628904"
    },
    {
      "id": "pt.ine.add.PTCONT.3404396",
      "street": "R FLORES",
      "house": "",
      "postcode": "2690-173",
      "city": "SANTA IRIA DE AZÓIA",
      "lon": "-9.089478037934024",
      "lat": "38.842548228706484"
    },
    {
      "id": "pt.ine.add.PTCONT.3404397",
      "street": "R FLORES",
      "house": "",
      "postcode": "2690-173",
      "city": "SANTA IRIA DE AZÓIA",
      "lon": "-9.089478037934024",
      "lat": "38.842548228706484"
    },
    {
      "id": "pt.ine.add.PTCONT.3404398",
      "street": "R FLORES",
      "house": "",
      "postcode": "2690-173",
      "city": "SANTA IRIA DE AZÓIA",
      "lon": "-9.089478037934024",
      "lat": "38.842548228706484"
    },
    {
      "id": "pt.ine.add.PTCONT.3404399",
      "street": "R FLORES",
      "house": "",
      "postcode": "2690-173",
      "city": "SANTA IRIA DE AZÓIA",
      "lon": "-9.089478037934024",
      "lat": "38.842548228706484"
    },
    {
      "id": "pt.ine.add.PTCONT.3404400",
      "street": "R FLORES",
      "house": "",
      "postcode": "2690-173",
      "city": "SANTA IRIA DE AZÓIA",
      "lon": "-9.089478037934024",
      "lat": "38.842548228706484"
    },
    {
      "id": "pt.ine.add.PTCONT.3404401",
      "street": "R FLORES",
      "house": "",
      "postcode": "2690-173",
      "city": "SANTA IRIA DE AZÓIA",
      "lon": "-9.089478037934024",
      "lat": "38.842548228706484"
    },
    {
      "id": "pt.ine.add.PTCONT.3404402",
      "street": "R FLORES",
      "house": "",
      "postcode": "2690-173",
      "city": "SANTA IRIA DE AZÓIA",
      "lon": "-9.089478037934024",
      "lat": "38.842548228706484"
    },
    {
      "id": "pt.ine.add.PTCONT.3404468",
      "street": "R FLORES",
      "house": "",
      "postcode": "2690-173",
      "city": "SANTA IRIA DE AZÓIA",
      "lon": "-9.089478037934024",
      "lat": "38.842548228706484"
    },
    {
      "id": "pt.ine.add.PTCONT.2284785",
      "street": "R PRINCIPAL",
      "house": "",
      "postcode": "2690-526",
      "city": "SANTA IRIA DE AZÓIA",
      "lon": "-9.088519619451043",
      "lat": "38.842366910017624"
    },
    {
      "id": "pt.ine.add.PTCONT.2293809",
      "street": "R SENHORA DO ALMORTAO",
      "house": "",
      "postcode": "2690-202",
      "city": "SANTA IRIA DE AZÓIA",
      "lon": "-9.088727763516466",
      "lat": "38.84242826135062"
    },
    {
      "id": "pt.ine.add.PTCONT.2293847",
      "street": "R SENHORA DO ALMORTAO",
      "house": "",
      "postcode": "2690-202",
      "city": "SANTA IRIA DE AZÓIA",
      "lon": "-9.088727763516466",
      "lat": "38.84242826135062"
    },
    {
      "id": "pt.ine.add.PTCONT.2781368",
      "street": "R 1 DE MAIO",
      "house": "",
      "postcode": "2690-200",
      "city": "SANTA IRIA DE AZÓIA",
      "lon": "-9.08887374528294",
      "lat": "38.84214782738634"
    },
    {
      "id": "pt.ine.add.PTCONT.2781369",
      "street": "R 1 DE MAIO",
      "house": "",
      "postcode": "2690-200",
      "city": "SANTA IRIA DE AZÓIA",
      "lon": "-9.08887374528294",
      "lat": "38.84214782738634"
    },
    {
      "id": "pt.ine.add.PTCONT.2797512",
      "street": "R FLORES",
      "house": "",
      "postcode": "2690-173",
      "city": "SANTA IRIA DE AZÓIA",
      "lon": "-9.089451146106015",
      "lat": "38.842260201664"
    },
    {
      "id": "pt.ine.add.PTCONT.2797513",
      "street": "R FLORES",
      "house": "",
      "postcode": "2690-173",
      "city": "SANTA IRIA DE AZÓIA",
      "lon": "-9.089451146106015",
      "lat": "38.842260201664"
    },
    {
      "id": "pt.ine.add.PTCONT.2797514",
      "street": "R FLORES",
      "house": "",
      "postcode": "2690-173",
      "city": "SANTA IRIA DE AZÓIA",
      "lon": "-9.089451146106015",
      "lat": "38.842260201664"
    },
    {
      "id": "pt.ine.add.PTCONT.2797515",
      "street": "R FLORES",
      "house": "",
      "postcode": "2690-173",
      "city": "SANTA IRIA DE AZÓIA",
      "lon": "-9.089451146106015",
      "lat": "38.842260201664"
    },
    {
      "id": "pt.ine.add.PTCONT.2797516",
      "street": "R FLORES",
      "house": "",
      "postcode": "2690-173",
      "city": "SANTA IRIA DE AZÓIA",
      "lon": "-9.089451146106015",
      "lat": "38.842260201664"
    },
    {
      "id": "pt.ine.add.PTCONT.2797517",
      "street": "R FLORES",
      "house": "",
      "postcode": "2690-173",
      "city": "SANTA IRIA DE AZÓIA",
      "lon": "-9.089451146106015",
      "lat": "38.842260201664"
    },
    {
      "id": "pt.ine.add.PTCONT.2797520",
      "street": "R FLORES",
      "house": "",
      "postcode": "2690-173",
      "city": "SANTA IRIA DE AZÓIA",
      "lon": "-9.089451146106015",
      "lat": "38.842260201664"
    },
    {
      "id": "pt.ine.add.PTCONT.2797533",
      "street": "R FLORES",
      "house": "",
      "postcode": "2690-173",
      "city": "SANTA IRIA DE AZÓIA",
      "lon": "-9.089451146106015",
      "lat": "38.842260201664"
    },
    {
      "id": "pt.ine.add.PTCONT.2824455",
      "street": "R FLORES",
      "house": "",
      "postcode": "2690-195",
      "city": "SANTA IRIA DE AZÓIA",
      "lon": "-9.089453075281641",
      "lat": "38.842404309484536"
    },
    {
      "id": "pt.ine.add.PTCONT.2824456",
      "street": "R FLORES",
      "house": "",
      "postcode": "2690-195",
      "city": "SANTA IRIA DE AZÓIA",
      "lon": "-9.089453075281641",
      "lat": "38.842404309484536"
    },
    {
      "id": "pt.ine.add.PTCONT.2824462",
      "street": "R FLORES",
      "house": "",
      "postcode": "2690-195",
      "city": "SANTA IRIA DE AZÓIA",
      "lon": "-9.089453075281641",
      "lat": "38.842404309484536"
    },
    {
      "id": "pt.ine.add.PTCONT.2824463",
      "street": "R FLORES",
      "house": "",
      "postcode": "2690-195",
      "city": "SANTA IRIA DE AZÓIA",
      "lon": "-9.089453075281641",
      "lat": "38.842404309484536"
    },
    {
      "id": "pt.ine.add.PTCONT.2824464",
      "street": "R FLORES",
      "house": "",
      "postcode": "2690-195",
      "city": "SANTA IRIA DE AZÓIA",
      "lon": "-9.089453075281641",
      "lat": "38.842404309484536"
    },
    {
      "id": "pt.ine.add.PTCONT.2824474",
      "street": "R FLORES",
      "house": "",
      "postcode": "2690-195",
      "city": "SANTA IRIA DE AZÓIA",
      "lon": "-9.089453075281641",
      "lat": "38.842404309484536"
    },
    {
      "id": "pt.ine.add.PTCONT.2824478",
      "street": "R FLORES",
      "house": "",
      "postcode": "2690-195",
      "city": "SANTA IRIA DE AZÓIA",
      "lon": "-9.089453075281641",
      "lat": "38.842404309484536"
    },
    {
      "id": "pt.ine.add.PTCONT.2825978",
      "street": "R FLORES",
      "house": "",
      "postcode": "2690-195",
      "city": "SANTA IRIA DE AZÓIA",
      "lon": "-9.089453075281641",
      "lat": "38.842404309484536"
    }
  ]
}