{
  "data": {
    "distrito": "Braga",
    "concelho": "Vila Verde",
    "freguesia": "União das freguesias de Pico de Regalados, Gondiães e Mós",
    "OBJECTID": 982,
    "BGRI2021": "03136600125",
    "DT21": "03",
    "DTMN21": "0313",
    "DTMNFR21": "031366",
    "DTMNFRSEC21": "031366001",
    "SECNUM21": "001",
    "SSNUM21": "25",
    "SECSSNUM21": "00125",
    "OBJECTID_1": 32419,
    "DT": "03",
    "CC": "13",
    "fr": "66",
    "SEC": "001",
    "SS": "25"
  },
  "addresses": [
    {
      "id": "pt.ine.add.PTCONT.526423",
      "street": "R CRUZ",
      "house": "",
      "postcode": "4730-290",
      "city": "MÓS VVD",
      "lon": "-8.435089165921463",
      "lat": "41.68337446059033"
    },
    {
      "id": "pt.ine.add.PTCONT.547358",
      "street": "LUGAR DA CRUZ",
      "house": "",
      "postcode": "4730-290",
      "city": "MÓS VVD",
      "lon": "-8.436208707905072",
      "lat": "41.68392072995852"
    },
    {
      "id": "pt.ine.add.PTCONT.553594",
      "street": "R CRUZ",
      "house": "",
      "postcode": "4730-290",
      "city": "MÓS VVD",
      "lon": "-8.43696430868146",
      "lat": "41.683693646077316"
    },
    {
      "id": "pt.ine.add.PTCONT.596274",
      "street": "AV CRUZ",
      "house": "4",
      "postcode": "4730-290",
      "city": "MÓS VVD",
      "lon": "-8.436832575015597",
      "lat": "41.68377502621143"
    },
    {
      "id": "pt.ine.add.PTCONT.649304",
      "street": "R IGREJA",
      "house": "",
      "postcode": "4730-290",
      "city": "MÓS VVD",
      "lon": "-8.43635215720104",
      "lat": "41.68377629479642"
    },
    {
      "id": "pt.ine.add.PTCONT.700106",
      "street": "R IGREJA",
      "house": "",
      "postcode": "4730-290",
      "city": "MÓS VVD",
      "lon": "-8.437095745377983",
      "lat": "41.68354924174143"
    },
    {
      "id": "pt.ine.add.PTCONT.700107",
      "street": "R IGREJA",
      "house": "",
      "postcode": "4730-290",
      "city": "MÓS VVD",
      "lon": "-8.437095745377983",
      "lat": "41.68354924174143"
    },
    {
      "id": "pt.ine.add.PTCONT.760663",
      "street": "LUGAR DA CRUZ",
      "house": "",
      "postcode": "4730-290",
      "city": "MÓS VVD",
      "lon": "-8.436652672230256",
      "lat": "41.68382952278119"
    },
    {
      "id": "pt.ine.add.PTCONT.771966",
      "street": "R SOUTO",
      "house": "5",
      "postcode": "4730-290",
      "city": "MÓS VVD",
      "lon": "-8.435136449553339",
      "lat": "41.68321227246885"
    },
    {
      "id": "pt.ine.add.PTCONT.819184",
      "street": "R IGREJA",
      "house": "",
      "postcode": "4730-290",
      "city": "MÓS VVD",
      "lon": "-8.43796944485462",
      "lat": "41.682898672033055"
    },
    {
      "id": "pt.ine.add.PTCONT.831629",
      "street": "R CRUZ",
      "house": "",
      "postcode": "4730-290",
      "city": "MÓS VVD",
      "lon": "-8.435967907366786",
      "lat": "41.6837953150914"
    }
  ]
}