{
  "data": {
    "distrito": "Viana do Castelo",
    "concelho": "Ponte da Barca",
    "freguesia": "União das freguesias de Ponte da Barca, Vila Nova de Muía e Paço Vedro de Magalhães",
    "OBJECTID": 575,
    "BGRI2021": "16062800112",
    "DT21": "16",
    "DTMN21": "1606",
    "DTMNFR21": "160628",
    "DTMNFRSEC21": "160628001",
    "SECNUM21": "001",
    "SSNUM21": "12",
    "SECSSNUM21": "00112",
    "OBJECTID_1": 175377,
    "DT": "16",
    "CC": "06",
    "fr": "28",
    "SEC": "001",
    "SS": "12"
  },
  "addresses": [
    {
      "id": "pt.ine.add.PTCONT.5154548",
      "street": "",
      "house": "",
      "postcode": "4980-813",
      "city": "VILA NOVA DE MUIA",
      "lon": "-8.384854314728177",
      "lat": "41.804727030703724"
    },
    {
      "id": "pt.ine.add.PTCONT.5167029",
      "street": "",
      "house": "",
      "postcode": "4980-813",
      "city": "VILA NOVA DE MUIA",
      "lon": "-8.385431477674214",
      "lat": "41.80461772408738"
    },
    {
      "id": "pt.ine.add.PTCONT.5167736",
      "street": "ZE GUSTO DO CASAL",
      "house": "",
      "postcode": "4980-813",
      "city": "VILA NOVA DE MUIA",
      "lon": "-8.384601268393418",
      "lat": "41.80463755133471"
    },
    {
      "id": "pt.ine.add.PTCONT.5195425",
      "street": "ZE PADEIRO",
      "house": "",
      "postcode": "4980-813",
      "city": "VILA NOVA DE MUIA",
      "lon": "-8.384192566732407",
      "lat": "41.804746485701955"
    },
    {
      "id": "pt.ine.add.PTCONT.5199566",
      "street": "",
      "house": "",
      "postcode": "4980-813",
      "city": "VILA NOVA DE MUIA",
      "lon": "-8.385624677964538",
      "lat": "41.80478836345441"
    },
    {
      "id": "pt.ine.add.PTCONT.5210772",
      "street": "LURDES DA NOGUEIRA",
      "house": "",
      "postcode": "4980-813",
      "city": "VILA NOVA DE MUIA",
      "lon": "-8.385047090572598",
      "lat": "41.80478963162257"
    },
    {
      "id": "pt.ine.add.PTCONT.5211615",
      "street": "",
      "house": "",
      "postcode": "4980-813",
      "city": "VILA NOVA DE MUIA",
      "lon": "-8.384396917736762",
      "lat": "41.804692018699846"
    },
    {
      "id": "pt.ine.add.PTCONT.5212840",
      "street": "AUYGUSTO TONINHO",
      "house": "",
      "postcode": "4980-813",
      "city": "VILA NOVA DE MUIA",
      "lon": "-8.385215553565745",
      "lat": "41.80478926204017"
    },
    {
      "id": "pt.ine.add.PTCONT.5231669",
      "street": "",
      "house": "",
      "postcode": "4980-813",
      "city": "VILA NOVA DE MUIA",
      "lon": "-8.385312488981386",
      "lat": "41.80496011314814"
    },
    {
      "id": "pt.ine.add.PTCONT.5247080",
      "street": "",
      "house": "",
      "postcode": "4980-813",
      "city": "VILA NOVA DE MUIA",
      "lon": "-8.385010568173279",
      "lat": "41.804681671365394"
    },
    {
      "id": "pt.ine.add.PTCONT.5254133",
      "street": "FILIPE NEIVA",
      "house": "",
      "postcode": "4980-813",
      "city": "VILA NOVA DE MUIA",
      "lon": "-8.384997759324285",
      "lat": "41.80448362547304"
    }
  ]
}