{
  "data": {
    "distrito": "Braga",
    "concelho": "Fafe",
    "freguesia": "Ribeiros",
    "OBJECTID": 1061,
    "BGRI2021": "03072500126",
    "DT21": "03",
    "DTMN21": "0307",
    "DTMNFR21": "030725",
    "DTMNFRSEC21": "030725001",
    "SECNUM21": "001",
    "SSNUM21": "26",
    "SECSSNUM21": "00126",
    "OBJECTID_1": 25254,
    "DT": "03",
    "CC": "07",
    "fr": "25",
    "SEC": "001",
    "SS": "26"
  },
  "addresses": [
    {
      "id": "pt.ine.add.PTCONT.462943",
      "street": "R PORTELA DE CIMA",
      "house": "43",
      "postcode": "4820-635",
      "city": "RIBEIROS",
      "lon": "-8.12471461286497",
      "lat": "41.48548199194752"
    },
    {
      "id": "pt.ine.add.PTCONT.475051",
      "street": "LG S PEDROS",
      "house": "184",
      "postcode": "4820-635",
      "city": "RIBEIROS",
      "lon": "-8.12894133001369",
      "lat": "41.48669774560188"
    },
    {
      "id": "pt.ine.add.PTCONT.489708",
      "street": "R CORTES",
      "house": "278",
      "postcode": "4820-635",
      "city": "RIBEIROS",
      "lon": "-8.129132868489567",
      "lat": "41.48748108920824"
    },
    {
      "id": "pt.ine.add.PTCONT.637764",
      "street": "LG S PEDROS",
      "house": "226",
      "postcode": "4820-635",
      "city": "RIBEIROS",
      "lon": "-8.129061102305151",
      "lat": "41.4862025368868"
    },
    {
      "id": "pt.ine.add.PTCONT.647933",
      "street": "LG S PEDROS",
      "house": "56",
      "postcode": "4820-635",
      "city": "RIBEIROS",
      "lon": "-8.128007415013975",
      "lat": "41.485824332308596"
    },
    {
      "id": "pt.ine.add.PTCONT.733080",
      "street": "LG S PEDROS",
      "house": "12",
      "postcode": "4820-635",
      "city": "RIBEIROS",
      "lon": "-8.128498330595844",
      "lat": "41.4860764614855"
    },
    {
      "id": "pt.ine.add.PTCONT.747225",
      "street": "R CRASTO",
      "house": "300",
      "postcode": "4820-635",
      "city": "RIBEIROS",
      "lon": "-8.128103217993397",
      "lat": "41.48568027453847"
    },
    {
      "id": "pt.ine.add.PTCONT.770730",
      "street": "R PINHEIRO",
      "house": "285",
      "postcode": "4820-635",
      "city": "RIBEIROS",
      "lon": "-8.127384783557456",
      "lat": "41.48564422553789"
    }
  ]
}