{
  "data": {
    "distrito": "Coimbra",
    "concelho": "Figueira da Foz",
    "freguesia": "Vila Verde",
    "OBJECTID": 1348,
    "BGRI2021": "06051300319",
    "DT21": "06",
    "DTMN21": "0605",
    "DTMNFR21": "060513",
    "DTMNFRSEC21": "060513003",
    "SECNUM21": "003",
    "SSNUM21": "19",
    "SECSSNUM21": "00319",
    "OBJECTID_1": 50841,
    "DT": "06",
    "CC": "05",
    "fr": "13",
    "SEC": "003",
    "SS": "19"
  },
  "addresses": [
    {
      "id": "pt.ine.add.PTCONT.1151144",
      "street": "VLA RUA DAS FETEIRAS",
      "house": "1",
      "postcode": "3090-646",
      "city": "FIGUEIRA DA FOZ",
      "lon": "-8.782272117994639",
      "lat": "40.14175769111209"
    },
    {
      "id": "pt.ine.add.PTCONT.1192325",
      "street": "TV RIBEIRINHAS",
      "house": "5",
      "postcode": "3090-646",
      "city": "FIGUEIRA DA FOZ",
      "lon": "-8.782221496720993",
      "lat": "40.14137072206851"
    },
    {
      "id": "pt.ine.add.PTCONT.1210266",
      "street": "LAD CAVADINHAS",
      "house": "5",
      "postcode": "3090-646",
      "city": "FIGUEIRA DA FOZ",
      "lon": "-8.782080680264654",
      "lat": "40.138903899761324"
    },
    {
      "id": "pt.ine.add.PTCONT.1213274",
      "street": "R FETEIRAS",
      "house": "99",
      "postcode": "3090-646",
      "city": "FIGUEIRA DA FOZ",
      "lon": "-8.781212657787982",
      "lat": "40.13893577876859"
    },
    {
      "id": "pt.ine.add.PTCONT.1217622",
      "street": "R FETEIRAS",
      "house": "115",
      "postcode": "3090-646",
      "city": "FIGUEIRA DA FOZ",
      "lon": "-8.781620244472649",
      "lat": "40.13984309106928"
    },
    {
      "id": "pt.ine.add.PTCONT.1255357",
      "street": "R FETEIRAS",
      "house": "107",
      "postcode": "3090-646",
      "city": "FIGUEIRA DA FOZ",
      "lon": "-8.781321682487803",
      "lat": "40.13929540387197"
    },
    {
      "id": "pt.ine.add.PTCONT.1257491",
      "street": "R FETEIRAS",
      "house": "119",
      "postcode": "3090-646",
      "city": "FIGUEIRA DA FOZ",
      "lon": "-8.781880441954165",
      "lat": "40.141291580443735"
    },
    {
      "id": "pt.ine.add.PTCONT.1277543",
      "street": "LAD CAVADINHAS",
      "house": "2",
      "postcode": "3090-646",
      "city": "FIGUEIRA DA FOZ",
      "lon": "-8.78135337430313",
      "lat": "40.138925985244455"
    },
    {
      "id": "pt.ine.add.PTCONT.1301758",
      "street": "R CAVADINHAS",
      "house": "6",
      "postcode": "3090-646",
      "city": "FIGUEIRA DA FOZ",
      "lon": "-8.781506252290818",
      "lat": "40.1389611528729"
    },
    {
      "id": "pt.ine.add.PTCONT.1304053",
      "street": "R FETEIRAS",
      "house": "105",
      "postcode": "3090-646",
      "city": "FIGUEIRA DA FOZ",
      "lon": "-8.781332474674764",
      "lat": "40.139196278744194"
    },
    {
      "id": "pt.ine.add.PTCONT.1317975",
      "street": "R FETEIRAS",
      "house": "109",
      "postcode": "3090-646",
      "city": "FIGUEIRA DA FOZ",
      "lon": "-8.781335298837615",
      "lat": "40.13949345707754"
    },
    {
      "id": "pt.ine.add.PTCONT.1334387",
      "street": "VLA RUA DA FETEIRA",
      "house": "7",
      "postcode": "3090-646",
      "city": "FIGUEIRA DA FOZ",
      "lon": "-8.782457718446159",
      "lat": "40.14153150350839"
    },
    {
      "id": "pt.ine.add.PTCONT.1348733",
      "street": "R TRAVESSA DAS RIBEIRINHAS",
      "house": "3",
      "postcode": "3090-653",
      "city": "FIGUEIRA DA FOZ",
      "lon": "-8.78244289809028",
      "lat": "40.14120737494648"
    },
    {
      "id": "pt.ine.add.PTCONT.1354412",
      "street": "R FETEIRAS",
      "house": "103",
      "postcode": "3090-646",
      "city": "FIGUEIRA DA FOZ",
      "lon": "-8.781437905461011",
      "lat": "40.13917767675001"
    },
    {
      "id": "pt.ine.add.PTCONT.1359142",
      "street": "R FETEIRAS",
      "house": "113",
      "postcode": "3090-646",
      "city": "FIGUEIRA DA FOZ",
      "lon": "-8.781490831760804",
      "lat": "40.13980779221748"
    }
  ]
}