{
  "data": {
    "distrito": "Vila Real",
    "concelho": "Alijó",
    "freguesia": "Pinhão",
    "OBJECTID": 342,
    "BGRI2021": "17010900111",
    "DT21": "17",
    "DTMN21": "1701",
    "DTMNFR21": "170109",
    "DTMNFRSEC21": "170109001",
    "SECNUM21": "001",
    "SSNUM21": "11",
    "SECSSNUM21": "00111",
    "OBJECTID_1": 180078,
    "DT": "17",
    "CC": "01",
    "fr": "09",
    "SEC": "001",
    "SS": "11"
  },
  "addresses": [
    {
      "id": "pt.ine.add.PTCONT.5297986",
      "street": "R CONDESSA DA TABUEIRA",
      "house": "",
      "postcode": "5085-038",
      "city": "PINHÃO",
      "lon": "-7.537212412594816",
      "lat": "41.19221675246801"
    },
    {
      "id": "pt.ine.add.PTCONT.5337960",
      "street": "ESTR CAMINHO REAL QTA DO VALE DO POÇO",
      "house": "",
      "postcode": "5085-039",
      "city": "PINHÃO",
      "lon": "-7.540067698503498",
      "lat": "41.19679665361803"
    },
    {
      "id": "pt.ine.add.PTCONT.5370852",
      "street": "LUGAR DA COSTA",
      "house": "",
      "postcode": "5085-037",
      "city": "PINHÃO",
      "lon": "-7.540535522273992",
      "lat": "41.196474908256405"
    },
    {
      "id": "pt.ine.add.PTCONT.5404463",
      "street": "CAM REAL",
      "house": "",
      "postcode": "5085-037",
      "city": "PINHÃO",
      "lon": "-7.541648745590742",
      "lat": "41.195967387835246"
    },
    {
      "id": "pt.ine.add.PTCONT.5418554",
      "street": "R CONDESSA DA TABUEIRA",
      "house": "",
      "postcode": "5085-038",
      "city": "PINHÃO",
      "lon": "-7.537163019115861",
      "lat": "41.192405586530604"
    }
  ]
}