{
  "data": {
    "distrito": "Viseu",
    "concelho": "São Pedro do Sul",
    "freguesia": "São Félix",
    "OBJECTID": 583,
    "BGRI2021": "18161200109",
    "DT21": "18",
    "DTMN21": "1816",
    "DTMNFR21": "181612",
    "DTMNFRSEC21": "181612001",
    "SECNUM21": "001",
    "SSNUM21": "09",
    "SECSSNUM21": "00109",
    "OBJECTID_1": 197077,
    "DT": "18",
    "CC": "16",
    "fr": "12",
    "SEC": "001",
    "SS": "09"
  },
  "addresses": [
    {
      "id": "pt.ine.add.PTCONT.5433300",
      "street": "R BELA VISTA",
      "house": "7",
      "postcode": "3660-303",
      "city": "SÃO FÉLIX",
      "lon": "-8.046588031826946",
      "lat": "40.79417180679646"
    },
    {
      "id": "pt.ine.add.PTCONT.5460344",
      "street": "R DONDELA",
      "house": "6",
      "postcode": "3660-303",
      "city": "SÃO FÉLIX",
      "lon": "-8.046850804009539",
      "lat": "40.792551111075866"
    },
    {
      "id": "pt.ine.add.PTCONT.5523700",
      "street": "R TENDA",
      "house": "7",
      "postcode": "3660-303",
      "city": "SÃO FÉLIX",
      "lon": "-8.04630376529653",
      "lat": "40.7940905486932"
    },
    {
      "id": "pt.ine.add.PTCONT.5527140",
      "street": "R TENDA",
      "house": "12",
      "postcode": "3660-303",
      "city": "SÃO FÉLIX",
      "lon": "-8.046375315257666",
      "lat": "40.79373940916607"
    },
    {
      "id": "pt.ine.add.PTCONT.5528222",
      "street": "R AVIARIOS",
      "house": "",
      "postcode": "3660-303",
      "city": "SÃO FÉLIX",
      "lon": "-8.046400289716354",
      "lat": "40.79275788749146"
    },
    {
      "id": "pt.ine.add.PTCONT.5530245",
      "street": "R CARVALHEDO",
      "house": "40",
      "postcode": "3660-303",
      "city": "SÃO FÉLIX",
      "lon": "-8.046671113830522",
      "lat": "40.79406380957888"
    },
    {
      "id": "pt.ine.add.PTCONT.5548204",
      "street": "R AVIARIOS",
      "house": "22",
      "postcode": "3660-303",
      "city": "SÃO FÉLIX",
      "lon": "-8.046008898063489",
      "lat": "40.793054756367056"
    },
    {
      "id": "pt.ine.add.PTCONT.5597771",
      "street": "R CARVALHEDO",
      "house": "35",
      "postcode": "3660-303",
      "city": "SÃO FÉLIX",
      "lon": "-8.046921522686496",
      "lat": "40.79283932260794"
    },
    {
      "id": "pt.ine.add.PTCONT.5618172",
      "street": "R CARVALHEDO",
      "house": "21",
      "postcode": "3660-303",
      "city": "SÃO FÉLIX",
      "lon": "-8.0467783130704",
      "lat": "40.79363165188021"
    },
    {
      "id": "pt.ine.add.PTCONT.5618187",
      "street": "R AVIARIOS",
      "house": "12",
      "postcode": "3660-303",
      "city": "SÃO FÉLIX",
      "lon": "-8.04605568101928",
      "lat": "40.79352304949226"
    },
    {
      "id": "pt.ine.add.PTCONT.5642770",
      "street": "R BELA VISTA",
      "house": "5",
      "postcode": "3660-303",
      "city": "SÃO FÉLIX",
      "lon": "-8.046623473171227",
      "lat": "40.794252877975055"
    },
    {
      "id": "pt.ine.add.PTCONT.5657305",
      "street": "LG FERREIRO",
      "house": "",
      "postcode": "3660-303",
      "city": "SÃO FÉLIX",
      "lon": "-8.046410170419005",
      "lat": "40.794270727823125"
    },
    {
      "id": "pt.ine.add.PTCONT.5669883",
      "street": "LG FERREIRO",
      "house": "8",
      "postcode": "3660-303",
      "city": "SÃO FÉLIX",
      "lon": "-8.046315356129508",
      "lat": "40.794288666459835"
    }
  ]
}