{
  "data": {
    "distrito": "Lisboa",
    "concelho": "Sintra",
    "freguesia": "Casal de Cambra",
    "OBJECTID": 2146,
    "BGRI2021": "11111500805",
    "DT21": "11",
    "DTMN21": "1111",
    "DTMNFR21": "111115",
    "DTMNFRSEC21": "111115008",
    "SECNUM21": "008",
    "SSNUM21": "05",
    "SECSSNUM21": "00805",
    "OBJECTID_1": 113413,
    "DT": "11",
    "CC": "11",
    "fr": "15",
    "SEC": "008",
    "SS": "05"
  },
  "addresses": [
    {
      "id": "pt.ine.add.PTCONT.2403518",
      "street": "R ROTERDAO",
      "house": "15",
      "postcode": "2605-852",
      "city": "CASAL DE CAMBRA",
      "lon": "-9.229439159010758",
      "lat": "38.80168460646805"
    },
    {
      "id": "pt.ine.add.PTCONT.2403519",
      "street": "R ROTERDAO",
      "house": "15",
      "postcode": "2605-852",
      "city": "CASAL DE CAMBRA",
      "lon": "-9.229439159010758",
      "lat": "38.80168460646805"
    },
    {
      "id": "pt.ine.add.PTCONT.2403520",
      "street": "R ROTERDAO",
      "house": "15",
      "postcode": "2605-852",
      "city": "CASAL DE CAMBRA",
      "lon": "-9.229439159010758",
      "lat": "38.80168460646805"
    },
    {
      "id": "pt.ine.add.PTCONT.2403521",
      "street": "R ROTERDAO",
      "house": "15",
      "postcode": "2605-852",
      "city": "CASAL DE CAMBRA",
      "lon": "-9.229439159010758",
      "lat": "38.80168460646805"
    },
    {
      "id": "pt.ine.add.PTCONT.2403522",
      "street": "R ROTERDAO",
      "house": "15",
      "postcode": "2605-852",
      "city": "CASAL DE CAMBRA",
      "lon": "-9.229439159010758",
      "lat": "38.80168460646805"
    },
    {
      "id": "pt.ine.add.PTCONT.2403523",
      "street": "R ROTERDAO",
      "house": "15",
      "postcode": "2605-852",
      "city": "CASAL DE CAMBRA",
      "lon": "-9.229439159010758",
      "lat": "38.80168460646805"
    },
    {
      "id": "pt.ine.add.PTCONT.2403524",
      "street": "R ROTERDAO",
      "house": "15",
      "postcode": "2605-852",
      "city": "CASAL DE CAMBRA",
      "lon": "-9.229439159010758",
      "lat": "38.80168460646805"
    },
    {
      "id": "pt.ine.add.PTCONT.2403525",
      "street": "R ROTERDAO",
      "house": "15",
      "postcode": "2605-852",
      "city": "CASAL DE CAMBRA",
      "lon": "-9.229439159010758",
      "lat": "38.80168460646805"
    },
    {
      "id": "pt.ine.add.PTCONT.2403526",
      "street": "R ROTERDAO",
      "house": "15",
      "postcode": "2605-852",
      "city": "CASAL DE CAMBRA",
      "lon": "-9.229439159010758",
      "lat": "38.80168460646805"
    },
    {
      "id": "pt.ine.add.PTCONT.2465178",
      "street": "AV LISBOA",
      "house": "75",
      "postcode": "2605-896",
      "city": "CASAL DE CAMBRA",
      "lon": "-9.228641821136446",
      "lat": "38.80148490851975"
    },
    {
      "id": "pt.ine.add.PTCONT.2465179",
      "street": "AV LISBOA",
      "house": "75",
      "postcode": "2605-896",
      "city": "CASAL DE CAMBRA",
      "lon": "-9.228641821136446",
      "lat": "38.80148490851975"
    },
    {
      "id": "pt.ine.add.PTCONT.2465180",
      "street": "AV LISBOA",
      "house": "75",
      "postcode": "2605-896",
      "city": "CASAL DE CAMBRA",
      "lon": "-9.228641821136446",
      "lat": "38.80148490851975"
    },
    {
      "id": "pt.ine.add.PTCONT.2465181",
      "street": "AV LISBOA",
      "house": "75",
      "postcode": "2605-896",
      "city": "CASAL DE CAMBRA",
      "lon": "-9.228641821136446",
      "lat": "38.80148490851975"
    },
    {
      "id": "pt.ine.add.PTCONT.2643752",
      "street": "R ROTERDAO",
      "house": "3",
      "postcode": "2605-852",
      "city": "CASAL DE CAMBRA",
      "lon": "-9.228817362153313",
      "lat": "38.80167242412101"
    },
    {
      "id": "pt.ine.add.PTCONT.2643935",
      "street": "R ROTERDAO",
      "house": "3",
      "postcode": "2605-852",
      "city": "CASAL DE CAMBRA",
      "lon": "-9.228817362153313",
      "lat": "38.80167242412101"
    },
    {
      "id": "pt.ine.add.PTCONT.2696267",
      "street": "AV DINAMARCA",
      "house": "124",
      "postcode": "2605-897",
      "city": "CASAL DE CAMBRA",
      "lon": "-9.229600156007859",
      "lat": "38.801674087919366"
    },
    {
      "id": "pt.ine.add.PTCONT.2769115",
      "street": "R PISA",
      "house": "4",
      "postcode": "2605-842",
      "city": "CASAL DE CAMBRA",
      "lon": "-9.229043415966165",
      "lat": "38.80140007283957"
    },
    {
      "id": "pt.ine.add.PTCONT.2769116",
      "street": "R PISA",
      "house": "4",
      "postcode": "2605-842",
      "city": "CASAL DE CAMBRA",
      "lon": "-9.229043415966165",
      "lat": "38.80140007283957"
    },
    {
      "id": "pt.ine.add.PTCONT.2769117",
      "street": "R PISA",
      "house": "4",
      "postcode": "2605-842",
      "city": "CASAL DE CAMBRA",
      "lon": "-9.229043415966165",
      "lat": "38.80140007283957"
    },
    {
      "id": "pt.ine.add.PTCONT.2769118",
      "street": "R PISA",
      "house": "4",
      "postcode": "2605-842",
      "city": "CASAL DE CAMBRA",
      "lon": "-9.229043415966165",
      "lat": "38.80140007283957"
    },
    {
      "id": "pt.ine.add.PTCONT.2769119",
      "street": "R PISA",
      "house": "4",
      "postcode": "2605-842",
      "city": "CASAL DE CAMBRA",
      "lon": "-9.229043415966165",
      "lat": "38.80140007283957"
    },
    {
      "id": "pt.ine.add.PTCONT.2769120",
      "street": "R PISA",
      "house": "4",
      "postcode": "2605-842",
      "city": "CASAL DE CAMBRA",
      "lon": "-9.229043415966165",
      "lat": "38.80140007283957"
    },
    {
      "id": "pt.ine.add.PTCONT.2769121",
      "street": "R PISA",
      "house": "4",
      "postcode": "2605-842",
      "city": "CASAL DE CAMBRA",
      "lon": "-9.229043415966165",
      "lat": "38.80140007283957"
    },
    {
      "id": "pt.ine.add.PTCONT.2769122",
      "street": "R PISA",
      "house": "4",
      "postcode": "2605-842",
      "city": "CASAL DE CAMBRA",
      "lon": "-9.229043415966165",
      "lat": "38.80140007283957"
    },
    {
      "id": "pt.ine.add.PTCONT.2769123",
      "street": "R PISA",
      "house": "4",
      "postcode": "2605-842",
      "city": "CASAL DE CAMBRA",
      "lon": "-9.229043415966165",
      "lat": "38.80140007283957"
    },
    {
      "id": "pt.ine.add.PTCONT.2769124",
      "street": "R PISA",
      "house": "4",
      "postcode": "2605-842",
      "city": "CASAL DE CAMBRA",
      "lon": "-9.229043415966165",
      "lat": "38.80140007283957"
    },
    {
      "id": "pt.ine.add.PTCONT.2769125",
      "street": "R PISA",
      "house": "4",
      "postcode": "2605-842",
      "city": "CASAL DE CAMBRA",
      "lon": "-9.229043415966165",
      "lat": "38.80140007283957"
    },
    {
      "id": "pt.ine.add.PTCONT.2770891",
      "street": "R PISA",
      "house": "4",
      "postcode": "2605-842",
      "city": "CASAL DE CAMBRA",
      "lon": "-9.229043415966165",
      "lat": "38.80140007283957"
    },
    {
      "id": "pt.ine.add.PTCONT.2826289",
      "street": "AV LISBOA",
      "house": "77",
      "postcode": "2605-896",
      "city": "CASAL DE CAMBRA",
      "lon": "-9.228633207802677",
      "lat": "38.80167415103171"
    },
    {
      "id": "pt.ine.add.PTCONT.3003546",
      "street": "R ROTERDAO",
      "house": "11",
      "postcode": "2605-852",
      "city": "CASAL DE CAMBRA",
      "lon": "-9.229301043254491",
      "lat": "38.80168590241358"
    },
    {
      "id": "pt.ine.add.PTCONT.3003547",
      "street": "R ROTERDAO",
      "house": "11",
      "postcode": "2605-852",
      "city": "CASAL DE CAMBRA",
      "lon": "-9.229301043254491",
      "lat": "38.80168590241358"
    },
    {
      "id": "pt.ine.add.PTCONT.3043315",
      "street": "R ANTUERPIA",
      "house": "2",
      "postcode": "2605-714",
      "city": "CASAL DE CAMBRA",
      "lon": "-9.229075323285235",
      "lat": "38.80122862719307"
    },
    {
      "id": "pt.ine.add.PTCONT.3043316",
      "street": "R ANTUERPIA",
      "house": "2",
      "postcode": "2605-714",
      "city": "CASAL DE CAMBRA",
      "lon": "-9.229075323285235",
      "lat": "38.80122862719307"
    },
    {
      "id": "pt.ine.add.PTCONT.3043317",
      "street": "R ANTUERPIA",
      "house": "2",
      "postcode": "2605-714",
      "city": "CASAL DE CAMBRA",
      "lon": "-9.229075323285235",
      "lat": "38.80122862719307"
    },
    {
      "id": "pt.ine.add.PTCONT.3043318",
      "street": "R ANTUERPIA",
      "house": "2",
      "postcode": "2605-714",
      "city": "CASAL DE CAMBRA",
      "lon": "-9.229075323285235",
      "lat": "38.80122862719307"
    },
    {
      "id": "pt.ine.add.PTCONT.3043319",
      "street": "R ANTUERPIA",
      "house": "2",
      "postcode": "2605-714",
      "city": "CASAL DE CAMBRA",
      "lon": "-9.229075323285235",
      "lat": "38.80122862719307"
    },
    {
      "id": "pt.ine.add.PTCONT.3043320",
      "street": "R ANTUERPIA",
      "house": "2",
      "postcode": "2605-714",
      "city": "CASAL DE CAMBRA",
      "lon": "-9.229075323285235",
      "lat": "38.80122862719307"
    },
    {
      "id": "pt.ine.add.PTCONT.3043321",
      "street": "R ANTUERPIA",
      "house": "2",
      "postcode": "2605-714",
      "city": "CASAL DE CAMBRA",
      "lon": "-9.229075323285235",
      "lat": "38.80122862719307"
    },
    {
      "id": "pt.ine.add.PTCONT.3043322",
      "street": "R ANTUERPIA",
      "house": "2",
      "postcode": "2605-714",
      "city": "CASAL DE CAMBRA",
      "lon": "-9.229075323285235",
      "lat": "38.80122862719307"
    },
    {
      "id": "pt.ine.add.PTCONT.3043323",
      "street": "R ANTUERPIA",
      "house": "2",
      "postcode": "2605-714",
      "city": "CASAL DE CAMBRA",
      "lon": "-9.229075323285235",
      "lat": "38.80122862719307"
    },
    {
      "id": "pt.ine.add.PTCONT.3043324",
      "street": "R ANTUERPIA",
      "house": "2",
      "postcode": "2605-714",
      "city": "CASAL DE CAMBRA",
      "lon": "-9.229075323285235",
      "lat": "38.80122862719307"
    },
    {
      "id": "pt.ine.add.PTCONT.3043325",
      "street": "R ANTUERPIA",
      "house": "2",
      "postcode": "2605-714",
      "city": "CASAL DE CAMBRA",
      "lon": "-9.229075323285235",
      "lat": "38.80122862719307"
    },
    {
      "id": "pt.ine.add.PTCONT.3043326",
      "street": "R ANTUERPIA",
      "house": "2",
      "postcode": "2605-714",
      "city": "CASAL DE CAMBRA",
      "lon": "-9.229075323285235",
      "lat": "38.80122862719307"
    },
    {
      "id": "pt.ine.add.PTCONT.3043327",
      "street": "R ANTUERPIA",
      "house": "2",
      "postcode": "2605-714",
      "city": "CASAL DE CAMBRA",
      "lon": "-9.229075323285235",
      "lat": "38.80122862719307"
    },
    {
      "id": "pt.ine.add.PTCONT.3043328",
      "street": "R ANTUERPIA",
      "house": "2",
      "postcode": "2605-714",
      "city": "CASAL DE CAMBRA",
      "lon": "-9.229075323285235",
      "lat": "38.80122862719307"
    },
    {
      "id": "pt.ine.add.PTCONT.3043329",
      "street": "R ANTUERPIA",
      "house": "2",
      "postcode": "2605-714",
      "city": "CASAL DE CAMBRA",
      "lon": "-9.229075323285235",
      "lat": "38.80122862719307"
    },
    {
      "id": "pt.ine.add.PTCONT.3043330",
      "street": "R ANTUERPIA",
      "house": "2",
      "postcode": "2605-714",
      "city": "CASAL DE CAMBRA",
      "lon": "-9.229075323285235",
      "lat": "38.80122862719307"
    },
    {
      "id": "pt.ine.add.PTCONT.3043332",
      "street": "R ANTUERPIA",
      "house": "2",
      "postcode": "2605-714",
      "city": "CASAL DE CAMBRA",
      "lon": "-9.229075323285235",
      "lat": "38.80122862719307"
    },
    {
      "id": "pt.ine.add.PTCONT.3115393",
      "street": "R ROTERDAO",
      "house": "9",
      "postcode": "2605-852",
      "city": "CASAL DE CAMBRA",
      "lon": "-9.22919773241155",
      "lat": "38.801704887079886"
    },
    {
      "id": "pt.ine.add.PTCONT.3115394",
      "street": "R ROTERDAO",
      "house": "9",
      "postcode": "2605-852",
      "city": "CASAL DE CAMBRA",
      "lon": "-9.22919773241155",
      "lat": "38.801704887079886"
    },
    {
      "id": "pt.ine.add.PTCONT.3115395",
      "street": "AV S TOME E PRINCIPE",
      "house": "114",
      "postcode": "2605-696",
      "city": "CASAL DE CAMBRA",
      "lon": "-9.22919773241155",
      "lat": "38.801704887079886"
    },
    {
      "id": "pt.ine.add.PTCONT.3204002",
      "street": "R ROTERDAO",
      "house": "5",
      "postcode": "2605-852",
      "city": "CASAL DE CAMBRA",
      "lon": "-9.228944106218242",
      "lat": "38.801680243109516"
    },
    {
      "id": "pt.ine.add.PTCONT.3204003",
      "street": "R ROTERDAO",
      "house": "5",
      "postcode": "2605-852",
      "city": "CASAL DE CAMBRA",
      "lon": "-9.228944106218242",
      "lat": "38.801680243109516"
    },
    {
      "id": "pt.ine.add.PTCONT.3204004",
      "street": "R ROTERDAO",
      "house": "5",
      "postcode": "2605-852",
      "city": "CASAL DE CAMBRA",
      "lon": "-9.228944106218242",
      "lat": "38.801680243109516"
    },
    {
      "id": "pt.ine.add.PTCONT.3446378",
      "street": "R ANTUERPIA",
      "house": "2",
      "postcode": "2605-714",
      "city": "CASAL DE CAMBRA",
      "lon": "-9.229075323285235",
      "lat": "38.80122862719307"
    },
    {
      "id": "pt.ine.add.PTCONT.3454892",
      "street": "R ROTERDAO",
      "house": "15",
      "postcode": "2605-852",
      "city": "CASAL DE CAMBRA",
      "lon": "-9.229439159010758",
      "lat": "38.80168460646805"
    }
  ]
}