{
  "data": {
    "distrito": "Vila Real",
    "concelho": "Vila Pouca de Aguiar",
    "freguesia": "União das freguesias de Pensalvos e Parada de Monteiros",
    "OBJECTID": 415,
    "BGRI2021": "17132000108",
    "DT21": "17",
    "DTMN21": "1713",
    "DTMNFR21": "171320",
    "DTMNFRSEC21": "171320001",
    "SECNUM21": "001",
    "SSNUM21": "08",
    "SECSSNUM21": "00108",
    "OBJECTID_1": 186784,
    "DT": "17",
    "CC": "13",
    "fr": "20",
    "SEC": "001",
    "SS": "08"
  },
  "addresses": [
    {
      "id": "pt.ine.add.PTCONT.5328077",
      "street": "R DO COVELINHO",
      "house": "15",
      "postcode": "5450-230",
      "city": "PENSALVOS",
      "lon": "-7.662534457611031",
      "lat": "41.543278457244966"
    },
    {
      "id": "pt.ine.add.PTCONT.5332246",
      "street": "TV DO CAMPO LIVRE",
      "house": "4",
      "postcode": "5450-230",
      "city": "PENSALVOS",
      "lon": "-7.664827104888621",
      "lat": "41.544440295694855"
    },
    {
      "id": "pt.ine.add.PTCONT.5335088",
      "street": "R DA LAMA DE PAREDES",
      "house": "3",
      "postcode": "5450-230",
      "city": "PENSALVOS",
      "lon": "-7.664989561375577",
      "lat": "41.54517926415885"
    },
    {
      "id": "pt.ine.add.PTCONT.5338472",
      "street": "R DAS GIESTAS",
      "house": "4",
      "postcode": "5450-230",
      "city": "PENSALVOS",
      "lon": "-7.667766574312972",
      "lat": "41.54399303732655"
    },
    {
      "id": "pt.ine.add.PTCONT.5343902",
      "street": "R DO COVELINHO",
      "house": "9",
      "postcode": "5450-230",
      "city": "PENSALVOS",
      "lon": "-7.6631953472553445",
      "lat": "41.54303805865717"
    },
    {
      "id": "pt.ine.add.PTCONT.5364198",
      "street": "R DO COVELINHO",
      "house": "18",
      "postcode": "5450-230",
      "city": "PENSALVOS",
      "lon": "-7.663172747929864",
      "lat": "41.54284888762341"
    },
    {
      "id": "pt.ine.add.PTCONT.5397437",
      "street": "R DO BR DE ALÉM",
      "house": "14",
      "postcode": "5450-230",
      "city": "PENSALVOS",
      "lon": "-7.663877271175387",
      "lat": "41.54320291069128"
    },
    {
      "id": "pt.ine.add.PTCONT.5407679",
      "street": "TV DO CAMPO LIVRE",
      "house": "1",
      "postcode": "5450-230",
      "city": "PENSALVOS",
      "lon": "-7.663658106486389",
      "lat": "41.54533590369062"
    }
  ]
}