{
  "data": {
    "distrito": "Lisboa",
    "concelho": "Torres Vedras",
    "freguesia": "União das freguesias de A dos Cunhados e Maceira",
    "OBJECTID": 421,
    "BGRI2021": "11132100604",
    "DT21": "11",
    "DTMN21": "1113",
    "DTMNFR21": "111321",
    "DTMNFRSEC21": "111321006",
    "SECNUM21": "006",
    "SSNUM21": "04",
    "SECSSNUM21": "00604",
    "OBJECTID_1": 115270,
    "DT": "11",
    "CC": "13",
    "fr": "21",
    "SEC": "006",
    "SS": "04"
  },
  "addresses": [
    {
      "id": "pt.ine.add.PTCONT.2300554",
      "street": "CSL TABERNINHA",
      "house": "4",
      "postcode": "2560-049",
      "city": "A DOS CUNHADOS",
      "lon": "-9.336932102060693",
      "lat": "39.146572673987734"
    },
    {
      "id": "pt.ine.add.PTCONT.2470319",
      "street": "R JULIÃO CRISOSTOMO",
      "house": "20",
      "postcode": "2560-049",
      "city": "A DOS CUNHADOS",
      "lon": "-9.336209782951292",
      "lat": "39.14694942516818"
    },
    {
      "id": "pt.ine.add.PTCONT.2499874",
      "street": "R JULIÃO CRISOSTOMO",
      "house": "20 A",
      "postcode": "2560-049",
      "city": "A DOS CUNHADOS",
      "lon": "-9.336231226702886",
      "lat": "39.14685012549023"
    },
    {
      "id": "pt.ine.add.PTCONT.2606074",
      "street": "CSL TABERNINHA",
      "house": "",
      "postcode": "2560-049",
      "city": "A DOS CUNHADOS",
      "lon": "-9.339200067127317",
      "lat": "39.147296814318715"
    },
    {
      "id": "pt.ine.add.PTCONT.2793235",
      "street": "R AEROPLANOS",
      "house": "5",
      "postcode": "2560-049",
      "city": "A DOS CUNHADOS",
      "lon": "-9.339957135729128",
      "lat": "39.1489552924763"
    },
    {
      "id": "pt.ine.add.PTCONT.2948568",
      "street": "R REMEXIDOS",
      "house": "11",
      "postcode": "2560-049",
      "city": "A DOS CUNHADOS",
      "lon": "-9.340291741718795",
      "lat": "39.14958232454557"
    },
    {
      "id": "pt.ine.add.PTCONT.2948569",
      "street": "R PARENTE",
      "house": "4",
      "postcode": "2560-049",
      "city": "A DOS CUNHADOS",
      "lon": "-9.33637294973996",
      "lat": "39.1483798720402"
    },
    {
      "id": "pt.ine.add.PTCONT.2958942",
      "street": "R MAXIMINOS",
      "house": "4",
      "postcode": "2560-049",
      "city": "A DOS CUNHADOS",
      "lon": "-9.339037271555314",
      "lat": "39.14928006406447"
    },
    {
      "id": "pt.ine.add.PTCONT.3006109",
      "street": "R REMEXIDOS",
      "house": "7",
      "postcode": "2560-049",
      "city": "A DOS CUNHADOS",
      "lon": "-9.339747387208833",
      "lat": "39.1495429267438"
    },
    {
      "id": "pt.ine.add.PTCONT.3181195",
      "street": "R REMEXIDOS",
      "house": "9",
      "postcode": "2560-049",
      "city": "A DOS CUNHADOS",
      "lon": "-9.340186266182123",
      "lat": "39.14950235313129"
    },
    {
      "id": "pt.ine.add.PTCONT.3291566",
      "street": "CSL TABERNINHA",
      "house": "",
      "postcode": "2560-049",
      "city": "A DOS CUNHADOS",
      "lon": "-9.339394370703491",
      "lat": "39.14715969647459"
    },
    {
      "id": "pt.ine.add.PTCONT.3364022",
      "street": "R MAXIMINOS",
      "house": "2",
      "postcode": "2560-049",
      "city": "A DOS CUNHADOS",
      "lon": "-9.339122534925984",
      "lat": "39.14953138083438"
    },
    {
      "id": "pt.ine.add.PTCONT.3384580",
      "street": "R FORNO",
      "house": "14",
      "postcode": "2560-049",
      "city": "A DOS CUNHADOS",
      "lon": "-9.336970556696084",
      "lat": "39.14950859635947"
    },
    {
      "id": "pt.ine.add.PTCONT.3402329",
      "street": "R REMEXIDOS",
      "house": "5",
      "postcode": "2560-049",
      "city": "A DOS CUNHADOS",
      "lon": "-9.339471964463876",
      "lat": "39.14967187782307"
    }
  ]
}