{
  "data": {
    "distrito": "Lisboa",
    "concelho": "Torres Vedras",
    "freguesia": "União das freguesias de A dos Cunhados e Maceira",
    "OBJECTID": 1746,
    "BGRI2021": "11132100633",
    "DT21": "11",
    "DTMN21": "1113",
    "DTMNFR21": "111321",
    "DTMNFRSEC21": "111321006",
    "SECNUM21": "006",
    "SSNUM21": "33",
    "SECSSNUM21": "00633",
    "OBJECTID_1": 114980,
    "DT": "11",
    "CC": "13",
    "fr": "21",
    "SEC": "006",
    "SS": "33"
  },
  "addresses": [
    {
      "id": "pt.ine.add.PTCONT.2509857",
      "street": "CSL MOSCA A RUA DOS LOURENÇOS",
      "house": "",
      "postcode": "2560-049",
      "city": "A DOS CUNHADOS",
      "lon": "-9.344106989684864",
      "lat": "39.1568835283651"
    },
    {
      "id": "pt.ine.add.PTCONT.2553507",
      "street": "R LOURINHOS",
      "house": "23",
      "postcode": "2560-049",
      "city": "A DOS CUNHADOS",
      "lon": "-9.341493655466094",
      "lat": "39.156955693351335"
    },
    {
      "id": "pt.ine.add.PTCONT.2878746",
      "street": "R MOSCA",
      "house": "1",
      "postcode": "2560-049",
      "city": "A DOS CUNHADOS",
      "lon": "-9.34438210720361",
      "lat": "39.156061023004526"
    },
    {
      "id": "pt.ine.add.PTCONT.3124991",
      "street": "R LOURENÇOS",
      "house": "27",
      "postcode": "2560-049",
      "city": "A DOS CUNHADOS",
      "lon": "-9.341516469238822",
      "lat": "39.157612974969574"
    },
    {
      "id": "pt.ine.add.PTCONT.3124992",
      "street": "R LOURENÇOS",
      "house": "30",
      "postcode": "2560-049",
      "city": "A DOS CUNHADOS",
      "lon": "-9.3401783709986",
      "lat": "39.15851854638278"
    }
  ]
}