{
  "data": {
    "distrito": "Lisboa",
    "concelho": "Cadaval",
    "freguesia": "Alguber",
    "OBJECTID": 102,
    "BGRI2021": "11040100117",
    "DT21": "11",
    "DTMN21": "1104",
    "DTMNFR21": "110401",
    "DTMNFRSEC21": "110401001",
    "SECNUM21": "001",
    "SSNUM21": "17",
    "SECSSNUM21": "00117",
    "OBJECTID_1": 100169,
    "DT": "11",
    "CC": "04",
    "fr": "01",
    "SEC": "001",
    "SS": "17"
  },
  "addresses": [
    {
      "id": "pt.ine.add.PTCONT.2273990",
      "street": "R BELA VISTA",
      "house": "4",
      "postcode": "2550-017",
      "city": "ALGUBER",
      "lon": "-9.016438976426834",
      "lat": "39.277101725724236"
    },
    {
      "id": "pt.ine.add.PTCONT.2520870",
      "street": "R BELA VISTA",
      "house": "14",
      "postcode": "2550-017",
      "city": "ALGUBER",
      "lon": "-9.017685926104477",
      "lat": "39.276731974955226"
    },
    {
      "id": "pt.ine.add.PTCONT.2541258",
      "street": "TV CAMPO BOLA",
      "house": "12",
      "postcode": "2550-017",
      "city": "ALGUBER",
      "lon": "-9.01890093497538",
      "lat": "39.27658763154964"
    },
    {
      "id": "pt.ine.add.PTCONT.2631019",
      "street": "LG BELA VISTA",
      "house": "7",
      "postcode": "2550-017",
      "city": "ALGUBER",
      "lon": "-9.015852633723464",
      "lat": "39.277475463877245"
    },
    {
      "id": "pt.ine.add.PTCONT.2791225",
      "street": "R JOSE ISIDRO MARQUES",
      "house": "10",
      "postcode": "2550-017",
      "city": "ALGUBER",
      "lon": "-9.015358471442015",
      "lat": "39.27873119714201"
    },
    {
      "id": "pt.ine.add.PTCONT.2835714",
      "street": "R BELA VISTA",
      "house": "8",
      "postcode": "2550-017",
      "city": "ALGUBER",
      "lon": "-9.016842851441648",
      "lat": "39.27696355447131"
    },
    {
      "id": "pt.ine.add.PTCONT.2947749",
      "street": "R JOSE ISIDRO MARQUES",
      "house": "2",
      "postcode": "2550-017",
      "city": "ALGUBER",
      "lon": "-9.01421926464602",
      "lat": "39.27937932804701"
    },
    {
      "id": "pt.ine.add.PTCONT.2963533",
      "street": "R JOSE ISIDRO MARQUES",
      "house": "4",
      "postcode": "2550-017",
      "city": "ALGUBER",
      "lon": "-9.014481955033181",
      "lat": "39.27907109826676"
    },
    {
      "id": "pt.ine.add.PTCONT.3129794",
      "street": "R BELA VISTA",
      "house": "2",
      "postcode": "2550-017",
      "city": "ALGUBER",
      "lon": "-9.01623107479806",
      "lat": "39.27715734539918"
    },
    {
      "id": "pt.ine.add.PTCONT.3158110",
      "street": "R BELA VISTA",
      "house": "6",
      "postcode": "2550-017",
      "city": "ALGUBER",
      "lon": "-9.016600187244356",
      "lat": "39.277019438639584"
    },
    {
      "id": "pt.ine.add.PTCONT.3333471",
      "street": "ESTR CAMPO DA BOLA",
      "house": "14",
      "postcode": "2550-017",
      "city": "ALGUBER",
      "lon": "-9.018513415592434",
      "lat": "39.27710398407632"
    },
    {
      "id": "pt.ine.add.PTCONT.3351328",
      "street": "R BELA VISTA",
      "house": "14",
      "postcode": "2550-017",
      "city": "ALGUBER",
      "lon": "-9.017442584002291",
      "lat": "39.27673382337622"
    },
    {
      "id": "pt.ine.add.PTCONT.3363339",
      "street": "ESTR QUINTA DA BELA VISTA QUINTA DA BOAVISTA",
      "house": "",
      "postcode": "2550-017",
      "city": "ALGUBER",
      "lon": "-9.01842270443872",
      "lat": "39.2791042513111"
    },
    {
      "id": "pt.ine.add.PTCONT.3393848",
      "street": "R HEROINA",
      "house": "12",
      "postcode": "2550-017",
      "city": "ALGUBER",
      "lon": "-9.017234797490403",
      "lat": "39.276798451074065"
    },
    {
      "id": "pt.ine.add.PTCONT.3398040",
      "street": "R BELA VISTA",
      "house": "10",
      "postcode": "2550-017",
      "city": "ALGUBER",
      "lon": "-9.017073361559484",
      "lat": "39.27686272652819"
    }
  ]
}