{
  "data": {
    "distrito": "Aveiro",
    "concelho": "Ovar",
    "freguesia": "Esmoriz",
    "OBJECTID": 799,
    "BGRI2021": "01150300204",
    "DT21": "01",
    "DTMN21": "0115",
    "DTMNFR21": "011503",
    "DTMNFRSEC21": "011503002",
    "SECNUM21": "002",
    "SSNUM21": "04",
    "SECSSNUM21": "00204",
    "OBJECTID_1": 9983,
    "DT": "01",
    "CC": "15",
    "fr": "03",
    "SEC": "002",
    "SS": "04"
  },
  "addresses": [
    {
      "id": "pt.ine.add.PTCONT.291439",
      "street": "R ALEXANDRÃ‰ DE CASTRO SOARES",
      "house": "63",
      "postcode": "3885-434",
      "city": "ESMORIZ",
      "lon": "-8.624290534582439",
      "lat": "40.953191902061185"
    },
    {
      "id": "pt.ine.add.PTCONT.291440",
      "street": "R ALEXANDRE CASTRO SOARES",
      "house": "51",
      "postcode": "3885-434",
      "city": "ESMORIZ",
      "lon": "-8.624290534582439",
      "lat": "40.953191902061185"
    },
    {
      "id": "pt.ine.add.PTCONT.291441",
      "street": "R ALEXANDRE DE CASTRO SOARES",
      "house": "333",
      "postcode": "3885-434",
      "city": "ESMORIZ",
      "lon": "-8.624563433828952",
      "lat": "40.95315472051351"
    },
    {
      "id": "pt.ine.add.PTCONT.293084",
      "street": "R ALEXANDRE DE CASTRO SOARES",
      "house": "",
      "postcode": "3885-434",
      "city": "ESMORIZ",
      "lon": "-8.624468419502788",
      "lat": "40.9531551254694"
    },
    {
      "id": "pt.ine.add.PTCONT.310651",
      "street": "R ALEXANDRE DE CASTRO SOARES",
      "house": "295",
      "postcode": "3885-434",
      "city": "ESMORIZ",
      "lon": "-8.624052731803097",
      "lat": "40.95315689623091"
    },
    {
      "id": "pt.ine.add.PTCONT.310652",
      "street": "R ALEXANDRE DE CASTRO SOARES",
      "house": "295",
      "postcode": "3885-434",
      "city": "ESMORIZ",
      "lon": "-8.624052731803097",
      "lat": "40.95315689623091"
    },
    {
      "id": "pt.ine.add.PTCONT.328744",
      "street": "AV 29 DE MARCO",
      "house": "",
      "postcode": "3885-517",
      "city": "ESMORIZ",
      "lon": "-8.624906791621786",
      "lat": "40.95300918186103"
    },
    {
      "id": "pt.ine.add.PTCONT.15154",
      "street": "R MATOSINHOS DE CIMA",
      "house": "230",
      "postcode": "3885-592",
      "city": "ESMORIZ",
      "lon": "-8.624560228728395",
      "lat": "40.95272251038733"
    },
    {
      "id": "pt.ine.add.PTCONT.55445",
      "street": "R MATOSINHOS DE CIMA",
      "house": "212",
      "postcode": "3885-592",
      "city": "ESMORIZ",
      "lon": "-8.62437033480615",
      "lat": "40.952741328965"
    },
    {
      "id": "pt.ine.add.PTCONT.89198",
      "street": "R ALEXANDRE DE CASTRO SOARES",
      "house": "295",
      "postcode": "3885-434",
      "city": "ESMORIZ",
      "lon": "-8.623768222112977",
      "lat": "40.95323014462763"
    },
    {
      "id": "pt.ine.add.PTCONT.89199",
      "street": "R MATOSINHOS DE CIMA",
      "house": "208",
      "postcode": "3885-592",
      "city": "ESMORIZ",
      "lon": "-8.624050063656384",
      "lat": "40.95279672110059"
    },
    {
      "id": "pt.ine.add.PTCONT.89200",
      "street": "R MATOSINHOS DE CIMA",
      "house": "208",
      "postcode": "3885-592",
      "city": "ESMORIZ",
      "lon": "-8.624050063656384",
      "lat": "40.95279672110059"
    },
    {
      "id": "pt.ine.add.PTCONT.89201",
      "street": "TV OUTEIRO",
      "house": "202",
      "postcode": "3885-661",
      "city": "ESMORIZ",
      "lon": "-8.624050063656384",
      "lat": "40.95279672110059"
    },
    {
      "id": "pt.ine.add.PTCONT.89202",
      "street": "VLA OUTEIRO",
      "house": "7",
      "postcode": "3885-685",
      "city": "ESMORIZ",
      "lon": "-8.624050063656384",
      "lat": "40.95279672110059"
    },
    {
      "id": "pt.ine.add.PTCONT.90771",
      "street": "VLA OUTEIRO",
      "house": "27",
      "postcode": "3885-685",
      "city": "ESMORIZ",
      "lon": "-8.624050063656384",
      "lat": "40.95279672110059"
    },
    {
      "id": "pt.ine.add.PTCONT.96704",
      "street": "R ALEXANDRE DE CASTRO SOARES",
      "house": "",
      "postcode": "3885-434",
      "city": "ESMORIZ",
      "lon": "-8.62440930255891",
      "lat": "40.95319139603695"
    },
    {
      "id": "pt.ine.add.PTCONT.246592",
      "street": "R RELVA DE TRAS",
      "house": "276",
      "postcode": "3885-619",
      "city": "ESMORIZ",
      "lon": "-8.623471834968576",
      "lat": "40.95330344283762"
    }
  ]
}