{
  "data": {
    "distrito": "Lisboa",
    "concelho": "Cascais",
    "freguesia": "União das freguesias de Cascais e Estoril",
    "OBJECTID": 1558,
    "BGRI2021": "11050804308",
    "DT21": "11",
    "DTMN21": "1105",
    "DTMNFR21": "110508",
    "DTMNFRSEC21": "110508043",
    "SECNUM21": "043",
    "SSNUM21": "08",
    "SECSSNUM21": "04308",
    "OBJECTID_1": 102258,
    "DT": "11",
    "CC": "05",
    "fr": "08",
    "SEC": "043",
    "SS": "08"
  },
  "addresses": [
    {
      "id": "pt.ine.add.PTCONT.2926701",
      "street": "R ALEXANDRE HERCULANO",
      "house": "114",
      "postcode": "2750-284",
      "city": "CASCAIS",
      "lon": "-9.42206290698724",
      "lat": "38.698436350054145"
    },
    {
      "id": "pt.ine.add.PTCONT.2926702",
      "street": "R ALEXANDRE HERCULANO",
      "house": "114",
      "postcode": "2750-284",
      "city": "CASCAIS",
      "lon": "-9.42206290698724",
      "lat": "38.698436350054145"
    },
    {
      "id": "pt.ine.add.PTCONT.2926703",
      "street": "R ALEXANDRE HERCULANO",
      "house": "114",
      "postcode": "2750-284",
      "city": "CASCAIS",
      "lon": "-9.42206290698724",
      "lat": "38.698436350054145"
    },
    {
      "id": "pt.ine.add.PTCONT.2926704",
      "street": "R ALEXANDRE HERCULANO",
      "house": "114",
      "postcode": "2750-284",
      "city": "CASCAIS",
      "lon": "-9.42206290698724",
      "lat": "38.698436350054145"
    },
    {
      "id": "pt.ine.add.PTCONT.3111222",
      "street": "R AFONSO SANCHES",
      "house": "55",
      "postcode": "2750-282",
      "city": "CASCAIS",
      "lon": "-9.422133477412446",
      "lat": "38.6985256492148"
    },
    {
      "id": "pt.ine.add.PTCONT.3342761",
      "street": "R POÇO NOVO",
      "house": "48",
      "postcode": "2750-466",
      "city": "CASCAIS",
      "lon": "-9.422410585997143",
      "lat": "38.69859465555471"
    },
    {
      "id": "pt.ine.add.PTCONT.3342762",
      "street": "R POÇO NOVO",
      "house": "48",
      "postcode": "2750-466",
      "city": "CASCAIS",
      "lon": "-9.422410585997143",
      "lat": "38.69859465555471"
    },
    {
      "id": "pt.ine.add.PTCONT.3342763",
      "street": "R POÇO NOVO",
      "house": "48",
      "postcode": "2750-466",
      "city": "CASCAIS",
      "lon": "-9.422410585997143",
      "lat": "38.69859465555471"
    },
    {
      "id": "pt.ine.add.PTCONT.3379571",
      "street": "R POÇO NOVO",
      "house": "252",
      "postcode": "2750-466",
      "city": "CASCAIS",
      "lon": "-9.422327390956703",
      "lat": "38.69844244175796"
    },
    {
      "id": "pt.ine.add.PTCONT.3379572",
      "street": "R POÇO NOVO",
      "house": "252",
      "postcode": "2750-466",
      "city": "CASCAIS",
      "lon": "-9.422327390956703",
      "lat": "38.69844244175796"
    },
    {
      "id": "pt.ine.add.PTCONT.3379573",
      "street": "R POÇO NOVO",
      "house": "252",
      "postcode": "2750-466",
      "city": "CASCAIS",
      "lon": "-9.422327390956703",
      "lat": "38.69844244175796"
    },
    {
      "id": "pt.ine.add.PTCONT.3379574",
      "street": "R POÇO NOVO",
      "house": "252",
      "postcode": "2750-466",
      "city": "CASCAIS",
      "lon": "-9.422327390956703",
      "lat": "38.69844244175796"
    },
    {
      "id": "pt.ine.add.PTCONT.2413131",
      "street": "R ALEXANDRE HERCULANO",
      "house": "122",
      "postcode": "2750-284",
      "city": "CASCAIS",
      "lon": "-9.422199197395607",
      "lat": "38.698344770325434"
    },
    {
      "id": "pt.ine.add.PTCONT.2413132",
      "street": "R ALEXANDRE HERCULANO",
      "house": "122",
      "postcode": "2750-284",
      "city": "CASCAIS",
      "lon": "-9.422199197395607",
      "lat": "38.698344770325434"
    },
    {
      "id": "pt.ine.add.PTCONT.2413133",
      "street": "R ALEXANDRE HERCULANO",
      "house": "122",
      "postcode": "2750-284",
      "city": "CASCAIS",
      "lon": "-9.422199197395607",
      "lat": "38.698344770325434"
    },
    {
      "id": "pt.ine.add.PTCONT.2413134",
      "street": "R ALEXANDRE HERCULANO",
      "house": "122",
      "postcode": "2750-284",
      "city": "CASCAIS",
      "lon": "-9.422199197395607",
      "lat": "38.698344770325434"
    },
    {
      "id": "pt.ine.add.PTCONT.2413135",
      "street": "R ALEXANDRE HERCULANO",
      "house": "122",
      "postcode": "2750-284",
      "city": "CASCAIS",
      "lon": "-9.422199197395607",
      "lat": "38.698344770325434"
    },
    {
      "id": "pt.ine.add.PTCONT.2701943",
      "street": "R AFONSO SANCHES",
      "house": "59",
      "postcode": "2750-282",
      "city": "CASCAIS",
      "lon": "-9.42222719430878",
      "lat": "38.69862370084539"
    },
    {
      "id": "pt.ine.add.PTCONT.2719457",
      "street": "TV VISC DA LUZ",
      "house": "13",
      "postcode": "2750-413",
      "city": "CASCAIS",
      "lon": "-9.422274295399918",
      "lat": "38.698686235529564"
    }
  ]
}