{
  "data": {
    "distrito": "Coimbra",
    "concelho": "Pampilhosa da Serra",
    "freguesia": "Fajão-Vidual",
    "OBJECTID": 290,
    "BGRI2021": "06121100117",
    "DT21": "06",
    "DTMN21": "0612",
    "DTMNFR21": "061211",
    "DTMNFRSEC21": "061211001",
    "SECNUM21": "001",
    "SSNUM21": "17",
    "SECSSNUM21": "00117",
    "OBJECTID_1": 55337,
    "DT": "06",
    "CC": "12",
    "fr": "11",
    "SEC": "001",
    "SS": "17"
  },
  "addresses": [
    {
      "id": "pt.ine.add.PTCONT.1109544",
      "street": "JULIO SANTOS DIAS",
      "house": "",
      "postcode": "3320-078",
      "city": "FAJÃO",
      "lon": "-7.932256229138404",
      "lat": "40.13387476118096"
    },
    {
      "id": "pt.ine.add.PTCONT.1124826",
      "street": "CARLOS",
      "house": "",
      "postcode": "3320-078",
      "city": "FAJÃO",
      "lon": "-7.9322342208411065",
      "lat": "40.13337939404404"
    },
    {
      "id": "pt.ine.add.PTCONT.1179154",
      "street": "AURÉLIO FERNANDES DE CAMPOS",
      "house": "",
      "postcode": "3320-078",
      "city": "FAJÃO",
      "lon": "-7.932255433758627",
      "lat": "40.13414493921898"
    },
    {
      "id": "pt.ine.add.PTCONT.1211330",
      "street": "",
      "house": "",
      "postcode": "3320-078",
      "city": "FAJÃO",
      "lon": "-7.9322771508187095",
      "lat": "40.13473937155626"
    },
    {
      "id": "pt.ine.add.PTCONT.1218337",
      "street": "CARLOS COELHO",
      "house": "",
      "postcode": "3320-078",
      "city": "FAJÃO",
      "lon": "-7.9321164905561705",
      "lat": "40.13351427949825"
    },
    {
      "id": "pt.ine.add.PTCONT.1271978",
      "street": "AFONSO NUNES",
      "house": "",
      "postcode": "3320-078",
      "city": "FAJÃO",
      "lon": "-7.931974071964258",
      "lat": "40.134063397070136"
    },
    {
      "id": "pt.ine.add.PTCONT.1326460",
      "street": "LEONTINA",
      "house": "",
      "postcode": "3320-078",
      "city": "FAJÃO",
      "lon": "-7.933256067338142",
      "lat": "40.13302092268986"
    },
    {
      "id": "pt.ine.add.PTCONT.1349902",
      "street": "JOSE RAMOS",
      "house": "",
      "postcode": "3320-078",
      "city": "FAJÃO",
      "lon": "-7.932151822953536",
      "lat": "40.13346931090733"
    }
  ]
}