{
  "data": {
    "distrito": "Évora",
    "concelho": "Montemor-O-Novo",
    "freguesia": "União das freguesias de Nossa Senhora da Vila, Nossa Senhora do Bispo e Silveiras",
    "OBJECTID": 592,
    "BGRI2021": "07061200822",
    "DT21": "07",
    "DTMN21": "0706",
    "DTMNFR21": "070612",
    "DTMNFRSEC21": "070612008",
    "SECNUM21": "008",
    "SSNUM21": "22",
    "SECSSNUM21": "00822",
    "OBJECTID_1": 61579,
    "DT": "07",
    "CC": "06",
    "fr": "12",
    "SEC": "008",
    "SS": "22"
  },
  "addresses": [
    {
      "id": "pt.ine.add.PTCONT.1369535",
      "street": "MTE REINALDA CCI",
      "house": "CCI 740",
      "postcode": "7050-021",
      "city": "MONTEMOR-O-NOVO",
      "lon": "-8.230198196941489",
      "lat": "38.631479560197164"
    },
    {
      "id": "pt.ine.add.PTCONT.1371849",
      "street": "CCI 732",
      "house": "",
      "postcode": "7050-021",
      "city": "MONTEMOR-O-NOVO",
      "lon": "-8.229279222466465",
      "lat": "38.63131816941443"
    },
    {
      "id": "pt.ine.add.PTCONT.1376421",
      "street": "EN 253 - CAFÉ FALCAO",
      "house": "",
      "postcode": "7050-021",
      "city": "MONTEMOR-O-NOVO",
      "lon": "-8.229061065991921",
      "lat": "38.63135438180736"
    },
    {
      "id": "pt.ine.add.PTCONT.1376688",
      "street": "EN 253",
      "house": "",
      "postcode": "7050-021",
      "city": "MONTEMOR-O-NOVO",
      "lon": "-8.22898099874457",
      "lat": "38.63159767207477"
    },
    {
      "id": "pt.ine.add.PTCONT.1380914",
      "street": "MTE DO MALMEQUER",
      "house": "",
      "postcode": "7050-021",
      "city": "MONTEMOR-O-NOVO",
      "lon": "-8.237007955346876",
      "lat": "38.631104370057855"
    },
    {
      "id": "pt.ine.add.PTCONT.1383149",
      "street": "REINALDA MAIA",
      "house": "752",
      "postcode": "7050-021",
      "city": "MONTEMOR-O-NOVO",
      "lon": "-8.229669584928045",
      "lat": "38.63123677301984"
    },
    {
      "id": "pt.ine.add.PTCONT.1388351",
      "street": "MTE REINALDA",
      "house": "",
      "postcode": "7050-021",
      "city": "MONTEMOR-O-NOVO",
      "lon": "-8.2320797183908",
      "lat": "38.63007268573409"
    },
    {
      "id": "pt.ine.add.PTCONT.1388352",
      "street": "",
      "house": "",
      "postcode": "7050-021",
      "city": "MONTEMOR-O-NOVO",
      "lon": "-8.2320797183908",
      "lat": "38.63007268573409"
    },
    {
      "id": "pt.ine.add.PTCONT.1388353",
      "street": "",
      "house": "",
      "postcode": "7050-021",
      "city": "MONTEMOR-O-NOVO",
      "lon": "-8.2320797183908",
      "lat": "38.63007268573409"
    },
    {
      "id": "pt.ine.add.PTCONT.1390579",
      "street": "EN 253 - MTE REINALDA",
      "house": "",
      "postcode": "7050-021",
      "city": "MONTEMOR-O-NOVO",
      "lon": "-8.229474458073238",
      "lat": "38.631318008774976"
    },
    {
      "id": "pt.ine.add.PTCONT.1392258",
      "street": "EN 253 - MTE REINALDA",
      "house": "",
      "postcode": "7050-021",
      "city": "MONTEMOR-O-NOVO",
      "lon": "-8.229749794568017",
      "lat": "38.63110158199355"
    },
    {
      "id": "pt.ine.add.PTCONT.1394305",
      "street": "CCI 732",
      "house": "",
      "postcode": "7050-021",
      "city": "MONTEMOR-O-NOVO",
      "lon": "-8.230507351405382",
      "lat": "38.63079467091685"
    },
    {
      "id": "pt.ine.add.PTCONT.1404087",
      "street": "EN 253 - MTE REINALDA",
      "house": "",
      "postcode": "7050-021",
      "city": "MONTEMOR-O-NOVO",
      "lon": "-8.23039328689258",
      "lat": "38.631371298308885"
    },
    {
      "id": "pt.ine.add.PTCONT.1406392",
      "street": "MTE REINALDA",
      "house": "",
      "postcode": "7050-021",
      "city": "MONTEMOR-O-NOVO",
      "lon": "-8.230312579443318",
      "lat": "38.63113714906926"
    },
    {
      "id": "pt.ine.add.PTCONT.1406393",
      "street": "",
      "house": "",
      "postcode": "7050-021",
      "city": "MONTEMOR-O-NOVO",
      "lon": "-8.230312579443318",
      "lat": "38.63113714906926"
    },
    {
      "id": "pt.ine.add.PTCONT.1425938",
      "street": "EN 253 - MTE REINALDA",
      "house": "",
      "postcode": "7050-021",
      "city": "MONTEMOR-O-NOVO",
      "lon": "-8.230266447242487",
      "lat": "38.63099305426253"
    },
    {
      "id": "pt.ine.add.PTCONT.1426163",
      "street": "EN 253 - MTE REINALDA",
      "house": "",
      "postcode": "7050-021",
      "city": "MONTEMOR-O-NOVO",
      "lon": "-8.230266447242487",
      "lat": "38.63099305426253"
    },
    {
      "id": "pt.ine.add.PTCONT.1429584",
      "street": "EN 253",
      "house": "",
      "postcode": "7050-021",
      "city": "MONTEMOR-O-NOVO",
      "lon": "-8.22886608192465",
      "lat": "38.63154371626576"
    },
    {
      "id": "pt.ine.add.PTCONT.1431446",
      "street": "MTE MARCO DEL REI",
      "house": "",
      "postcode": "7050-021",
      "city": "MONTEMOR-O-NOVO",
      "lon": "-8.238130207847487",
      "lat": "38.628896329348756"
    },
    {
      "id": "pt.ine.add.PTCONT.1432006",
      "street": "FAZENDA NOVA CCI",
      "house": "CCI 760",
      "postcode": "7050-021",
      "city": "MONTEMOR-O-NOVO",
      "lon": "-8.231899691468774",
      "lat": "38.63278434207614"
    },
    {
      "id": "pt.ine.add.PTCONT.1440993",
      "street": "MTE TELHEIRO COSTA CCI",
      "house": "CCI 800",
      "postcode": "7050-021",
      "city": "MONTEMOR-O-NOVO",
      "lon": "-8.234869371781887",
      "lat": "38.62934962696966"
    },
    {
      "id": "pt.ine.add.PTCONT.1446468",
      "street": "MTE NOVO DO MARCO DEL REI",
      "house": "",
      "postcode": "7050-021",
      "city": "MONTEMOR-O-NOVO",
      "lon": "-8.23835040659724",
      "lat": "38.630265396442525"
    },
    {
      "id": "pt.ine.add.PTCONT.1448008",
      "street": "EN 253 - MTE REINALDA",
      "house": "",
      "postcode": "7050-021",
      "city": "MONTEMOR-O-NOVO",
      "lon": "-8.230289488998046",
      "lat": "38.63104708504832"
    },
    {
      "id": "pt.ine.add.PTCONT.1448009",
      "street": "EN 253 - MTE REINALDA",
      "house": "",
      "postcode": "7050-021",
      "city": "MONTEMOR-O-NOVO",
      "lon": "-8.230289488998046",
      "lat": "38.63104708504832"
    },
    {
      "id": "pt.ine.add.PTCONT.1458897",
      "street": "EN 253 - MTE REINALDA",
      "house": "",
      "postcode": "7050-021",
      "city": "MONTEMOR-O-NOVO",
      "lon": "-8.229910527892793",
      "lat": "38.631065415838954"
    }
  ]
}