{
  "data": {
    "distrito": "Santarém",
    "concelho": "Ourém",
    "freguesia": "Fátima",
    "OBJECTID": 555,
    "BGRI2021": "14210601232",
    "DT21": "14",
    "DTMN21": "1421",
    "DTMNFR21": "142106",
    "DTMNFRSEC21": "142106012",
    "SECNUM21": "012",
    "SSNUM21": "32",
    "SECSSNUM21": "01232",
    "OBJECTID_1": 159016,
    "DT": "14",
    "CC": "21",
    "fr": "06",
    "SEC": "012",
    "SS": "32"
  },
  "addresses": [
    {
      "id": "pt.ine.add.PTCONT.4404523",
      "street": "ESTR MINDE",
      "house": "627",
      "postcode": "2495-408",
      "city": "FÁTIMA",
      "lon": "-8.656902853966246",
      "lat": "39.60439961887912"
    },
    {
      "id": "pt.ine.add.PTCONT.4404524",
      "street": "ESTR LAMEIRA",
      "house": "627",
      "postcode": "2495-662",
      "city": "FÁTIMA",
      "lon": "-8.656902853966246",
      "lat": "39.60439961887912"
    },
    {
      "id": "pt.ine.add.PTCONT.4404525",
      "street": "ESTR LAMEIRA",
      "house": "627",
      "postcode": "2495-662",
      "city": "FÁTIMA",
      "lon": "-8.656902853966246",
      "lat": "39.60439961887912"
    },
    {
      "id": "pt.ine.add.PTCONT.4404526",
      "street": "ESTR MINDE",
      "house": "603",
      "postcode": "2495-655",
      "city": "FÁTIMA",
      "lon": "-8.655988457348116",
      "lat": "39.60202595674097"
    },
    {
      "id": "pt.ine.add.PTCONT.4405473",
      "street": "ESTR MINDE",
      "house": "627",
      "postcode": "2495-408",
      "city": "FÁTIMA",
      "lon": "-8.656902853966246",
      "lat": "39.60439961887912"
    },
    {
      "id": "pt.ine.add.PTCONT.4421619",
      "street": "R FETAL",
      "house": "",
      "postcode": "2495-655",
      "city": "FÁTIMA",
      "lon": "-8.659374640581753",
      "lat": "39.60330763996328"
    },
    {
      "id": "pt.ine.add.PTCONT.4436309",
      "street": "R PRINCIPAL",
      "house": "8",
      "postcode": "2495-655",
      "city": "FÁTIMA",
      "lon": "-8.65587426102426",
      "lat": "39.60077453256491"
    },
    {
      "id": "pt.ine.add.PTCONT.4452786",
      "street": "ESTR PEDERNEIRA",
      "house": "",
      "postcode": "2495-655",
      "city": "FÁTIMA",
      "lon": "-8.656938540298576",
      "lat": "39.601409218368545"
    },
    {
      "id": "pt.ine.add.PTCONT.4473070",
      "street": "ESTR MINDE",
      "house": "593",
      "postcode": "2495-655",
      "city": "FÁTIMA",
      "lon": "-8.65559666979187",
      "lat": "39.60101896342164"
    },
    {
      "id": "pt.ine.add.PTCONT.4475277",
      "street": "ESTR MINDE",
      "house": "625",
      "postcode": "2495-408",
      "city": "FÁTIMA",
      "lon": "-8.656877600166442",
      "lat": "39.604138537157056"
    },
    {
      "id": "pt.ine.add.PTCONT.4475278",
      "street": "ESTR MINDE",
      "house": "N 625",
      "postcode": "2495-408",
      "city": "FÁTIMA",
      "lon": "-8.656877600166442",
      "lat": "39.604138537157056"
    },
    {
      "id": "pt.ine.add.PTCONT.4475279",
      "street": "ESTR LAMEIRA",
      "house": "",
      "postcode": "2495-662",
      "city": "FÁTIMA",
      "lon": "-8.656877600166442",
      "lat": "39.604138537157056"
    },
    {
      "id": "pt.ine.add.PTCONT.4475280",
      "street": "ESTR LAMEIRA",
      "house": "625",
      "postcode": "2495-662",
      "city": "FÁTIMA",
      "lon": "-8.656877600166442",
      "lat": "39.604138537157056"
    },
    {
      "id": "pt.ine.add.PTCONT.4475281",
      "street": "ESTR MINDE",
      "house": "625",
      "postcode": "2495-408",
      "city": "FÁTIMA",
      "lon": "-8.656877600166442",
      "lat": "39.604138537157056"
    },
    {
      "id": "pt.ine.add.PTCONT.4475282",
      "street": "ESTR MINDE",
      "house": "625 BLC",
      "postcode": "2495-408",
      "city": "FÁTIMA",
      "lon": "-8.656877600166442",
      "lat": "39.604138537157056"
    },
    {
      "id": "pt.ine.add.PTCONT.4475283",
      "street": "ESTR MINDE",
      "house": "625",
      "postcode": "2495-408",
      "city": "FÁTIMA",
      "lon": "-8.656877600166442",
      "lat": "39.604138537157056"
    },
    {
      "id": "pt.ine.add.PTCONT.4475564",
      "street": "ESTR LAMEIRA",
      "house": "",
      "postcode": "2495-662",
      "city": "FÁTIMA",
      "lon": "-8.656877600166442",
      "lat": "39.604138537157056"
    },
    {
      "id": "pt.ine.add.PTCONT.4503135",
      "street": "TV RELVA VERDE",
      "house": "",
      "postcode": "2495-662",
      "city": "FÁTIMA",
      "lon": "-8.658069742450023",
      "lat": "39.60473660865488"
    },
    {
      "id": "pt.ine.add.PTCONT.4510968",
      "street": "ESTR MINDE",
      "house": "591",
      "postcode": "2495-655",
      "city": "FÁTIMA",
      "lon": "-8.655525664538498",
      "lat": "39.600866167964924"
    },
    {
      "id": "pt.ine.add.PTCONT.4510969",
      "street": "R PRINCIPAL",
      "house": "10",
      "postcode": "2495-655",
      "city": "FÁTIMA",
      "lon": "-8.65604950722738",
      "lat": "39.60085480469722"
    },
    {
      "id": "pt.ine.add.PTCONT.4520852",
      "street": "ESTR MINDE",
      "house": "587",
      "postcode": "2495-655",
      "city": "FÁTIMA",
      "lon": "-8.65541858218853",
      "lat": "39.60056041989867"
    },
    {
      "id": "pt.ine.add.PTCONT.4529255",
      "street": "R PRINCIPAL",
      "house": "28",
      "postcode": "2495-655",
      "city": "FÁTIMA",
      "lon": "-8.659131562344353",
      "lat": "39.60195772887377"
    },
    {
      "id": "pt.ine.add.PTCONT.4535613",
      "street": "ESTR LAMEIRA",
      "house": "",
      "postcode": "2495-662",
      "city": "FÁTIMA",
      "lon": "-8.657408627491428",
      "lat": "39.60353269020403"
    },
    {
      "id": "pt.ine.add.PTCONT.4535614",
      "street": "ESTR LAMEIRA",
      "house": "",
      "postcode": "2495-662",
      "city": "FÁTIMA",
      "lon": "-8.657408627491428",
      "lat": "39.60353269020403"
    },
    {
      "id": "pt.ine.add.PTCONT.4549680",
      "street": "R PRINCIPAL",
      "house": "30",
      "postcode": "2495-655",
      "city": "FÁTIMA",
      "lon": "-8.659376943794609",
      "lat": "39.60207370539526"
    },
    {
      "id": "pt.ine.add.PTCONT.4556085",
      "street": "TV AGOSTINHO",
      "house": "10",
      "postcode": "2495-655",
      "city": "FÁTIMA",
      "lon": "-8.657721852433422",
      "lat": "39.601838008093445"
    },
    {
      "id": "pt.ine.add.PTCONT.4576711",
      "street": "ESTR MINDE",
      "house": "601",
      "postcode": "2495-661",
      "city": "FÁTIMA",
      "lon": "-8.65594127722866",
      "lat": "39.60194510832758"
    },
    {
      "id": "pt.ine.add.PTCONT.4576712",
      "street": "ESTR MINDE",
      "house": "601",
      "postcode": "2495-661",
      "city": "FÁTIMA",
      "lon": "-8.65594127722866",
      "lat": "39.60194510832758"
    },
    {
      "id": "pt.ine.add.PTCONT.4587351",
      "street": "TV AGOSTINHO",
      "house": "12",
      "postcode": "2495-655",
      "city": "FÁTIMA",
      "lon": "-8.657933594927513",
      "lat": "39.60212526774486"
    },
    {
      "id": "pt.ine.add.PTCONT.4599759",
      "street": "ESTR LAMEIRA",
      "house": "629",
      "postcode": "2495-662",
      "city": "FÁTIMA",
      "lon": "-8.656974340988441",
      "lat": "39.604615458418344"
    },
    {
      "id": "pt.ine.add.PTCONT.4599760",
      "street": "ESTR MINDE",
      "house": "629",
      "postcode": "2495-408",
      "city": "FÁTIMA",
      "lon": "-8.656974340988441",
      "lat": "39.604615458418344"
    },
    {
      "id": "pt.ine.add.PTCONT.4599761",
      "street": "ESTR MINDE",
      "house": "629",
      "postcode": "2495-408",
      "city": "FÁTIMA",
      "lon": "-8.656974340988441",
      "lat": "39.604615458418344"
    },
    {
      "id": "pt.ine.add.PTCONT.4599762",
      "street": "ESTR MINDE",
      "house": "629",
      "postcode": "2495-408",
      "city": "FÁTIMA",
      "lon": "-8.656974340988441",
      "lat": "39.604615458418344"
    },
    {
      "id": "pt.ine.add.PTCONT.4610163",
      "street": "R OLIVEIRA JUNIOR",
      "house": "24",
      "postcode": "2495-655",
      "city": "FÁTIMA",
      "lon": "-8.655679588623679",
      "lat": "39.60120773224375"
    },
    {
      "id": "pt.ine.add.PTCONT.4626408",
      "street": "R SOBREIROS",
      "house": "S N",
      "postcode": "2495-655",
      "city": "FÁTIMA",
      "lon": "-8.656952354202303",
      "lat": "39.6016973720223"
    },
    {
      "id": "pt.ine.add.PTCONT.4646202",
      "street": "R SOBREIROS",
      "house": "",
      "postcode": "2495-655",
      "city": "FÁTIMA",
      "lon": "-8.65758118995153",
      "lat": "39.60171254866375"
    },
    {
      "id": "pt.ine.add.PTCONT.4653596",
      "street": "R FATIVIL",
      "house": "",
      "postcode": "2495-655",
      "city": "FÁTIMA",
      "lon": "-8.655809348909303",
      "lat": "39.60143231727606"
    }
  ]
}