{
  "data": {
    "distrito": "Faro",
    "concelho": "Faro",
    "freguesia": "União das freguesias de Faro (Sé e São Pedro)",
    "OBJECTID": 329,
    "BGRI2021": "08050803802",
    "DT21": "08",
    "DTMN21": "0805",
    "DTMNFR21": "080508",
    "DTMNFRSEC21": "080508038",
    "SECNUM21": "038",
    "SSNUM21": "02",
    "SECSSNUM21": "03802",
    "OBJECTID_1": 66454,
    "DT": "08",
    "CC": "05",
    "fr": "08",
    "SEC": "038",
    "SS": "02"
  },
  "addresses": [
    {
      "id": "pt.ine.add.PTCONT.1472514",
      "street": "R VASCO DA GAMA",
      "house": "31",
      "postcode": "8000-442",
      "city": "FARO",
      "lon": "-7.933170019770293",
      "lat": "37.016531338808605"
    },
    {
      "id": "pt.ine.add.PTCONT.1496103",
      "street": "R VASCO DA GAMA",
      "house": "33B",
      "postcode": "8000-442",
      "city": "FARO",
      "lon": "-7.933181114979705",
      "lat": "37.016585422201416"
    },
    {
      "id": "pt.ine.add.PTCONT.1498074",
      "street": "R SANTO ANTÓNIO",
      "house": "35",
      "postcode": "8000-282",
      "city": "FARO",
      "lon": "-7.932721303058932",
      "lat": "37.01624223693089"
    },
    {
      "id": "pt.ine.add.PTCONT.1499775",
      "street": "R VASCO DA GAMA",
      "house": "33A",
      "postcode": "8000-442",
      "city": "FARO",
      "lon": "-7.9332033998596945",
      "lat": "37.01665754600808"
    },
    {
      "id": "pt.ine.add.PTCONT.1547146",
      "street": "R SANTO ANTÓNIO",
      "house": "49",
      "postcode": "8000-282",
      "city": "FARO",
      "lon": "-7.932518945863313",
      "lat": "37.01627793822023"
    },
    {
      "id": "pt.ine.add.PTCONT.1585435",
      "street": "R VASCO DA GAMA",
      "house": "25",
      "postcode": "8000-442",
      "city": "FARO",
      "lon": "-7.932472672006316",
      "lat": "37.016782463875536"
    },
    {
      "id": "pt.ine.add.PTCONT.1585436",
      "street": "R VASCO DA GAMA",
      "house": "25",
      "postcode": "8000-442",
      "city": "FARO",
      "lon": "-7.932472672006316",
      "lat": "37.016782463875536"
    },
    {
      "id": "pt.ine.add.PTCONT.1585437",
      "street": "R VASCO DA GAMA",
      "house": "25",
      "postcode": "8000-442",
      "city": "FARO",
      "lon": "-7.932472672006316",
      "lat": "37.016782463875536"
    },
    {
      "id": "pt.ine.add.PTCONT.1585438",
      "street": "R VASCO DA GAMA",
      "house": "25",
      "postcode": "8000-442",
      "city": "FARO",
      "lon": "-7.932472672006316",
      "lat": "37.016782463875536"
    },
    {
      "id": "pt.ine.add.PTCONT.1585455",
      "street": "R VASCO DA GAMA",
      "house": "25",
      "postcode": "8000-442",
      "city": "FARO",
      "lon": "-7.932472672006316",
      "lat": "37.016782463875536"
    },
    {
      "id": "pt.ine.add.PTCONT.1597870",
      "street": "R VASCO DA GAMA",
      "house": "37",
      "postcode": "8000-442",
      "city": "FARO",
      "lon": "-7.932697078374269",
      "lat": "37.01690899400122"
    },
    {
      "id": "pt.ine.add.PTCONT.1629688",
      "street": "R VASCO DA GAMA",
      "house": "15",
      "postcode": "8000-442",
      "city": "FARO",
      "lon": "-7.9322482663835014",
      "lat": "37.0166559333251"
    },
    {
      "id": "pt.ine.add.PTCONT.1643228",
      "street": "R SANTO ANTÓNIO",
      "house": "23",
      "postcode": "8000-282",
      "city": "FARO",
      "lon": "-7.9329348732300895",
      "lat": "37.0162155649932"
    },
    {
      "id": "pt.ine.add.PTCONT.1650126",
      "street": "PC FERREIRA DE ALMEIDA",
      "house": "29",
      "postcode": "8000-172",
      "city": "FARO",
      "lon": "-7.933809767001129",
      "lat": "37.01682075993259"
    },
    {
      "id": "pt.ine.add.PTCONT.1662996",
      "street": "R VASCO DA GAMA",
      "house": "53",
      "postcode": "8000-442",
      "city": "FARO",
      "lon": "-7.932999954906202",
      "lat": "37.017107742299885"
    },
    {
      "id": "pt.ine.add.PTCONT.1696953",
      "street": "LG TERREIRO BISPO",
      "house": "15",
      "postcode": "8000-156",
      "city": "FARO",
      "lon": "-7.933383925976863",
      "lat": "37.01713176037298"
    },
    {
      "id": "pt.ine.add.PTCONT.1762054",
      "street": "LG TERREIRO DO BISPO",
      "house": "12",
      "postcode": "8000-156",
      "city": "FARO",
      "lon": "-7.933213362186229",
      "lat": "37.01714414507228"
    },
    {
      "id": "pt.ine.add.PTCONT.1824741",
      "street": "R STO ANTÓNIO",
      "house": "17",
      "postcode": "8000-282",
      "city": "FARO",
      "lon": "-7.933159727266248",
      "lat": "37.016170890113926"
    },
    {
      "id": "pt.ine.add.PTCONT.1848674",
      "street": "R VASCO DA GAMA",
      "house": "25",
      "postcode": "8000-442",
      "city": "FARO",
      "lon": "-7.932472672006316",
      "lat": "37.016782463875536"
    }
  ]
}