{
  "data": {
    "distrito": "Santarém",
    "concelho": "Ourém",
    "freguesia": "União das freguesias de Gondemaria e Olival",
    "OBJECTID": 1125,
    "BGRI2021": "14212000312",
    "DT21": "14",
    "DTMN21": "1421",
    "DTMNFR21": "142120",
    "DTMNFRSEC21": "142120003",
    "SECNUM21": "003",
    "SSNUM21": "12",
    "SECSSNUM21": "00312",
    "OBJECTID_1": 159763,
    "DT": "14",
    "CC": "21",
    "fr": "20",
    "SEC": "003",
    "SS": "12"
  },
  "addresses": [
    {
      "id": "pt.ine.add.PTCONT.4438099",
      "street": "ESTR SANTARÉM",
      "house": "46",
      "postcode": "2490-163",
      "city": "GONDEMARIA",
      "lon": "-8.632574646764509",
      "lat": "39.707308886278966"
    },
    {
      "id": "pt.ine.add.PTCONT.4438371",
      "street": "R HORTA",
      "house": "6",
      "postcode": "2490-163",
      "city": "GONDEMARIA",
      "lon": "-8.630687752643786",
      "lat": "39.70598401206475"
    },
    {
      "id": "pt.ine.add.PTCONT.4456672",
      "street": "R HORTA",
      "house": "1",
      "postcode": "2490-163",
      "city": "GONDEMARIA",
      "lon": "-8.631424283900435",
      "lat": "39.704629864210204"
    },
    {
      "id": "pt.ine.add.PTCONT.4467116",
      "street": "ESTR SANTARÉM DOS TOJOS",
      "house": "28",
      "postcode": "2490-163",
      "city": "GONDEMARIA",
      "lon": "-8.633759521231182",
      "lat": "39.7050701483014"
    },
    {
      "id": "pt.ine.add.PTCONT.4486083",
      "street": "ESTR SANTARÉM",
      "house": "34",
      "postcode": "2490-163",
      "city": "GONDEMARIA",
      "lon": "-8.63363575146566",
      "lat": "39.70569213688847"
    },
    {
      "id": "pt.ine.add.PTCONT.4494783",
      "street": "R ARMEIRO",
      "house": "29",
      "postcode": "2435-422",
      "city": "OLIVAL VNO",
      "lon": "-8.63078902049025",
      "lat": "39.71196395318754"
    },
    {
      "id": "pt.ine.add.PTCONT.4499152",
      "street": "R HORTA",
      "house": "7",
      "postcode": "2490-163",
      "city": "GONDEMARIA",
      "lon": "-8.631614407123301",
      "lat": "39.705124410836085"
    },
    {
      "id": "pt.ine.add.PTCONT.4508885",
      "street": "R SANTARÉM",
      "house": "5",
      "postcode": "2490-163",
      "city": "GONDEMARIA",
      "lon": "-8.633148521155457",
      "lat": "39.70442430638546"
    },
    {
      "id": "pt.ine.add.PTCONT.4523254",
      "street": "ESTR SANTARÉM DOS TOJOS",
      "house": "26",
      "postcode": "2490-163",
      "city": "GONDEMARIA",
      "lon": "-8.63371047321337",
      "lat": "39.70473711577751"
    },
    {
      "id": "pt.ine.add.PTCONT.4535471",
      "street": "ESTR SANTARÉM DOS TOJOS",
      "house": "30",
      "postcode": "2490-163",
      "city": "GONDEMARIA",
      "lon": "-8.633574197675882",
      "lat": "39.70524207252873"
    },
    {
      "id": "pt.ine.add.PTCONT.4553929",
      "street": "ESTR SANTARÉM",
      "house": "32",
      "postcode": "2490-163",
      "city": "GONDEMARIA",
      "lon": "-8.633750725144823",
      "lat": "39.705466476365835"
    },
    {
      "id": "pt.ine.add.PTCONT.4583166",
      "street": "R SANTARÉM",
      "house": "11",
      "postcode": "2490-163",
      "city": "GONDEMARIA",
      "lon": "-8.632179064096091",
      "lat": "39.704194305863496"
    },
    {
      "id": "pt.ine.add.PTCONT.4649475",
      "street": "R HORTA",
      "house": "5",
      "postcode": "2490-163",
      "city": "GONDEMARIA",
      "lon": "-8.631391636260611",
      "lat": "39.70495424175315"
    }
  ]
}