{
  "data": {
    "distrito": "Santarém",
    "concelho": "Torres Novas",
    "freguesia": "União das freguesias de Olaia e Paço",
    "OBJECTID": 170,
    "BGRI2021": "14191900144",
    "DT21": "14",
    "DTMN21": "1419",
    "DTMNFR21": "141919",
    "DTMNFRSEC21": "141919001",
    "SECNUM21": "001",
    "SSNUM21": "44",
    "SECSSNUM21": "00144",
    "OBJECTID_1": 157244,
    "DT": "14",
    "CC": "19",
    "fr": "19",
    "SEC": "001",
    "SS": "44"
  },
  "addresses": [
    {
      "id": "pt.ine.add.PTCONT.4406565",
      "street": "LG ROSSIO",
      "house": "8",
      "postcode": "2350-181",
      "city": "OLAIA",
      "lon": "-8.510434732238949",
      "lat": "39.511134247137285"
    },
    {
      "id": "pt.ine.add.PTCONT.4412716",
      "street": "LG ROSSIO",
      "house": "4",
      "postcode": "2350-181",
      "city": "OLAIA",
      "lon": "-8.510271993197106",
      "lat": "39.511143782124044"
    },
    {
      "id": "pt.ine.add.PTCONT.4447649",
      "street": "R DEPOSITO DA AGUA QTA DA EIRA",
      "house": "",
      "postcode": "2350-181",
      "city": "OLAIA",
      "lon": "-8.510959572654771",
      "lat": "39.51357341793712"
    },
    {
      "id": "pt.ine.add.PTCONT.4453734",
      "street": "R ALEM",
      "house": "",
      "postcode": "2350-181",
      "city": "OLAIA",
      "lon": "-8.51019079406878",
      "lat": "39.51118007320714"
    },
    {
      "id": "pt.ine.add.PTCONT.4495863",
      "street": "LG ROSSIO",
      "house": "6",
      "postcode": "2350-181",
      "city": "OLAIA",
      "lon": "-8.510364917353828",
      "lat": "39.51112546678209"
    },
    {
      "id": "pt.ine.add.PTCONT.4505221",
      "street": "R DEPOSITO DA AGUA",
      "house": "6",
      "postcode": "2350-181",
      "city": "OLAIA",
      "lon": "-8.510741489481818",
      "lat": "39.51195288099428"
    },
    {
      "id": "pt.ine.add.PTCONT.4536853",
      "street": "R ESCOLA",
      "house": "8",
      "postcode": "2350-181",
      "city": "OLAIA",
      "lon": "-8.510216776239844",
      "lat": "39.51168437655321"
    },
    {
      "id": "pt.ine.add.PTCONT.4566917",
      "street": "R ESCOLA",
      "house": "2",
      "postcode": "2350-181",
      "city": "OLAIA",
      "lon": "-8.509982273988667",
      "lat": "39.51132486010016"
    },
    {
      "id": "pt.ine.add.PTCONT.4583136",
      "street": "R ESCOLA",
      "house": "4",
      "postcode": "2350-181",
      "city": "OLAIA",
      "lon": "-8.509924816512386",
      "lat": "39.511451143250966"
    },
    {
      "id": "pt.ine.add.PTCONT.4584344",
      "street": "R ESCOLA",
      "house": "3",
      "postcode": "2350-181",
      "city": "OLAIA",
      "lon": "-8.510203639031685",
      "lat": "39.51140520459492"
    },
    {
      "id": "pt.ine.add.PTCONT.4605462",
      "street": "R ESCOLA",
      "house": "1",
      "postcode": "2350-181",
      "city": "OLAIA",
      "lon": "-8.509726950257408",
      "lat": "39.51141575671419"
    },
    {
      "id": "pt.ine.add.PTCONT.4643205",
      "street": "R ESCOLA",
      "house": "6",
      "postcode": "2350-181",
      "city": "OLAIA",
      "lon": "-8.510088335136647",
      "lat": "39.5115857169689"
    }
  ]
}