{
  "data": {
    "distrito": "Évora",
    "concelho": "Redondo",
    "freguesia": "Redondo",
    "OBJECTID": 222,
    "BGRI2021": "07100200130",
    "DT21": "07",
    "DTMN21": "0710",
    "DTMNFR21": "071002",
    "DTMNFRSEC21": "071002001",
    "SECNUM21": "001",
    "SSNUM21": "30",
    "SECSSNUM21": "00130",
    "OBJECTID_1": 62859,
    "DT": "07",
    "CC": "10",
    "fr": "02",
    "SEC": "001",
    "SS": "30"
  },
  "addresses": [
    {
      "id": "pt.ine.add.PTCONT.1368288",
      "street": "",
      "house": "",
      "postcode": "7170-104",
      "city": "REDONDO",
      "lon": "-7.570057563222283",
      "lat": "38.626614144696"
    },
    {
      "id": "pt.ine.add.PTCONT.1371129",
      "street": "",
      "house": "",
      "postcode": "7170-104",
      "city": "REDONDO",
      "lon": "-7.565956767035285",
      "lat": "38.6286869007691"
    },
    {
      "id": "pt.ine.add.PTCONT.1371130",
      "street": "MTE DA OLIVEIRA",
      "house": "",
      "postcode": "7170-104",
      "city": "REDONDO",
      "lon": "-7.564370297628427",
      "lat": "38.626327042831605"
    },
    {
      "id": "pt.ine.add.PTCONT.1375055",
      "street": "",
      "house": "",
      "postcode": "7170-104",
      "city": "REDONDO",
      "lon": "-7.564458921666152",
      "lat": "38.62847815062479"
    },
    {
      "id": "pt.ine.add.PTCONT.1375063",
      "street": "",
      "house": "",
      "postcode": "7170-104",
      "city": "REDONDO",
      "lon": "-7.563933921520936",
      "lat": "38.62487459541535"
    },
    {
      "id": "pt.ine.add.PTCONT.1375064",
      "street": "",
      "house": "",
      "postcode": "7170-104",
      "city": "REDONDO",
      "lon": "-7.563933921520936",
      "lat": "38.62487459541535"
    },
    {
      "id": "pt.ine.add.PTCONT.1382556",
      "street": "MTE DAS CANTARINHAS",
      "house": "",
      "postcode": "7170-104",
      "city": "REDONDO",
      "lon": "-7.5591878498027585",
      "lat": "38.62474331265907"
    },
    {
      "id": "pt.ine.add.PTCONT.1383209",
      "street": "",
      "house": "",
      "postcode": "7170-104",
      "city": "REDONDO",
      "lon": "-7.569419479667917",
      "lat": "38.626783872716956"
    },
    {
      "id": "pt.ine.add.PTCONT.1392621",
      "street": "",
      "house": "",
      "postcode": "7170-104",
      "city": "REDONDO",
      "lon": "-7.56375026686907",
      "lat": "38.624864693632524"
    },
    {
      "id": "pt.ine.add.PTCONT.1394692",
      "street": "MTE DAS CANTARINHAS",
      "house": "",
      "postcode": "7170-104",
      "city": "REDONDO",
      "lon": "-7.558867537284177",
      "lat": "38.625156119691916"
    },
    {
      "id": "pt.ine.add.PTCONT.1394693",
      "street": "MTE DAS CANTARINHAS",
      "house": "",
      "postcode": "7170-104",
      "city": "REDONDO",
      "lon": "-7.558867537284177",
      "lat": "38.625156119691916"
    },
    {
      "id": "pt.ine.add.PTCONT.1398206",
      "street": "QTA LEAIS",
      "house": "",
      "postcode": "7170-104",
      "city": "REDONDO",
      "lon": "-7.563314504749429",
      "lat": "38.62914148159279"
    },
    {
      "id": "pt.ine.add.PTCONT.1398207",
      "street": "QTA LEAIS",
      "house": "",
      "postcode": "7170-104",
      "city": "REDONDO",
      "lon": "-7.563453162656338",
      "lat": "38.62903405805891"
    },
    {
      "id": "pt.ine.add.PTCONT.1403057",
      "street": "MTE DAS PARREIRAS",
      "house": "",
      "postcode": "7170-104",
      "city": "REDONDO",
      "lon": "-7.570262569979627",
      "lat": "38.626831328662725"
    },
    {
      "id": "pt.ine.add.PTCONT.1404413",
      "street": "QTA PINHEIRO",
      "house": "",
      "postcode": "7170-104",
      "city": "REDONDO",
      "lon": "-7.568596337002914",
      "lat": "38.62669957499286"
    },
    {
      "id": "pt.ine.add.PTCONT.1405044",
      "street": "",
      "house": "",
      "postcode": "7170-104",
      "city": "REDONDO",
      "lon": "-7.563740066167886",
      "lat": "38.62470249578968"
    },
    {
      "id": "pt.ine.add.PTCONT.1410899",
      "street": "QTA LEAIS",
      "house": "",
      "postcode": "7170-104",
      "city": "REDONDO",
      "lon": "-7.563175989055203",
      "lat": "38.629230889198844"
    },
    {
      "id": "pt.ine.add.PTCONT.1419939",
      "street": "",
      "house": "",
      "postcode": "7170-104",
      "city": "REDONDO",
      "lon": "-7.567498542868964",
      "lat": "38.628678859324"
    },
    {
      "id": "pt.ine.add.PTCONT.1419940",
      "street": "",
      "house": "",
      "postcode": "7170-104",
      "city": "REDONDO",
      "lon": "-7.5698669010203625",
      "lat": "38.62684007683386"
    },
    {
      "id": "pt.ine.add.PTCONT.1420848",
      "street": "QTA LARANJINHOS",
      "house": "",
      "postcode": "7170-104",
      "city": "REDONDO",
      "lon": "-7.561794391931141",
      "lat": "38.62533259599579"
    },
    {
      "id": "pt.ine.add.PTCONT.1420849",
      "street": "QTA LARANJINHOS",
      "house": "",
      "postcode": "7170-104",
      "city": "REDONDO",
      "lon": "-7.561794391931141",
      "lat": "38.62533259599579"
    },
    {
      "id": "pt.ine.add.PTCONT.1432851",
      "street": "QTA POMBINHAS",
      "house": "",
      "postcode": "7170-104",
      "city": "REDONDO",
      "lon": "-7.559471322467464",
      "lat": "38.62432131586771"
    },
    {
      "id": "pt.ine.add.PTCONT.1432992",
      "street": "QTA REBOCHO",
      "house": "",
      "postcode": "7170-104",
      "city": "REDONDO",
      "lon": "-7.568057052308251",
      "lat": "38.626642922410184"
    },
    {
      "id": "pt.ine.add.PTCONT.1442088",
      "street": "MTE ALFAZEMA SANTO ANTÓNIO",
      "house": "",
      "postcode": "7170-104",
      "city": "REDONDO",
      "lon": "-7.568150826042346",
      "lat": "38.626400152969396"
    },
    {
      "id": "pt.ine.add.PTCONT.1442572",
      "street": "QTA PARAÍSO",
      "house": "",
      "postcode": "7170-104",
      "city": "REDONDO",
      "lon": "-7.57131350244798",
      "lat": "38.626883064698525"
    },
    {
      "id": "pt.ine.add.PTCONT.1448868",
      "street": "",
      "house": "",
      "postcode": "7170-104",
      "city": "REDONDO",
      "lon": "-7.563355838835323",
      "lat": "38.62680220539166"
    },
    {
      "id": "pt.ine.add.PTCONT.1453450",
      "street": "MTE DA OLIVEIRA",
      "house": "",
      "postcode": "7170-104",
      "city": "REDONDO",
      "lon": "-7.564198620548457",
      "lat": "38.626254142345964"
    },
    {
      "id": "pt.ine.add.PTCONT.1453451",
      "street": "COURELAS CAPELA",
      "house": "102",
      "postcode": "7170-104",
      "city": "REDONDO",
      "lon": "-7.563556625747129",
      "lat": "38.624665570045416"
    },
    {
      "id": "pt.ine.add.PTCONT.1458173",
      "street": "MTE LUDOVICOROURE LAS CAPELA",
      "house": "",
      "postcode": "7170-104",
      "city": "REDONDO",
      "lon": "-7.571159092140294",
      "lat": "38.62739671487845"
    },
    {
      "id": "pt.ine.add.PTCONT.1459413",
      "street": "MTE DA CAPELA",
      "house": "",
      "postcode": "7170-104",
      "city": "REDONDO",
      "lon": "-7.560509275912608",
      "lat": "38.62809184030073"
    },
    {
      "id": "pt.ine.add.PTCONT.1461017",
      "street": "QUINTINHAS DOS RIBEIROS",
      "house": "",
      "postcode": "7170-104",
      "city": "REDONDO",
      "lon": "-7.563178405260953",
      "lat": "38.62457364599222"
    },
    {
      "id": "pt.ine.add.PTCONT.1464032",
      "street": "",
      "house": "",
      "postcode": "7170-104",
      "city": "REDONDO",
      "lon": "-7.563969010950133",
      "lat": "38.6247936920038"
    }
  ]
}