{
  "data": {
    "distrito": "Viseu",
    "concelho": "Carregal do Sal",
    "freguesia": "Carregal do Sal",
    "OBJECTID": 96,
    "BGRI2021": "18020800322",
    "DT21": "18",
    "DTMN21": "1802",
    "DTMNFR21": "180208",
    "DTMNFRSEC21": "180208003",
    "SECNUM21": "003",
    "SSNUM21": "22",
    "SECSSNUM21": "00322",
    "OBJECTID_1": 188824,
    "DT": "18",
    "CC": "02",
    "fr": "08",
    "SEC": "003",
    "SS": "22"
  },
  "addresses": [
    {
      "id": "pt.ine.add.PTCONT.5443294",
      "street": "ESTR EUCALIPETO",
      "house": "2",
      "postcode": "3430-702",
      "city": "PAPÍZIOS",
      "lon": "-8.020967623888902",
      "lat": "40.43561528038063"
    },
    {
      "id": "pt.ine.add.PTCONT.5445038",
      "street": "QTA ALVEGADA",
      "house": "AP 10",
      "postcode": "3430-702",
      "city": "PAPÍZIOS",
      "lon": "-8.02555558739653",
      "lat": "40.43352135388192"
    },
    {
      "id": "pt.ine.add.PTCONT.5454534",
      "street": "ESTR EUCALIPETO",
      "house": "",
      "postcode": "3430-702",
      "city": "PAPÍZIOS",
      "lon": "-8.022017658773112",
      "lat": "40.43494088036557"
    },
    {
      "id": "pt.ine.add.PTCONT.5532040",
      "street": "ESTR EUCALIPETO",
      "house": "",
      "postcode": "3430-702",
      "city": "PAPÍZIOS",
      "lon": "-8.022890420850985",
      "lat": "40.43455447844651"
    },
    {
      "id": "pt.ine.add.PTCONT.5536136",
      "street": "BR GANDARAS",
      "house": "",
      "postcode": "3430-435",
      "city": "CARREGAL DO SAL",
      "lon": "-8.022626061187763",
      "lat": "40.430456713920016"
    },
    {
      "id": "pt.ine.add.PTCONT.5540086",
      "street": "QTA SOITO N T",
      "house": "N T",
      "postcode": "3430-702",
      "city": "PAPÍZIOS",
      "lon": "-8.019706120103477",
      "lat": "40.43587520981753"
    },
    {
      "id": "pt.ine.add.PTCONT.5544274",
      "street": "R FONTE",
      "house": "4",
      "postcode": "3430-702",
      "city": "PAPÍZIOS",
      "lon": "-8.027624254113721",
      "lat": "40.43707143361733"
    },
    {
      "id": "pt.ine.add.PTCONT.5552690",
      "street": "R FONTE",
      "house": "2",
      "postcode": "3430-702",
      "city": "PAPÍZIOS",
      "lon": "-8.027683943226949",
      "lat": "40.43658519026436"
    },
    {
      "id": "pt.ine.add.PTCONT.5571735",
      "street": "BR GANDARAS",
      "house": "",
      "postcode": "3430-702",
      "city": "PAPÍZIOS",
      "lon": "-8.025411989693518",
      "lat": "40.42749652427183"
    },
    {
      "id": "pt.ine.add.PTCONT.5647516",
      "street": "R QUINTA REGADA",
      "house": "",
      "postcode": "3430-435",
      "city": "CARREGAL DO SAL",
      "lon": "-8.02161443129695",
      "lat": "40.42933005209373"
    },
    {
      "id": "pt.ine.add.PTCONT.5656574",
      "street": "ESTR PINHEIRO",
      "house": "12",
      "postcode": "3430-702",
      "city": "PAPÍZIOS",
      "lon": "-8.02018942418804",
      "lat": "40.43582164978656"
    },
    {
      "id": "pt.ine.add.PTCONT.5668013",
      "street": "QTA SOITO PINHEIRO N T",
      "house": "N T",
      "postcode": "3430-702",
      "city": "PAPÍZIOS",
      "lon": "-8.01988467296516",
      "lat": "40.434821739365155"
    }
  ]
}