{
  "data": {
    "distrito": "Lisboa",
    "concelho": "Sintra",
    "freguesia": "União das freguesias de Almargem do Bispo, Pêro Pinheiro e Montelavar",
    "OBJECTID": 2958,
    "BGRI2021": "11112301315",
    "DT21": "11",
    "DTMN21": "1111",
    "DTMNFR21": "111123",
    "DTMNFRSEC21": "111123013",
    "SECNUM21": "013",
    "SSNUM21": "15",
    "SECSSNUM21": "01315",
    "OBJECTID_1": 112661,
    "DT": "11",
    "CC": "11",
    "fr": "23",
    "SEC": "013",
    "SS": "15"
  },
  "addresses": [
    {
      "id": "pt.ine.add.PTCONT.2443814",
      "street": "ESTR SERRA",
      "house": "",
      "postcode": "2715-120",
      "city": "PERO PINHEIRO",
      "lon": "-9.322788868529017",
      "lat": "38.86008636394997"
    },
    {
      "id": "pt.ine.add.PTCONT.2604497",
      "street": "ESTR SERRA",
      "house": "3",
      "postcode": "2715-653",
      "city": "MONTELAVAR",
      "lon": "-9.318356083067812",
      "lat": "38.8651036061232"
    },
    {
      "id": "pt.ine.add.PTCONT.3226741",
      "street": "R ANTÓNIO JOSE DA SILVA E CASTRO",
      "house": "1",
      "postcode": "2715-623",
      "city": "MONTELAVAR",
      "lon": "-9.318088742116375",
      "lat": "38.86496219849447"
    },
    {
      "id": "pt.ine.add.PTCONT.3226752",
      "street": "R ANTÓNIO JOSE DA SILVA E CASTRO",
      "house": "1",
      "postcode": "2715-623",
      "city": "MONTELAVAR",
      "lon": "-9.318088742116375",
      "lat": "38.86496219849447"
    },
    {
      "id": "pt.ine.add.PTCONT.3245542",
      "street": "ESTR DA SERRA",
      "house": "",
      "postcode": "2715-120",
      "city": "PERO PINHEIRO",
      "lon": "-9.322711426434903",
      "lat": "38.86096989284912"
    },
    {
      "id": "pt.ine.add.PTCONT.3428913",
      "street": "ESTR SERRA",
      "house": "",
      "postcode": "2715-120",
      "city": "PERO PINHEIRO",
      "lon": "-9.323109740157427",
      "lat": "38.85998401162187"
    }
  ]
}