{
  "data": {
    "distrito": "Lisboa",
    "concelho": "Sintra",
    "freguesia": "União das freguesias de Almargem do Bispo, Pêro Pinheiro e Montelavar",
    "OBJECTID": 3292,
    "BGRI2021": "11112301320",
    "DT21": "11",
    "DTMN21": "1111",
    "DTMNFR21": "111123",
    "DTMNFRSEC21": "111123013",
    "SECNUM21": "013",
    "SSNUM21": "20",
    "SECSSNUM21": "01320",
    "OBJECTID_1": 111803,
    "DT": "11",
    "CC": "11",
    "fr": "23",
    "SEC": "013",
    "SS": "20"
  },
  "addresses": [
    {
      "id": "pt.ine.add.PTCONT.2309004",
      "street": "R JOÃO ANTÓNIO RAMALHETE",
      "house": "6",
      "postcode": "2715-633",
      "city": "MONTELAVAR",
      "lon": "-9.314056528654902",
      "lat": "38.866372192974346"
    },
    {
      "id": "pt.ine.add.PTCONT.2324507",
      "street": "LG MANUEL DIAS PEREIRA",
      "house": "10",
      "postcode": "2715-640",
      "city": "MONTELAVAR",
      "lon": "-9.314086468270416",
      "lat": "38.86609265618538"
    },
    {
      "id": "pt.ine.add.PTCONT.2335854",
      "street": "LG MANUEL DIAS PEREIRA",
      "house": "11",
      "postcode": "2715-640",
      "city": "MONTELAVAR",
      "lon": "-9.314108464498299",
      "lat": "38.866029380888634"
    },
    {
      "id": "pt.ine.add.PTCONT.2409524",
      "street": "R JOÃO ANTÓNIO RAMALHETE",
      "house": "5",
      "postcode": "2715-633",
      "city": "MONTELAVAR",
      "lon": "-9.314057422747117",
      "lat": "38.86642622922251"
    },
    {
      "id": "pt.ine.add.PTCONT.2581655",
      "street": "TV PARDAL MONTEIRO",
      "house": "18",
      "postcode": "2715-640",
      "city": "MONTELAVAR",
      "lon": "-9.313948679052313",
      "lat": "38.86612107224487"
    },
    {
      "id": "pt.ine.add.PTCONT.2723287",
      "street": "R LAVADOUROS",
      "house": "10",
      "postcode": "2715-637",
      "city": "MONTELAVAR",
      "lon": "-9.313835418972396",
      "lat": "38.866239315616696"
    },
    {
      "id": "pt.ine.add.PTCONT.2723288",
      "street": "R LAVADOUROS",
      "house": "10",
      "postcode": "2715-637",
      "city": "MONTELAVAR",
      "lon": "-9.313835418972396",
      "lat": "38.866239315616696"
    },
    {
      "id": "pt.ine.add.PTCONT.2769283",
      "street": "R JOÃO ANTÓNIO RAMALHETE",
      "house": "7",
      "postcode": "2715-633",
      "city": "MONTELAVAR",
      "lon": "-9.314067303302304",
      "lat": "38.8663270462678"
    },
    {
      "id": "pt.ine.add.PTCONT.3272440",
      "street": "LG MANUEL DIAS PEREIRA",
      "house": "8",
      "postcode": "2715-640",
      "city": "MONTELAVAR",
      "lon": "-9.314076289732679",
      "lat": "38.86617382706142"
    },
    {
      "id": "pt.ine.add.PTCONT.3390641",
      "street": "LG MANUEL DIAS PEREIRA",
      "house": "7",
      "postcode": "2715-640",
      "city": "MONTELAVAR",
      "lon": "-9.314054591463341",
      "lat": "38.86625511443491"
    }
  ]
}