{
  "data": {
    "distrito": "Braga",
    "concelho": "Cabeceiras de Basto",
    "freguesia": "União das freguesias de Refojos de Basto, Outeiro e Painzela",
    "OBJECTID": 391,
    "BGRI2021": "03042100304",
    "DT21": "03",
    "DTMN21": "0304",
    "DTMNFR21": "030421",
    "DTMNFRSEC21": "030421003",
    "SECNUM21": "003",
    "SSNUM21": "04",
    "SECSSNUM21": "00304",
    "OBJECTID_1": 23402,
    "DT": "03",
    "CC": "04",
    "fr": "21",
    "SEC": "003",
    "SS": "04"
  },
  "addresses": [
    {
      "id": "pt.ine.add.PTCONT.459528",
      "street": "LG BOAVISTA",
      "house": "",
      "postcode": "4860-354",
      "city": "CABECEIRAS DE BASTO",
      "lon": "-7.992266872397783",
      "lat": "41.51505474537963"
    },
    {
      "id": "pt.ine.add.PTCONT.489614",
      "street": "R MISERICORDIA",
      "house": "74",
      "postcode": "4860-352",
      "city": "CABECEIRAS DE BASTO",
      "lon": "-7.992648011564574",
      "lat": "41.516072643548576"
    },
    {
      "id": "pt.ine.add.PTCONT.515673",
      "street": "R JOÃO PAULO II",
      "house": "",
      "postcode": "4860-419",
      "city": "CABECEIRAS DE BASTO",
      "lon": "-7.992996039120022",
      "lat": "41.51578494573172"
    },
    {
      "id": "pt.ine.add.PTCONT.521520",
      "street": "LG BOAVISTA",
      "house": "163",
      "postcode": "4860-354",
      "city": "CABECEIRAS DE BASTO",
      "lon": "-7.99197897718067",
      "lat": "41.51523446894455"
    },
    {
      "id": "pt.ine.add.PTCONT.537325",
      "street": "LG BOAVISTA",
      "house": "",
      "postcode": "4860-354",
      "city": "CABECEIRAS DE BASTO",
      "lon": "-7.992038971773586",
      "lat": "41.51518952342856"
    },
    {
      "id": "pt.ine.add.PTCONT.586965",
      "street": "R DR MANUEL FRAGA",
      "house": "",
      "postcode": "4860-500",
      "city": "CABECEIRAS DE BASTO",
      "lon": "-7.993164760199632",
      "lat": "41.51531695233061"
    },
    {
      "id": "pt.ine.add.PTCONT.588340",
      "street": "R ADELINO AMARO COSTA",
      "house": "64",
      "postcode": "4860-360",
      "city": "CABECEIRAS DE BASTO",
      "lon": "-7.992325149742774",
      "lat": "41.515802134098905"
    },
    {
      "id": "pt.ine.add.PTCONT.651459",
      "street": "LG BOAVISTA",
      "house": "185",
      "postcode": "4860-354",
      "city": "CABECEIRAS DE BASTO",
      "lon": "-7.991906963991575",
      "lat": "41.51529740732166"
    },
    {
      "id": "pt.ine.add.PTCONT.695858",
      "street": "R JOÃO PAULO II",
      "house": "",
      "postcode": "4860-419",
      "city": "CABECEIRAS DE BASTO",
      "lon": "-7.992516762871851",
      "lat": "41.515829379962305"
    },
    {
      "id": "pt.ine.add.PTCONT.710722",
      "street": "LG BOAVISTA",
      "house": "",
      "postcode": "4860-354",
      "city": "CABECEIRAS DE BASTO",
      "lon": "-7.992146922762362",
      "lat": "41.51512662902016"
    },
    {
      "id": "pt.ine.add.PTCONT.806901",
      "street": "R JOÃO PAULO II",
      "house": "",
      "postcode": "4860-419",
      "city": "CABECEIRAS DE BASTO",
      "lon": "-7.992720569658527",
      "lat": "41.515757598336954"
    },
    {
      "id": "pt.ine.add.PTCONT.841403",
      "street": "R JOÃO PAULO II",
      "house": "",
      "postcode": "4860-419",
      "city": "CABECEIRAS DE BASTO",
      "lon": "-7.993211688985166",
      "lat": "41.51577620442542"
    },
    {
      "id": "pt.ine.add.PTCONT.845304",
      "street": "R DR FRANCISCO BOTELHO",
      "house": "193",
      "postcode": "4860-501",
      "city": "CABECEIRAS DE BASTO",
      "lon": "-7.9918108743905085",
      "lat": "41.51541433901838"
    }
  ]
}