{
  "data": {
    "distrito": "Bragança",
    "concelho": "Mogadouro",
    "freguesia": "União das freguesias de Remondes e Soutelo",
    "OBJECTID": 150,
    "BGRI2021": "04083100120",
    "DT21": "04",
    "DTMN21": "0408",
    "DTMNFR21": "040831",
    "DTMNFRSEC21": "040831001",
    "SECNUM21": "001",
    "SSNUM21": "20",
    "SECSSNUM21": "00120",
    "OBJECTID_1": 37820,
    "DT": "04",
    "CC": "08",
    "fr": "31",
    "SEC": "001",
    "SS": "20"
  },
  "addresses": [
    {
      "id": "pt.ine.add.PTCONT.874625",
      "street": "CANTO DA COSTINHA",
      "house": "",
      "postcode": "5200-370",
      "city": "REMONDES",
      "lon": "-6.7658128461313",
      "lat": "41.38046696884722"
    },
    {
      "id": "pt.ine.add.PTCONT.909649",
      "street": "CANTO DA COSTINHA",
      "house": "",
      "postcode": "5200-370",
      "city": "REMONDES",
      "lon": "-6.76568421142228",
      "lat": "41.38033038442034"
    },
    {
      "id": "pt.ine.add.PTCONT.911155",
      "street": "R RIBEIRO",
      "house": "",
      "postcode": "5200-370",
      "city": "REMONDES",
      "lon": "-6.765435001728978",
      "lat": "41.380813622636595"
    },
    {
      "id": "pt.ine.add.PTCONT.931854",
      "street": "R COSTINHA",
      "house": "1",
      "postcode": "5200-370",
      "city": "REMONDES",
      "lon": "-6.7654827384898075",
      "lat": "41.38024695632163"
    },
    {
      "id": "pt.ine.add.PTCONT.936203",
      "street": "LG FONTOSIO",
      "house": "2",
      "postcode": "5200-370",
      "city": "REMONDES",
      "lon": "-6.76532260227237",
      "lat": "41.38161361660085"
    },
    {
      "id": "pt.ine.add.PTCONT.944274",
      "street": "CAM AZINHAL",
      "house": "51",
      "postcode": "5200-370",
      "city": "REMONDES",
      "lon": "-6.812511323591883",
      "lat": "41.376069401716876"
    },
    {
      "id": "pt.ine.add.PTCONT.946523",
      "street": "CANTO DA COSTINHA",
      "house": "3",
      "postcode": "5200-370",
      "city": "REMONDES",
      "lon": "-6.7655962151962745",
      "lat": "41.38053642389111"
    },
    {
      "id": "pt.ine.add.PTCONT.946524",
      "street": "R RIBEIRO",
      "house": "",
      "postcode": "5200-370",
      "city": "REMONDES",
      "lon": "-6.765569483641661",
      "lat": "41.38067116181776"
    }
  ]
}