{
  "data": {
    "distrito": "Bragança",
    "concelho": "Mogadouro",
    "freguesia": "União das freguesias de Remondes e Soutelo",
    "OBJECTID": 342,
    "BGRI2021": "04083100125",
    "DT21": "04",
    "DTMN21": "0408",
    "DTMNFR21": "040831",
    "DTMNFRSEC21": "040831001",
    "SECNUM21": "001",
    "SSNUM21": "25",
    "SECSSNUM21": "00125",
    "OBJECTID_1": 37819,
    "DT": "04",
    "CC": "08",
    "fr": "31",
    "SEC": "001",
    "SS": "25"
  },
  "addresses": [
    {
      "id": "pt.ine.add.PTCONT.857560",
      "street": "R CASTELO",
      "house": "",
      "postcode": "5200-410",
      "city": "SOUTELO MGD",
      "lon": "-6.730442396737756",
      "lat": "41.3992820528355"
    },
    {
      "id": "pt.ine.add.PTCONT.862912",
      "street": "R MALHADA",
      "house": "",
      "postcode": "5200-410",
      "city": "SOUTELO MGD",
      "lon": "-6.73161900366161",
      "lat": "41.39850406991753"
    },
    {
      "id": "pt.ine.add.PTCONT.889525",
      "street": "R CAROCEIRA",
      "house": "",
      "postcode": "5200-410",
      "city": "SOUTELO MGD",
      "lon": "-6.735022186099834",
      "lat": "41.39537618558051"
    },
    {
      "id": "pt.ine.add.PTCONT.912617",
      "street": "ESTR NOVA",
      "house": "",
      "postcode": "5200-410",
      "city": "SOUTELO MGD",
      "lon": "-6.735124568130694",
      "lat": "41.39506230113597"
    },
    {
      "id": "pt.ine.add.PTCONT.913373",
      "street": "R CAROCEIRAS",
      "house": "",
      "postcode": "5200-410",
      "city": "SOUTELO MGD",
      "lon": "-6.734612862158154",
      "lat": "41.3955062656526"
    },
    {
      "id": "pt.ine.add.PTCONT.916360",
      "street": "R CAROCEIRAS",
      "house": "",
      "postcode": "5200-410",
      "city": "SOUTELO MGD",
      "lon": "-6.734779829844279",
      "lat": "41.395526302546216"
    },
    {
      "id": "pt.ine.add.PTCONT.929461",
      "street": "R CASTELO",
      "house": "",
      "postcode": "5200-410",
      "city": "SOUTELO MGD",
      "lon": "-6.730640829970134",
      "lat": "41.39895133641504"
    }
  ]
}