{
  "data": {
    "distrito": "Beja",
    "concelho": "Moura",
    "freguesia": "União das freguesias de Safara e Santo Aleixo da Restauração",
    "OBJECTID": 101,
    "BGRI2021": "02101000125",
    "DT21": "02",
    "DTMN21": "0210",
    "DTMNFR21": "021010",
    "DTMNFRSEC21": "021010001",
    "SECNUM21": "001",
    "SSNUM21": "25",
    "SECSSNUM21": "00125",
    "OBJECTID_1": 16872,
    "DT": "02",
    "CC": "10",
    "fr": "10",
    "SEC": "001",
    "SS": "25"
  },
  "addresses": [
    {
      "id": "pt.ine.add.PTCONT.457184",
      "street": "MTE POSTO DA GNR",
      "house": "",
      "postcode": "7875-159",
      "city": "STO ALEIXO DA RESTAURAÇÃO",
      "lon": "-7.008418112570533",
      "lat": "38.064695000252826"
    },
    {
      "id": "pt.ine.add.PTCONT.352708",
      "street": "MTE 25",
      "house": "",
      "postcode": "7875-159",
      "city": "STO ALEIXO DA RESTAURAÇÃO",
      "lon": "-7.028445007398367",
      "lat": "38.052155510200734"
    },
    {
      "id": "pt.ine.add.PTCONT.353465",
      "street": "MTE CAVALOS",
      "house": "",
      "postcode": "7875-159",
      "city": "STO ALEIXO DA RESTAURAÇÃO",
      "lon": "-7.007671073443476",
      "lat": "38.065111261391955"
    },
    {
      "id": "pt.ine.add.PTCONT.354482",
      "street": "MTE ALVARINHO",
      "house": "",
      "postcode": "7875-159",
      "city": "STO ALEIXO DA RESTAURAÇÃO",
      "lon": "-7.030314873610347",
      "lat": "38.06496556522912"
    },
    {
      "id": "pt.ine.add.PTCONT.361684",
      "street": "MTE BARROCAS",
      "house": "",
      "postcode": "7875-159",
      "city": "STO ALEIXO DA RESTAURAÇÃO",
      "lon": "-7.026446386830545",
      "lat": "38.0509655648014"
    },
    {
      "id": "pt.ine.add.PTCONT.376318",
      "street": "MTE CASA DO ACUCAR",
      "house": "",
      "postcode": "7875-159",
      "city": "STO ALEIXO DA RESTAURAÇÃO",
      "lon": "-7.028761818977236",
      "lat": "38.05305936803133"
    },
    {
      "id": "pt.ine.add.PTCONT.377101",
      "street": "MTE MAITO",
      "house": "",
      "postcode": "7875-159",
      "city": "STO ALEIXO DA RESTAURAÇÃO",
      "lon": "-7.022314265902915",
      "lat": "38.06882705878726"
    },
    {
      "id": "pt.ine.add.PTCONT.389925",
      "street": "MTE MANUEL DOS OVOS",
      "house": "",
      "postcode": "7875-159",
      "city": "STO ALEIXO DA RESTAURAÇÃO",
      "lon": "-7.026153419412687",
      "lat": "38.05831398951268"
    },
    {
      "id": "pt.ine.add.PTCONT.408231",
      "street": "MTE PASSARO",
      "house": "",
      "postcode": "7875-159",
      "city": "STO ALEIXO DA RESTAURAÇÃO",
      "lon": "-7.028304114661134",
      "lat": "38.052433459037694"
    },
    {
      "id": "pt.ine.add.PTCONT.408232",
      "street": "MTE CALEIRO",
      "house": "",
      "postcode": "7875-159",
      "city": "STO ALEIXO DA RESTAURAÇÃO",
      "lon": "-7.0295885389621535",
      "lat": "38.07235496003089"
    },
    {
      "id": "pt.ine.add.PTCONT.409309",
      "street": "MTE GUARDAS FLORESTAIS",
      "house": "",
      "postcode": "7875-159",
      "city": "STO ALEIXO DA RESTAURAÇÃO",
      "lon": "-7.008907423539548",
      "lat": "38.063249268723915"
    },
    {
      "id": "pt.ine.add.PTCONT.409310",
      "street": "MTE GUARDAS FLORESTAIS",
      "house": "",
      "postcode": "7875-159",
      "city": "STO ALEIXO DA RESTAURAÇÃO",
      "lon": "-7.008907423539548",
      "lat": "38.063249268723915"
    },
    {
      "id": "pt.ine.add.PTCONT.409311",
      "street": "MTE GUARDAS FLORESTAIS",
      "house": "",
      "postcode": "7875-159",
      "city": "STO ALEIXO DA RESTAURAÇÃO",
      "lon": "-7.008907423539548",
      "lat": "38.063249268723915"
    },
    {
      "id": "pt.ine.add.PTCONT.409541",
      "street": "MTE GUARDAS FLORESTAIS",
      "house": "",
      "postcode": "7875-159",
      "city": "STO ALEIXO DA RESTAURAÇÃO",
      "lon": "-7.008907423539548",
      "lat": "38.063249268723915"
    },
    {
      "id": "pt.ine.add.PTCONT.412780",
      "street": "MTE CASA DO VIVEIRO",
      "house": "",
      "postcode": "7875-159",
      "city": "STO ALEIXO DA RESTAURAÇÃO",
      "lon": "-7.026059160392044",
      "lat": "38.05852030407089"
    },
    {
      "id": "pt.ine.add.PTCONT.418980",
      "street": "MONTE",
      "house": "",
      "postcode": "7875-159",
      "city": "STO ALEIXO DA RESTAURAÇÃO",
      "lon": "-7.026143711835545",
      "lat": "38.05063839758408"
    },
    {
      "id": "pt.ine.add.PTCONT.423052",
      "street": "MTE MEL",
      "house": "",
      "postcode": "7875-159",
      "city": "STO ALEIXO DA RESTAURAÇÃO",
      "lon": "-7.02151679926037",
      "lat": "38.071071712958876"
    },
    {
      "id": "pt.ine.add.PTCONT.423053",
      "street": "MTE MEL",
      "house": "",
      "postcode": "7875-159",
      "city": "STO ALEIXO DA RESTAURAÇÃO",
      "lon": "-7.02151679926037",
      "lat": "38.071071712958876"
    },
    {
      "id": "pt.ine.add.PTCONT.431908",
      "street": "MTE FERREIRO",
      "house": "",
      "postcode": "7875-159",
      "city": "STO ALEIXO DA RESTAURAÇÃO",
      "lon": "-7.026183518799371",
      "lat": "38.05934127584726"
    },
    {
      "id": "pt.ine.add.PTCONT.431909",
      "street": "MTE FERREIRO",
      "house": "",
      "postcode": "7875-159",
      "city": "STO ALEIXO DA RESTAURAÇÃO",
      "lon": "-7.026183518799371",
      "lat": "38.05934127584726"
    },
    {
      "id": "pt.ine.add.PTCONT.431910",
      "street": "MTE FERREIRO",
      "house": "",
      "postcode": "7875-159",
      "city": "STO ALEIXO DA RESTAURAÇÃO",
      "lon": "-7.026183518799371",
      "lat": "38.05934127584726"
    },
    {
      "id": "pt.ine.add.PTCONT.431911",
      "street": "MTE FERREIRO",
      "house": "",
      "postcode": "7875-159",
      "city": "STO ALEIXO DA RESTAURAÇÃO",
      "lon": "-7.026183518799371",
      "lat": "38.05934127584726"
    },
    {
      "id": "pt.ine.add.PTCONT.431912",
      "street": "MTE FERREIRO",
      "house": "",
      "postcode": "7875-159",
      "city": "STO ALEIXO DA RESTAURAÇÃO",
      "lon": "-7.026183518799371",
      "lat": "38.05934127584726"
    },
    {
      "id": "pt.ine.add.PTCONT.431913",
      "street": "MTE FERREIRO",
      "house": "",
      "postcode": "7875-159",
      "city": "STO ALEIXO DA RESTAURAÇÃO",
      "lon": "-7.026183518799371",
      "lat": "38.05934127584726"
    },
    {
      "id": "pt.ine.add.PTCONT.434348",
      "street": "MTE MIRANTE",
      "house": "",
      "postcode": "7875-159",
      "city": "STO ALEIXO DA RESTAURAÇÃO",
      "lon": "-7.024198718206922",
      "lat": "38.05798025568293"
    },
    {
      "id": "pt.ine.add.PTCONT.441729",
      "street": "MTE POSTO DA GNR",
      "house": "",
      "postcode": "7875-159",
      "city": "STO ALEIXO DA RESTAURAÇÃO",
      "lon": "-7.008418112570533",
      "lat": "38.064695000252826"
    },
    {
      "id": "pt.ine.add.PTCONT.441730",
      "street": "MTE POSTO DA GNR",
      "house": "",
      "postcode": "7875-159",
      "city": "STO ALEIXO DA RESTAURAÇÃO",
      "lon": "-7.008418112570533",
      "lat": "38.064695000252826"
    },
    {
      "id": "pt.ine.add.PTCONT.441731",
      "street": "MTE POSTO DA GNR",
      "house": "",
      "postcode": "7875-159",
      "city": "STO ALEIXO DA RESTAURAÇÃO",
      "lon": "-7.008418112570533",
      "lat": "38.064695000252826"
    },
    {
      "id": "pt.ine.add.PTCONT.441732",
      "street": "MTE POSTO DA GNR",
      "house": "",
      "postcode": "7875-159",
      "city": "STO ALEIXO DA RESTAURAÇÃO",
      "lon": "-7.008418112570533",
      "lat": "38.064695000252826"
    },
    {
      "id": "pt.ine.add.PTCONT.441733",
      "street": "MTE POSTO DA GNR",
      "house": "",
      "postcode": "7875-159",
      "city": "STO ALEIXO DA RESTAURAÇÃO",
      "lon": "-7.008418112570533",
      "lat": "38.064695000252826"
    }
  ]
}