{
  "data": {
    "distrito": "Lisboa",
    "concelho": "Cascais",
    "freguesia": "São Domingos de Rana",
    "OBJECTID": 1876,
    "BGRI2021": "11050603909",
    "DT21": "11",
    "DTMN21": "1105",
    "DTMNFR21": "110506",
    "DTMNFRSEC21": "110506039",
    "SECNUM21": "039",
    "SSNUM21": "09",
    "SECSSNUM21": "03909",
    "OBJECTID_1": 100430,
    "DT": "11",
    "CC": "05",
    "fr": "06",
    "SEC": "039",
    "SS": "09"
  },
  "addresses": [
    {
      "id": "pt.ine.add.PTCONT.3052711",
      "street": "R ALICE GOMES",
      "house": "194",
      "postcode": "2785-409",
      "city": "SÃO DOMINGOS DE RANA",
      "lon": "-9.334337570250103",
      "lat": "38.71843997343259"
    },
    {
      "id": "pt.ine.add.PTCONT.3052712",
      "street": "R ALICE GOMES",
      "house": "194",
      "postcode": "2785-409",
      "city": "SÃO DOMINGOS DE RANA",
      "lon": "-9.334337570250103",
      "lat": "38.71843997343259"
    },
    {
      "id": "pt.ine.add.PTCONT.3052713",
      "street": "R ALICE GOMES",
      "house": "194",
      "postcode": "2785-409",
      "city": "SÃO DOMINGOS DE RANA",
      "lon": "-9.334337570250103",
      "lat": "38.71843997343259"
    },
    {
      "id": "pt.ine.add.PTCONT.3052714",
      "street": "R ALICE GOMES",
      "house": "194",
      "postcode": "2785-409",
      "city": "SÃO DOMINGOS DE RANA",
      "lon": "-9.334337570250103",
      "lat": "38.71843997343259"
    },
    {
      "id": "pt.ine.add.PTCONT.3186254",
      "street": "R 17 DE JUNHO",
      "house": "27",
      "postcode": "2785-101",
      "city": "SÃO DOMINGOS DE RANA",
      "lon": "-9.334004903995949",
      "lat": "38.719173019127474"
    },
    {
      "id": "pt.ine.add.PTCONT.3294534",
      "street": "R ANA CALIXTO",
      "house": "",
      "postcode": "2785-409",
      "city": "SÃO DOMINGOS DE RANA",
      "lon": "-9.334009918237902",
      "lat": "38.71878563427233"
    },
    {
      "id": "pt.ine.add.PTCONT.3294535",
      "street": "R ANA CALIXTO",
      "house": "",
      "postcode": "2785-409",
      "city": "SÃO DOMINGOS DE RANA",
      "lon": "-9.334009918237902",
      "lat": "38.71878563427233"
    },
    {
      "id": "pt.ine.add.PTCONT.3311761",
      "street": "R JOÃO DE BARROS",
      "house": "40",
      "postcode": "2785-103",
      "city": "SÃO DOMINGOS DE RANA",
      "lon": "-9.335003726551706",
      "lat": "38.718397095629115"
    },
    {
      "id": "pt.ine.add.PTCONT.3311815",
      "street": "R 17 DE JUNHO",
      "house": "115",
      "postcode": "2785-101",
      "city": "SÃO DOMINGOS DE RANA",
      "lon": "-9.334934267768265",
      "lat": "38.71905537560009"
    },
    {
      "id": "pt.ine.add.PTCONT.2640749",
      "street": "R ALICE GOMES",
      "house": "",
      "postcode": "2785-409",
      "city": "SÃO DOMINGOS DE RANA",
      "lon": "-9.33436312521752",
      "lat": "38.718592842642636"
    },
    {
      "id": "pt.ine.add.PTCONT.2640750",
      "street": "R ALICE GOMES",
      "house": "",
      "postcode": "2785-409",
      "city": "SÃO DOMINGOS DE RANA",
      "lon": "-9.33436312521752",
      "lat": "38.718592842642636"
    },
    {
      "id": "pt.ine.add.PTCONT.2640751",
      "street": "R ALICE GOMES",
      "house": "",
      "postcode": "2785-409",
      "city": "SÃO DOMINGOS DE RANA",
      "lon": "-9.33436312521752",
      "lat": "38.718592842642636"
    },
    {
      "id": "pt.ine.add.PTCONT.2640752",
      "street": "R ALICE GOMES",
      "house": "",
      "postcode": "2785-409",
      "city": "SÃO DOMINGOS DE RANA",
      "lon": "-9.33436312521752",
      "lat": "38.718592842642636"
    },
    {
      "id": "pt.ine.add.PTCONT.2743693",
      "street": "R ALICE GOMES",
      "house": "161",
      "postcode": "2785-409",
      "city": "SÃO DOMINGOS DE RANA",
      "lon": "-9.33386951451338",
      "lat": "38.7193275416099"
    }
  ]
}