{
  "data": {
    "distrito": "Santarém",
    "concelho": "Torres Novas",
    "freguesia": "Assentiz",
    "OBJECTID": 454,
    "BGRI2021": "14190200404",
    "DT21": "14",
    "DTMN21": "1419",
    "DTMNFR21": "141902",
    "DTMNFRSEC21": "141902004",
    "SECNUM21": "004",
    "SSNUM21": "04",
    "SECSSNUM21": "00404",
    "OBJECTID_1": 157715,
    "DT": "14",
    "CC": "19",
    "fr": "02",
    "SEC": "004",
    "SS": "04"
  },
  "addresses": [
    {
      "id": "pt.ine.add.PTCONT.4403319",
      "street": "R COMÉRCIO",
      "house": "",
      "postcode": "2350-027",
      "city": "ASSENTIZ TNV",
      "lon": "-8.515167475747967",
      "lat": "39.55997212654919"
    },
    {
      "id": "pt.ine.add.PTCONT.4418818",
      "street": "R CAMPO SANTO ESTEVÃO",
      "house": "8",
      "postcode": "2350-027",
      "city": "ASSENTIZ TNV",
      "lon": "-8.514036877626861",
      "lat": "39.55962457069449"
    },
    {
      "id": "pt.ine.add.PTCONT.4418819",
      "street": "R CAMPO SANTO ESTEVÃO",
      "house": "8A",
      "postcode": "2350-027",
      "city": "ASSENTIZ TNV",
      "lon": "-8.514001477624353",
      "lat": "39.55953461825035"
    },
    {
      "id": "pt.ine.add.PTCONT.4535361",
      "street": "R COMÉRCIO",
      "house": "",
      "postcode": "2350-027",
      "city": "ASSENTIZ TNV",
      "lon": "-8.51500748836606",
      "lat": "39.56050405624433"
    },
    {
      "id": "pt.ine.add.PTCONT.4536744",
      "street": "R CAMPO SANTO ESTEVÃO",
      "house": "4",
      "postcode": "2350-027",
      "city": "ASSENTIZ TNV",
      "lon": "-8.514540719102364",
      "lat": "39.56026240427302"
    },
    {
      "id": "pt.ine.add.PTCONT.4538812",
      "street": "R COMERCIO",
      "house": "4",
      "postcode": "2350-027",
      "city": "ASSENTIZ TNV",
      "lon": "-8.514948320936984",
      "lat": "39.56032411374987"
    },
    {
      "id": "pt.ine.add.PTCONT.4542811",
      "street": "R AMENDOEIRAS",
      "house": "2",
      "postcode": "2350-027",
      "city": "ASSENTIZ TNV",
      "lon": "-8.514000147474587",
      "lat": "39.55929143774585"
    },
    {
      "id": "pt.ine.add.PTCONT.4569972",
      "street": "R CAMPO SANTO ESTEVÃO",
      "house": "12",
      "postcode": "2350-027",
      "city": "ASSENTIZ TNV",
      "lon": "-8.513872843940927",
      "lat": "39.55941795074093"
    },
    {
      "id": "pt.ine.add.PTCONT.4575954",
      "street": "R AMENDOEIRAS",
      "house": "4",
      "postcode": "2350-027",
      "city": "ASSENTIZ TNV",
      "lon": "-8.514092937637427",
      "lat": "39.55923709252842"
    },
    {
      "id": "pt.ine.add.PTCONT.4659167",
      "street": "R CAMPO SANTO ESTEVÃO",
      "house": "10",
      "postcode": "2350-027",
      "city": "ASSENTIZ TNV",
      "lon": "-8.513931367477285",
      "lat": "39.55948080692013"
    }
  ]
}