{
  "data": {
    "distrito": "Braga",
    "concelho": "Vieira do Minho",
    "freguesia": "Tabuaças",
    "OBJECTID": 148,
    "BGRI2021": "03111800108",
    "DT21": "03",
    "DTMN21": "0311",
    "DTMNFR21": "031118",
    "DTMNFRSEC21": "031118001",
    "SECNUM21": "001",
    "SSNUM21": "08",
    "SECSSNUM21": "00108",
    "OBJECTID_1": 29690,
    "DT": "03",
    "CC": "11",
    "fr": "18",
    "SEC": "001",
    "SS": "08"
  },
  "addresses": [
    {
      "id": "pt.ine.add.PTCONT.481558",
      "street": "EN 103",
      "house": "104",
      "postcode": "4850-429",
      "city": "TABUAÇAS",
      "lon": "-8.200227168933385",
      "lat": "41.629351809751206"
    },
    {
      "id": "pt.ine.add.PTCONT.529286",
      "street": "EN 103",
      "house": "24",
      "postcode": "4850-429",
      "city": "TABUAÇAS",
      "lon": "-8.204003646676174",
      "lat": "41.62599118137302"
    },
    {
      "id": "pt.ine.add.PTCONT.558516",
      "street": "EN 103",
      "house": "62",
      "postcode": "4850-429",
      "city": "TABUAÇAS",
      "lon": "-8.202349166649837",
      "lat": "41.62739675942006"
    },
    {
      "id": "pt.ine.add.PTCONT.594670",
      "street": "R POUSADOURO",
      "house": "110",
      "postcode": "4850-429",
      "city": "TABUAÇAS",
      "lon": "-8.199855394924956",
      "lat": "41.62958612104069"
    },
    {
      "id": "pt.ine.add.PTCONT.627415",
      "street": "EN 103",
      "house": "92",
      "postcode": "4850-429",
      "city": "TABUAÇAS",
      "lon": "-8.201150582511259",
      "lat": "41.62875702614319"
    },
    {
      "id": "pt.ine.add.PTCONT.720928",
      "street": "SIT POUSADOURO",
      "house": "96",
      "postcode": "4850-429",
      "city": "TABUAÇAS",
      "lon": "-8.200766748936271",
      "lat": "41.62892832200528"
    },
    {
      "id": "pt.ine.add.PTCONT.771573",
      "street": "ESTRADA NACIONAL",
      "house": "55",
      "postcode": "4850-429",
      "city": "TABUAÇAS",
      "lon": "-8.205118613176833",
      "lat": "41.62507211573251"
    },
    {
      "id": "pt.ine.add.PTCONT.792376",
      "street": "EN 103",
      "house": "90",
      "postcode": "4850-429",
      "city": "TABUAÇAS",
      "lon": "-8.201342427333163",
      "lat": "41.62860385040944"
    },
    {
      "id": "pt.ine.add.PTCONT.828559",
      "street": "POUSADOURO",
      "house": "14",
      "postcode": "4850-429",
      "city": "TABUAÇAS",
      "lon": "-8.204423255359902",
      "lat": "41.625639779373756"
    }
  ]
}