{
  "data": {
    "distrito": "Évora",
    "concelho": "Estremoz",
    "freguesia": "União das freguesias do Ameixial (Santa Vitória e São Bento)",
    "OBJECTID": 131,
    "BGRI2021": "07041700114",
    "DT21": "07",
    "DTMN21": "0704",
    "DTMNFR21": "070417",
    "DTMNFRSEC21": "070417001",
    "SECNUM21": "001",
    "SSNUM21": "14",
    "SECSSNUM21": "00114",
    "OBJECTID_1": 59316,
    "DT": "07",
    "CC": "04",
    "fr": "17",
    "SEC": "001",
    "SS": "14"
  },
  "addresses": [
    {
      "id": "pt.ine.add.PTCONT.1367730",
      "street": "MTE DEUS NOSSO SENHOR",
      "house": "",
      "postcode": "7100-600",
      "city": "SÃO BENTO DO AMEIXIAL",
      "lon": "-7.663974627273748",
      "lat": "38.85899722414088"
    },
    {
      "id": "pt.ine.add.PTCONT.1368567",
      "street": "MTE COURELA ESTUDANTES",
      "house": "",
      "postcode": "7100-600",
      "city": "SÃO BENTO DO AMEIXIAL",
      "lon": "-7.685781620875044",
      "lat": "38.85197553380949"
    },
    {
      "id": "pt.ine.add.PTCONT.1369324",
      "street": "MTE OLIVEIRAS",
      "house": "",
      "postcode": "7100-600",
      "city": "SÃO BENTO DO AMEIXIAL",
      "lon": "-7.675749004111421",
      "lat": "38.85180156139782"
    },
    {
      "id": "pt.ine.add.PTCONT.1371620",
      "street": "MTE COVAL",
      "house": "",
      "postcode": "7100-600",
      "city": "SÃO BENTO DO AMEIXIAL",
      "lon": "-7.677157251690506",
      "lat": "38.84052913972476"
    },
    {
      "id": "pt.ine.add.PTCONT.1372074",
      "street": "MTE COVAL",
      "house": "",
      "postcode": "7100-600",
      "city": "SÃO BENTO DO AMEIXIAL",
      "lon": "-7.677157251690506",
      "lat": "38.84052913972476"
    },
    {
      "id": "pt.ine.add.PTCONT.1373895",
      "street": "MTE ALTO",
      "house": "",
      "postcode": "7100-600",
      "city": "SÃO BENTO DO AMEIXIAL",
      "lon": "-7.67266773304074",
      "lat": "38.852654215700205"
    },
    {
      "id": "pt.ine.add.PTCONT.1397178",
      "street": "MTE GRANDE NOVA HERDADE NOVA",
      "house": "",
      "postcode": "7100-600",
      "city": "SÃO BENTO DO AMEIXIAL",
      "lon": "-7.691424176172901",
      "lat": "38.843007092139224"
    },
    {
      "id": "pt.ine.add.PTCONT.1399813",
      "street": "MTE GRAÇA",
      "house": "",
      "postcode": "7100-600",
      "city": "SÃO BENTO DO AMEIXIAL",
      "lon": "-7.682345751030609",
      "lat": "38.856096959262096"
    },
    {
      "id": "pt.ine.add.PTCONT.1400252",
      "street": "MTE ESPORAO",
      "house": "",
      "postcode": "7100-600",
      "city": "SÃO BENTO DO AMEIXIAL",
      "lon": "-7.65494935025307",
      "lat": "38.844169627439996"
    },
    {
      "id": "pt.ine.add.PTCONT.1413824",
      "street": "MTE TORRE",
      "house": "",
      "postcode": "7100-600",
      "city": "SÃO BENTO DO AMEIXIAL",
      "lon": "-7.682056125993961",
      "lat": "38.870940866769544"
    },
    {
      "id": "pt.ine.add.PTCONT.1415900",
      "street": "MTE ILHA",
      "house": "",
      "postcode": "7100-600",
      "city": "SÃO BENTO DO AMEIXIAL",
      "lon": "-7.665371349219541",
      "lat": "38.84099599363544"
    },
    {
      "id": "pt.ine.add.PTCONT.1415901",
      "street": "MTE ILHA",
      "house": "",
      "postcode": "7100-600",
      "city": "SÃO BENTO DO AMEIXIAL",
      "lon": "-7.665371349219541",
      "lat": "38.84099599363544"
    },
    {
      "id": "pt.ine.add.PTCONT.1415902",
      "street": "MTE ILHA",
      "house": "",
      "postcode": "7100-600",
      "city": "SÃO BENTO DO AMEIXIAL",
      "lon": "-7.665371349219541",
      "lat": "38.84099599363544"
    },
    {
      "id": "pt.ine.add.PTCONT.1424402",
      "street": "MTE BOAVISTA",
      "house": "",
      "postcode": "7100-600",
      "city": "SÃO BENTO DO AMEIXIAL",
      "lon": "-7.663376894321226",
      "lat": "38.85704010581848"
    },
    {
      "id": "pt.ine.add.PTCONT.1430164",
      "street": "MTE TORRE",
      "house": "",
      "postcode": "7100-600",
      "city": "SÃO BENTO DO AMEIXIAL",
      "lon": "-7.6805762265810635",
      "lat": "38.86990824189684"
    },
    {
      "id": "pt.ine.add.PTCONT.1430165",
      "street": "MTE TORRE",
      "house": "",
      "postcode": "7100-600",
      "city": "SÃO BENTO DO AMEIXIAL",
      "lon": "-7.6805762265810635",
      "lat": "38.86990824189684"
    },
    {
      "id": "pt.ine.add.PTCONT.1437331",
      "street": "MTE ESTUDANTES",
      "house": "",
      "postcode": "7100-600",
      "city": "SÃO BENTO DO AMEIXIAL",
      "lon": "-7.685773317308061",
      "lat": "38.85146205039618"
    },
    {
      "id": "pt.ine.add.PTCONT.1437881",
      "street": "MTE PRAZERES",
      "house": "",
      "postcode": "7100-600",
      "city": "SÃO BENTO DO AMEIXIAL",
      "lon": "-7.67303955318911",
      "lat": "38.855736388056485"
    },
    {
      "id": "pt.ine.add.PTCONT.1438641",
      "street": "MTE LEBRE",
      "house": "",
      "postcode": "7100-600",
      "city": "SÃO BENTO DO AMEIXIAL",
      "lon": "-7.667326920462755",
      "lat": "38.84844435694568"
    },
    {
      "id": "pt.ine.add.PTCONT.1438642",
      "street": "MTE LEBRE",
      "house": "",
      "postcode": "7100-600",
      "city": "SÃO BENTO DO AMEIXIAL",
      "lon": "-7.667326920462755",
      "lat": "38.84844435694568"
    },
    {
      "id": "pt.ine.add.PTCONT.1447023",
      "street": "MTE HERDADE GRANDE NOVA",
      "house": "",
      "postcode": "7100-600",
      "city": "SÃO BENTO DO AMEIXIAL",
      "lon": "-7.689431481840806",
      "lat": "38.84671981729392"
    },
    {
      "id": "pt.ine.add.PTCONT.1451572",
      "street": "MTE PAPA",
      "house": "",
      "postcode": "7100-600",
      "city": "SÃO BENTO DO AMEIXIAL",
      "lon": "-7.659458283493371",
      "lat": "38.84338629224107"
    },
    {
      "id": "pt.ine.add.PTCONT.1455796",
      "street": "MTE ROSA",
      "house": "",
      "postcode": "7100-600",
      "city": "SÃO BENTO DO AMEIXIAL",
      "lon": "-7.676649720008887",
      "lat": "38.855065951130555"
    },
    {
      "id": "pt.ine.add.PTCONT.1462031",
      "street": "MTE PARAISO",
      "house": "",
      "postcode": "7100-600",
      "city": "SÃO BENTO DO AMEIXIAL",
      "lon": "-7.6714584570627355",
      "lat": "38.854387970243934"
    },
    {
      "id": "pt.ine.add.PTCONT.1462032",
      "street": "MTE PARAISO",
      "house": "",
      "postcode": "7100-600",
      "city": "SÃO BENTO DO AMEIXIAL",
      "lon": "-7.6714584570627355",
      "lat": "38.854387970243934"
    },
    {
      "id": "pt.ine.add.PTCONT.1464553",
      "street": "MTE ILHA",
      "house": "",
      "postcode": "7100-600",
      "city": "SÃO BENTO DO AMEIXIAL",
      "lon": "-7.665371349219541",
      "lat": "38.84099599363544"
    },
    {
      "id": "pt.ine.add.PTCONT.1465595",
      "street": "MTE PAPA",
      "house": "",
      "postcode": "7100-600",
      "city": "SÃO BENTO DO AMEIXIAL",
      "lon": "-7.659458283493371",
      "lat": "38.84338629224107"
    }
  ]
}