{
  "data": {
    "distrito": "Faro",
    "concelho": "Silves",
    "freguesia": "União das freguesias de Algoz e Tunes",
    "OBJECTID": 291,
    "BGRI2021": "08131000415",
    "DT21": "08",
    "DTMN21": "0813",
    "DTMNFR21": "081310",
    "DTMNFRSEC21": "081310004",
    "SECNUM21": "004",
    "SSNUM21": "15",
    "SECSSNUM21": "00415",
    "OBJECTID_1": 72957,
    "DT": "08",
    "CC": "13",
    "fr": "10",
    "SEC": "004",
    "SS": "15"
  },
  "addresses": [
    {
      "id": "pt.ine.add.PTCONT.1526374",
      "street": "",
      "house": "",
      "postcode": "8365-083",
      "city": "ALGOZ",
      "lon": "-8.284059552703626",
      "lat": "37.155575540797024"
    },
    {
      "id": "pt.ine.add.PTCONT.1582357",
      "street": "SIT PACO BAIAES",
      "house": "",
      "postcode": "8365-080",
      "city": "ALGOZ",
      "lon": "-8.277076192394587",
      "lat": "37.15360190166516"
    },
    {
      "id": "pt.ine.add.PTCONT.1657119",
      "street": "",
      "house": "",
      "postcode": "8365-083",
      "city": "ALGOZ",
      "lon": "-8.281863826114153",
      "lat": "37.15530799968282"
    },
    {
      "id": "pt.ine.add.PTCONT.1658014",
      "street": "",
      "house": "",
      "postcode": "8365-083",
      "city": "ALGOZ",
      "lon": "-8.281593102728054",
      "lat": "37.15502901120294"
    },
    {
      "id": "pt.ine.add.PTCONT.1676499",
      "street": "SIT PACO",
      "house": "",
      "postcode": "8365-083",
      "city": "ALGOZ",
      "lon": "-8.275780741971396",
      "lat": "37.15313491787359"
    },
    {
      "id": "pt.ine.add.PTCONT.1692038",
      "street": "",
      "house": "",
      "postcode": "8365-083",
      "city": "ALGOZ",
      "lon": "-8.282550597291753",
      "lat": "37.155343178026634"
    },
    {
      "id": "pt.ine.add.PTCONT.1717794",
      "street": "QTA STO ANTÓNIO DO PAÇO",
      "house": "",
      "postcode": "8365-080",
      "city": "ALGOZ",
      "lon": "-8.278281704479804",
      "lat": "37.15412304493247"
    },
    {
      "id": "pt.ine.add.PTCONT.1717795",
      "street": "QTA STO ANTÓNIO DO PAÇO",
      "house": "",
      "postcode": "8365-080",
      "city": "ALGOZ",
      "lon": "-8.278281704479804",
      "lat": "37.15412304493247"
    },
    {
      "id": "pt.ine.add.PTCONT.1717796",
      "street": "QTA STO ANTÓNIO DO PAÇO",
      "house": "",
      "postcode": "8365-080",
      "city": "ALGOZ",
      "lon": "-8.278281704479804",
      "lat": "37.15412304493247"
    },
    {
      "id": "pt.ine.add.PTCONT.1717797",
      "street": "QTA STO ANTÓNIO DO PAÇO",
      "house": "",
      "postcode": "8365-080",
      "city": "ALGOZ",
      "lon": "-8.278281704479804",
      "lat": "37.15412304493247"
    },
    {
      "id": "pt.ine.add.PTCONT.1717798",
      "street": "QTA STO ANTÓNIO DO PAÇO",
      "house": "",
      "postcode": "8365-080",
      "city": "ALGOZ",
      "lon": "-8.278281704479804",
      "lat": "37.15412304493247"
    },
    {
      "id": "pt.ine.add.PTCONT.1717799",
      "street": "QTA STO ANTÓNIO DO PAÇO",
      "house": "",
      "postcode": "8365-080",
      "city": "ALGOZ",
      "lon": "-8.278281704479804",
      "lat": "37.15412304493247"
    },
    {
      "id": "pt.ine.add.PTCONT.1728473",
      "street": "",
      "house": "",
      "postcode": "8365-083",
      "city": "ALGOZ",
      "lon": "-8.284802866420451",
      "lat": "37.15573678215178"
    },
    {
      "id": "pt.ine.add.PTCONT.1765120",
      "street": "QTA AVOS",
      "house": "",
      "postcode": "8365-083",
      "city": "ALGOZ",
      "lon": "-8.285591032193237",
      "lat": "37.15580785536072"
    },
    {
      "id": "pt.ine.add.PTCONT.1776711",
      "street": "",
      "house": "",
      "postcode": "8365-083",
      "city": "ALGOZ",
      "lon": "-8.282077539576509",
      "lat": "37.15521762546111"
    },
    {
      "id": "pt.ine.add.PTCONT.1779944",
      "street": "",
      "house": "",
      "postcode": "8365-083",
      "city": "ALGOZ",
      "lon": "-8.282956236615355",
      "lat": "37.15553188801032"
    },
    {
      "id": "pt.ine.add.PTCONT.1779945",
      "street": "",
      "house": "",
      "postcode": "8365-083",
      "city": "ALGOZ",
      "lon": "-8.282956236615355",
      "lat": "37.15553188801032"
    },
    {
      "id": "pt.ine.add.PTCONT.1779946",
      "street": "",
      "house": "",
      "postcode": "8365-083",
      "city": "ALGOZ",
      "lon": "-8.282956236615355",
      "lat": "37.15553188801032"
    },
    {
      "id": "pt.ine.add.PTCONT.1779947",
      "street": "",
      "house": "",
      "postcode": "8365-083",
      "city": "ALGOZ",
      "lon": "-8.282956236615355",
      "lat": "37.15553188801032"
    },
    {
      "id": "pt.ine.add.PTCONT.1779948",
      "street": "",
      "house": "",
      "postcode": "8365-083",
      "city": "ALGOZ",
      "lon": "-8.282956236615355",
      "lat": "37.15553188801032"
    },
    {
      "id": "pt.ine.add.PTCONT.1779949",
      "street": "",
      "house": "",
      "postcode": "8365-083",
      "city": "ALGOZ",
      "lon": "-8.282956236615355",
      "lat": "37.15553188801032"
    },
    {
      "id": "pt.ine.add.PTCONT.1779950",
      "street": "",
      "house": "",
      "postcode": "8365-083",
      "city": "ALGOZ",
      "lon": "-8.282956236615355",
      "lat": "37.15553188801032"
    },
    {
      "id": "pt.ine.add.PTCONT.1779951",
      "street": "",
      "house": "",
      "postcode": "8365-083",
      "city": "ALGOZ",
      "lon": "-8.282956236615355",
      "lat": "37.15553188801032"
    },
    {
      "id": "pt.ine.add.PTCONT.1780507",
      "street": "",
      "house": "",
      "postcode": "8365-083",
      "city": "ALGOZ",
      "lon": "-8.282956236615355",
      "lat": "37.15553188801032"
    },
    {
      "id": "pt.ine.add.PTCONT.1803355",
      "street": "ESTR OC PAGO",
      "house": "",
      "postcode": "8365-083",
      "city": "ALGOZ",
      "lon": "-8.276332762881038",
      "lat": "37.153359516653786"
    },
    {
      "id": "pt.ine.add.PTCONT.1817425",
      "street": "",
      "house": "",
      "postcode": "8365-083",
      "city": "ALGOZ",
      "lon": "-8.284239779027635",
      "lat": "37.15562937458489"
    },
    {
      "id": "pt.ine.add.PTCONT.1820238",
      "street": "ESTR PAGO",
      "house": "",
      "postcode": "8365-083",
      "city": "ALGOZ",
      "lon": "-8.276884718807063",
      "lat": "37.15354807060074"
    },
    {
      "id": "pt.ine.add.PTCONT.1843532",
      "street": "",
      "house": "",
      "postcode": "8365-083",
      "city": "ALGOZ",
      "lon": "-8.282956236615355",
      "lat": "37.15553188801032"
    }
  ]
}