{
  "data": {
    "distrito": "Viana do Castelo",
    "concelho": "Valença",
    "freguesia": "União das freguesias de Gandra e Taião",
    "OBJECTID": 374,
    "BGRI2021": "16081700102",
    "DT21": "16",
    "DTMN21": "1608",
    "DTMNFR21": "160817",
    "DTMNFRSEC21": "160817001",
    "SECNUM21": "001",
    "SSNUM21": "02",
    "SECSSNUM21": "00102",
    "OBJECTID_1": 177365,
    "DT": "16",
    "CC": "08",
    "fr": "17",
    "SEC": "001",
    "SS": "02"
  },
  "addresses": [
    {
      "id": "pt.ine.add.PTCONT.5169558",
      "street": "LUGAR BAIXO",
      "house": "86",
      "postcode": "4930-551",
      "city": "TAIÃO",
      "lon": "-8.587410548009185",
      "lat": "41.98697752270673"
    },
    {
      "id": "pt.ine.add.PTCONT.5183716",
      "street": "CAM ARREGADAS",
      "house": "557",
      "postcode": "4930-556",
      "city": "TAIÃO",
      "lon": "-8.585894054135041",
      "lat": "41.98754170346259"
    },
    {
      "id": "pt.ine.add.PTCONT.5192301",
      "street": "BC ARROIOS",
      "house": "",
      "postcode": "4930-551",
      "city": "TAIÃO",
      "lon": "-8.586096962079559",
      "lat": "41.98722579605711"
    },
    {
      "id": "pt.ine.add.PTCONT.5200571",
      "street": "CAM OUTEIRO",
      "house": "",
      "postcode": "4930-556",
      "city": "TAIÃO",
      "lon": "-8.586652560043401",
      "lat": "41.98729562678916"
    },
    {
      "id": "pt.ine.add.PTCONT.5210598",
      "street": "BC ARROIOS",
      "house": "",
      "postcode": "4930-551",
      "city": "TAIÃO",
      "lon": "-8.586265199213882",
      "lat": "41.98712609847176"
    },
    {
      "id": "pt.ine.add.PTCONT.5239344",
      "street": "BC ARROIOS",
      "house": "",
      "postcode": "4930-551",
      "city": "TAIÃO",
      "lon": "-8.586519693997301",
      "lat": "41.98727814552867"
    },
    {
      "id": "pt.ine.add.PTCONT.5242701",
      "street": "CAM OUTEIRO",
      "house": "61",
      "postcode": "4930-556",
      "city": "TAIÃO",
      "lon": "-8.587315163472475",
      "lat": "41.98713995513412"
    },
    {
      "id": "pt.ine.add.PTCONT.5243836",
      "street": "CAM ARREGADAS",
      "house": "",
      "postcode": "4930-556",
      "city": "TAIÃO",
      "lon": "-8.58600208431269",
      "lat": "41.98746024982844"
    },
    {
      "id": "pt.ine.add.PTCONT.5265163",
      "street": "CAM ARREGADAS",
      "house": "",
      "postcode": "4930-556",
      "city": "TAIÃO",
      "lon": "-8.586194903331824",
      "lat": "41.98742347675173"
    },
    {
      "id": "pt.ine.add.PTCONT.5266465",
      "street": "CAM ARREGADAS",
      "house": "519",
      "postcode": "4930-556",
      "city": "TAIÃO",
      "lon": "-8.585977120524912",
      "lat": "41.98734330859851"
    }
  ]
}