{
  "data": {
    "distrito": "Évora",
    "concelho": "Reguengos de Monsaraz",
    "freguesia": "Reguengos de Monsaraz",
    "OBJECTID": 58,
    "BGRI2021": "07110400642",
    "DT21": "07",
    "DTMN21": "0711",
    "DTMNFR21": "071104",
    "DTMNFRSEC21": "071104006",
    "SECNUM21": "006",
    "SSNUM21": "42",
    "SECSSNUM21": "00642",
    "OBJECTID_1": 63342,
    "DT": "07",
    "CC": "11",
    "fr": "04",
    "SEC": "006",
    "SS": "42"
  },
  "addresses": [
    {
      "id": "pt.ine.add.PTCONT.1372315",
      "street": "HORTA DE S JOÃO",
      "house": "",
      "postcode": "7200-401",
      "city": "REGUENGOS DE MONSARAZ",
      "lon": "-7.5239982865249155",
      "lat": "38.429957636309815"
    },
    {
      "id": "pt.ine.add.PTCONT.1379562",
      "street": "R MESTRE PASSINHAS",
      "house": "",
      "postcode": "7200-410",
      "city": "REGUENGOS DE MONSARAZ",
      "lon": "-7.526626036349275",
      "lat": "38.4279713744808"
    },
    {
      "id": "pt.ine.add.PTCONT.1379563",
      "street": "R MESTRE PASSINHAS",
      "house": "",
      "postcode": "7200-410",
      "city": "REGUENGOS DE MONSARAZ",
      "lon": "-7.526626036349275",
      "lat": "38.4279713744808"
    },
    {
      "id": "pt.ine.add.PTCONT.1381045",
      "street": "R MESTRE PASSINHAS",
      "house": "113",
      "postcode": "7200-410",
      "city": "REGUENGOS DE MONSARAZ",
      "lon": "-7.52629228315962",
      "lat": "38.428167834138996"
    },
    {
      "id": "pt.ine.add.PTCONT.1381128",
      "street": "R MESTRE PASSINHAS",
      "house": "113",
      "postcode": "7200-410",
      "city": "REGUENGOS DE MONSARAZ",
      "lon": "-7.52629228315962",
      "lat": "38.428167834138996"
    },
    {
      "id": "pt.ine.add.PTCONT.1411349",
      "street": "R JOSE MARIA CARVALHO",
      "house": "",
      "postcode": "7200-410",
      "city": "REGUENGOS DE MONSARAZ",
      "lon": "-7.526078700009961",
      "lat": "38.42768927637904"
    },
    {
      "id": "pt.ine.add.PTCONT.1421897",
      "street": "ESTR S PEDRO",
      "house": "",
      "postcode": "7200-351",
      "city": "REGUENGOS DE MONSARAZ",
      "lon": "-7.525770940771206",
      "lat": "38.42844779815249"
    },
    {
      "id": "pt.ine.add.PTCONT.1426098",
      "street": "R JOSE MARIA CARVALHO",
      "house": "",
      "postcode": "7200-410",
      "city": "REGUENGOS DE MONSARAZ",
      "lon": "-7.526384765134194",
      "lat": "38.42773933897055"
    },
    {
      "id": "pt.ine.add.PTCONT.1431366",
      "street": "R HORTA DA SANTINHA MONTE DA CARTAXA",
      "house": "8",
      "postcode": "7200-410",
      "city": "REGUENGOS DE MONSARAZ",
      "lon": "-7.524230561785629",
      "lat": "38.425481609044056"
    },
    {
      "id": "pt.ine.add.PTCONT.1436108",
      "street": "R MONREAL JUNQUEIRA",
      "house": "",
      "postcode": "7200-410",
      "city": "REGUENGOS DE MONSARAZ",
      "lon": "-7.524013420820935",
      "lat": "38.42537915006022"
    },
    {
      "id": "pt.ine.add.PTCONT.1438993",
      "street": "R HORTA DA SANTINHA MONTE DA CARTAXA",
      "house": "10",
      "postcode": "7200-410",
      "city": "REGUENGOS DE MONSARAZ",
      "lon": "-7.524343938953765",
      "lat": "38.42561732591714"
    },
    {
      "id": "pt.ine.add.PTCONT.1442609",
      "street": "R JOSE MARIA CARVALHO",
      "house": "",
      "postcode": "7200-410",
      "city": "REGUENGOS DE MONSARAZ",
      "lon": "-7.526593113295438",
      "lat": "38.427800042195585"
    },
    {
      "id": "pt.ine.add.PTCONT.1447409",
      "street": "R HORTA DA SANTINHA",
      "house": "12",
      "postcode": "7200-410",
      "city": "REGUENGOS DE MONSARAZ",
      "lon": "-7.525111818305096",
      "lat": "38.42690953108067"
    }
  ]
}