{
  "data": {
    "distrito": "Faro",
    "concelho": "Olhão",
    "freguesia": "Olhão",
    "OBJECTID": 68,
    "BGRI2021": "08100300303",
    "DT21": "08",
    "DTMN21": "0810",
    "DTMNFR21": "081003",
    "DTMNFRSEC21": "081003003",
    "SECNUM21": "003",
    "SSNUM21": "03",
    "SECSSNUM21": "00303",
    "OBJECTID_1": 70614,
    "DT": "08",
    "CC": "10",
    "fr": "03",
    "SEC": "003",
    "SS": "03"
  },
  "addresses": [
    {
      "id": "pt.ine.add.PTCONT.1522437",
      "street": "AV REPÚBLICA",
      "house": "7",
      "postcode": "8700-308",
      "city": "OLHÃO",
      "lon": "-7.840391745010129",
      "lat": "37.027025530117406"
    },
    {
      "id": "pt.ine.add.PTCONT.1522438",
      "street": "AV REPÚBLICA",
      "house": "7",
      "postcode": "8700-308",
      "city": "OLHÃO",
      "lon": "-7.840391745010129",
      "lat": "37.027025530117406"
    },
    {
      "id": "pt.ine.add.PTCONT.1522439",
      "street": "AV REPÚBLICA",
      "house": "7",
      "postcode": "8700-308",
      "city": "OLHÃO",
      "lon": "-7.840391745010129",
      "lat": "37.027025530117406"
    },
    {
      "id": "pt.ine.add.PTCONT.1522440",
      "street": "AV REPÚBLICA",
      "house": "7",
      "postcode": "8700-308",
      "city": "OLHÃO",
      "lon": "-7.840391745010129",
      "lat": "37.027025530117406"
    },
    {
      "id": "pt.ine.add.PTCONT.1522441",
      "street": "AV REPÚBLICA",
      "house": "7",
      "postcode": "8700-308",
      "city": "OLHÃO",
      "lon": "-7.840391745010129",
      "lat": "37.027025530117406"
    },
    {
      "id": "pt.ine.add.PTCONT.1522442",
      "street": "AV REPÚBLICA",
      "house": "7",
      "postcode": "8700-308",
      "city": "OLHÃO",
      "lon": "-7.840391745010129",
      "lat": "37.027025530117406"
    },
    {
      "id": "pt.ine.add.PTCONT.1522443",
      "street": "AV REPÚBLICA",
      "house": "7",
      "postcode": "8700-308",
      "city": "OLHÃO",
      "lon": "-7.840391745010129",
      "lat": "37.027025530117406"
    },
    {
      "id": "pt.ine.add.PTCONT.1522444",
      "street": "AV REPÚBLICA",
      "house": "7",
      "postcode": "8700-308",
      "city": "OLHÃO",
      "lon": "-7.840391745010129",
      "lat": "37.027025530117406"
    },
    {
      "id": "pt.ine.add.PTCONT.1522445",
      "street": "AV REPÚBLICA",
      "house": "7",
      "postcode": "8700-308",
      "city": "OLHÃO",
      "lon": "-7.840391745010129",
      "lat": "37.027025530117406"
    },
    {
      "id": "pt.ine.add.PTCONT.1522446",
      "street": "AV REPÚBLICA",
      "house": "7",
      "postcode": "8700-308",
      "city": "OLHÃO",
      "lon": "-7.840391745010129",
      "lat": "37.027025530117406"
    },
    {
      "id": "pt.ine.add.PTCONT.1524109",
      "street": "AV REPÚBLICA",
      "house": "7",
      "postcode": "8700-308",
      "city": "OLHÃO",
      "lon": "-7.840391745010129",
      "lat": "37.027025530117406"
    },
    {
      "id": "pt.ine.add.PTCONT.1525965",
      "street": "TV 18 DE JUNHO",
      "house": "",
      "postcode": "8700-537",
      "city": "OLHÃO",
      "lon": "-7.841167671440853",
      "lat": "37.026901291062885"
    },
    {
      "id": "pt.ine.add.PTCONT.1552089",
      "street": "TV 18 DE JUNHO",
      "house": "",
      "postcode": "8700-537",
      "city": "OLHÃO",
      "lon": "-7.841269126346655",
      "lat": "37.02682044386004"
    },
    {
      "id": "pt.ine.add.PTCONT.1559740",
      "street": "TV 18 DE JUNHO",
      "house": "",
      "postcode": "8700-537",
      "city": "OLHÃO",
      "lon": "-7.841021228588573",
      "lat": "37.02699103820271"
    },
    {
      "id": "pt.ine.add.PTCONT.1559741",
      "street": "TV 18 DE JUNHO",
      "house": "",
      "postcode": "8700-537",
      "city": "OLHÃO",
      "lon": "-7.84111141098156",
      "lat": "37.02691917414023"
    },
    {
      "id": "pt.ine.add.PTCONT.1584306",
      "street": "TV 18 DE JUNHO",
      "house": "",
      "postcode": "8700-537",
      "city": "OLHÃO",
      "lon": "-7.841066319806305",
      "lat": "37.02695510618023"
    },
    {
      "id": "pt.ine.add.PTCONT.1592915",
      "street": "R CORDOEIROS",
      "house": "",
      "postcode": "8700-441",
      "city": "OLHÃO",
      "lon": "-7.8411799786726855",
      "lat": "37.02662198806511"
    },
    {
      "id": "pt.ine.add.PTCONT.1595617",
      "street": "TV 18 DE JUNHO",
      "house": "7",
      "postcode": "8700-537",
      "city": "OLHÃO",
      "lon": "-7.840525395189157",
      "lat": "37.02734123596981"
    },
    {
      "id": "pt.ine.add.PTCONT.1595620",
      "street": "TV 18 DE JUNHO",
      "house": "7",
      "postcode": "8700-537",
      "city": "OLHÃO",
      "lon": "-7.840525395189157",
      "lat": "37.02734123596981"
    },
    {
      "id": "pt.ine.add.PTCONT.1595621",
      "street": "TV 18 DE JUNHO",
      "house": "7",
      "postcode": "8700-537",
      "city": "OLHÃO",
      "lon": "-7.840525395189157",
      "lat": "37.02734123596981"
    },
    {
      "id": "pt.ine.add.PTCONT.1595622",
      "street": "TV 18 DE JUNHO",
      "house": "7",
      "postcode": "8700-537",
      "city": "OLHÃO",
      "lon": "-7.840525395189157",
      "lat": "37.02734123596981"
    },
    {
      "id": "pt.ine.add.PTCONT.1595623",
      "street": "TV 18 DE JUNHO",
      "house": "7",
      "postcode": "8700-537",
      "city": "OLHÃO",
      "lon": "-7.840525395189157",
      "lat": "37.02734123596981"
    },
    {
      "id": "pt.ine.add.PTCONT.1595624",
      "street": "TV 18 DE JUNHO",
      "house": "7",
      "postcode": "8700-537",
      "city": "OLHÃO",
      "lon": "-7.840525395189157",
      "lat": "37.02734123596981"
    },
    {
      "id": "pt.ine.add.PTCONT.1596836",
      "street": "TV 18 DE JUNHO",
      "house": "7",
      "postcode": "8700-537",
      "city": "OLHÃO",
      "lon": "-7.840525395189157",
      "lat": "37.02734123596981"
    },
    {
      "id": "pt.ine.add.PTCONT.1596837",
      "street": "TV 18 DE JUNHO",
      "house": "7",
      "postcode": "8700-537",
      "city": "OLHÃO",
      "lon": "-7.840525395189157",
      "lat": "37.02734123596981"
    },
    {
      "id": "pt.ine.add.PTCONT.1597420",
      "street": "TV 18 DE JUNHO",
      "house": "7",
      "postcode": "8700-537",
      "city": "OLHÃO",
      "lon": "-7.840525395189157",
      "lat": "37.02734123596981"
    },
    {
      "id": "pt.ine.add.PTCONT.1609967",
      "street": "AV REPÚBLICA",
      "house": "5",
      "postcode": "8700-308",
      "city": "OLHÃO",
      "lon": "-7.840572283655983",
      "lat": "37.02683674955871"
    },
    {
      "id": "pt.ine.add.PTCONT.1609968",
      "street": "AV REPÚBLICA",
      "house": "5",
      "postcode": "8700-308",
      "city": "OLHÃO",
      "lon": "-7.840572283655983",
      "lat": "37.02683674955871"
    },
    {
      "id": "pt.ine.add.PTCONT.1609969",
      "street": "AV REPÚBLICA",
      "house": "5",
      "postcode": "8700-308",
      "city": "OLHÃO",
      "lon": "-7.840572283655983",
      "lat": "37.02683674955871"
    },
    {
      "id": "pt.ine.add.PTCONT.1609970",
      "street": "AV REPÚBLICA",
      "house": "5",
      "postcode": "8700-308",
      "city": "OLHÃO",
      "lon": "-7.840572283655983",
      "lat": "37.02683674955871"
    },
    {
      "id": "pt.ine.add.PTCONT.1609971",
      "street": "AV REPÚBLICA",
      "house": "5",
      "postcode": "8700-308",
      "city": "OLHÃO",
      "lon": "-7.840572283655983",
      "lat": "37.02683674955871"
    },
    {
      "id": "pt.ine.add.PTCONT.1611106",
      "street": "AV REPÚBLICA",
      "house": "5",
      "postcode": "8700-308",
      "city": "OLHÃO",
      "lon": "-7.840572283655983",
      "lat": "37.02683674955871"
    },
    {
      "id": "pt.ine.add.PTCONT.1611124",
      "street": "AV REPÚBLICA",
      "house": "5",
      "postcode": "8700-308",
      "city": "OLHÃO",
      "lon": "-7.840572283655983",
      "lat": "37.02683674955871"
    },
    {
      "id": "pt.ine.add.PTCONT.1611173",
      "street": "AV REPÚBLICA",
      "house": "5",
      "postcode": "8700-308",
      "city": "OLHÃO",
      "lon": "-7.840572283655983",
      "lat": "37.02683674955871"
    },
    {
      "id": "pt.ine.add.PTCONT.1630659",
      "street": "R CORDOEIROS",
      "house": "",
      "postcode": "8700-441",
      "city": "OLHÃO",
      "lon": "-7.841291844194885",
      "lat": "37.02675742447269"
    },
    {
      "id": "pt.ine.add.PTCONT.1705025",
      "street": "PC RESTAURACAO CASA SHANT",
      "house": "CASA SHANT",
      "postcode": "8700-350",
      "city": "OLHÃO",
      "lon": "-7.840640335190159",
      "lat": "37.02667472378655"
    },
    {
      "id": "pt.ine.add.PTCONT.1707943",
      "street": "PC RESTAURACAO",
      "house": "",
      "postcode": "8700-350",
      "city": "OLHÃO",
      "lon": "-7.840865859843326",
      "lat": "37.026477042880416"
    },
    {
      "id": "pt.ine.add.PTCONT.1707944",
      "street": "PC RESTAURACAO",
      "house": "",
      "postcode": "8700-350",
      "city": "OLHÃO",
      "lon": "-7.840865859843326",
      "lat": "37.026477042880416"
    },
    {
      "id": "pt.ine.add.PTCONT.1707945",
      "street": "PC RESTAURACAO",
      "house": "",
      "postcode": "8700-350",
      "city": "OLHÃO",
      "lon": "-7.840865859843326",
      "lat": "37.026477042880416"
    },
    {
      "id": "pt.ine.add.PTCONT.1707946",
      "street": "PC RESTAURACAO",
      "house": "",
      "postcode": "8700-350",
      "city": "OLHÃO",
      "lon": "-7.840865859843326",
      "lat": "37.026477042880416"
    },
    {
      "id": "pt.ine.add.PTCONT.1707947",
      "street": "PC RESTAURACAO",
      "house": "",
      "postcode": "8700-350",
      "city": "OLHÃO",
      "lon": "-7.840865859843326",
      "lat": "37.026477042880416"
    },
    {
      "id": "pt.ine.add.PTCONT.1707948",
      "street": "PC RESTAURACAO",
      "house": "",
      "postcode": "8700-350",
      "city": "OLHÃO",
      "lon": "-7.840865859843326",
      "lat": "37.026477042880416"
    },
    {
      "id": "pt.ine.add.PTCONT.1761028",
      "street": "AV REPUBLICA",
      "house": "",
      "postcode": "8700-308",
      "city": "OLHÃO",
      "lon": "-7.840267431764913",
      "lat": "37.027205438408345"
    },
    {
      "id": "pt.ine.add.PTCONT.1761029",
      "street": "AV REPUBLICA",
      "house": "",
      "postcode": "8700-308",
      "city": "OLHÃO",
      "lon": "-7.840267431764913",
      "lat": "37.027205438408345"
    },
    {
      "id": "pt.ine.add.PTCONT.1761030",
      "street": "AV REPUBLICA",
      "house": "",
      "postcode": "8700-308",
      "city": "OLHÃO",
      "lon": "-7.840267431764913",
      "lat": "37.027205438408345"
    },
    {
      "id": "pt.ine.add.PTCONT.1761031",
      "street": "AV REPUBLICA",
      "house": "",
      "postcode": "8700-308",
      "city": "OLHÃO",
      "lon": "-7.840267431764913",
      "lat": "37.027205438408345"
    },
    {
      "id": "pt.ine.add.PTCONT.1761032",
      "street": "AV REPUBLICA",
      "house": "",
      "postcode": "8700-308",
      "city": "OLHÃO",
      "lon": "-7.840267431764913",
      "lat": "37.027205438408345"
    },
    {
      "id": "pt.ine.add.PTCONT.1761033",
      "street": "AV REPUBLICA",
      "house": "",
      "postcode": "8700-308",
      "city": "OLHÃO",
      "lon": "-7.840267431764913",
      "lat": "37.027205438408345"
    },
    {
      "id": "pt.ine.add.PTCONT.1761034",
      "street": "AV REPUBLICA",
      "house": "",
      "postcode": "8700-308",
      "city": "OLHÃO",
      "lon": "-7.840267431764913",
      "lat": "37.027205438408345"
    },
    {
      "id": "pt.ine.add.PTCONT.1761035",
      "street": "AV REPUBLICA",
      "house": "",
      "postcode": "8700-308",
      "city": "OLHÃO",
      "lon": "-7.840267431764913",
      "lat": "37.027205438408345"
    },
    {
      "id": "pt.ine.add.PTCONT.1761036",
      "street": "AV REPUBLICA",
      "house": "",
      "postcode": "8700-308",
      "city": "OLHÃO",
      "lon": "-7.840267431764913",
      "lat": "37.027205438408345"
    },
    {
      "id": "pt.ine.add.PTCONT.1761048",
      "street": "AV REPUBLICA",
      "house": "",
      "postcode": "8700-308",
      "city": "OLHÃO",
      "lon": "-7.840267431764913",
      "lat": "37.027205438408345"
    },
    {
      "id": "pt.ine.add.PTCONT.1761049",
      "street": "AV REPUBLICA",
      "house": "",
      "postcode": "8700-308",
      "city": "OLHÃO",
      "lon": "-7.840267431764913",
      "lat": "37.027205438408345"
    },
    {
      "id": "pt.ine.add.PTCONT.1761050",
      "street": "AV REPUBLICA",
      "house": "",
      "postcode": "8700-308",
      "city": "OLHÃO",
      "lon": "-7.840267431764913",
      "lat": "37.027205438408345"
    },
    {
      "id": "pt.ine.add.PTCONT.1761051",
      "street": "AV REPUBLICA",
      "house": "",
      "postcode": "8700-308",
      "city": "OLHÃO",
      "lon": "-7.840267431764913",
      "lat": "37.027205438408345"
    },
    {
      "id": "pt.ine.add.PTCONT.1761052",
      "street": "AV REPUBLICA",
      "house": "9",
      "postcode": "8700-308",
      "city": "OLHÃO",
      "lon": "-7.840267431764913",
      "lat": "37.027205438408345"
    },
    {
      "id": "pt.ine.add.PTCONT.1761053",
      "street": "AV REPUBLICA",
      "house": "",
      "postcode": "8700-308",
      "city": "OLHÃO",
      "lon": "-7.840267431764913",
      "lat": "37.027205438408345"
    },
    {
      "id": "pt.ine.add.PTCONT.1762071",
      "street": "AV REPUBLICA",
      "house": "",
      "postcode": "8700-308",
      "city": "OLHÃO",
      "lon": "-7.840267431764913",
      "lat": "37.027205438408345"
    },
    {
      "id": "pt.ine.add.PTCONT.1762076",
      "street": "AV REPUBLICA",
      "house": "",
      "postcode": "8700-308",
      "city": "OLHÃO",
      "lon": "-7.840267431764913",
      "lat": "37.027205438408345"
    },
    {
      "id": "pt.ine.add.PTCONT.1762264",
      "street": "AV REPUBLICA",
      "house": "",
      "postcode": "8700-308",
      "city": "OLHÃO",
      "lon": "-7.840267431764913",
      "lat": "37.027205438408345"
    },
    {
      "id": "pt.ine.add.PTCONT.1762265",
      "street": "AV REPUBLICA",
      "house": "",
      "postcode": "8700-308",
      "city": "OLHÃO",
      "lon": "-7.840267431764913",
      "lat": "37.027205438408345"
    },
    {
      "id": "pt.ine.add.PTCONT.1762266",
      "street": "AV REPUBLICA",
      "house": "",
      "postcode": "8700-308",
      "city": "OLHÃO",
      "lon": "-7.840267431764913",
      "lat": "37.027205438408345"
    },
    {
      "id": "pt.ine.add.PTCONT.1762267",
      "street": "AV REPUBLICA",
      "house": "",
      "postcode": "8700-308",
      "city": "OLHÃO",
      "lon": "-7.840267431764913",
      "lat": "37.027205438408345"
    },
    {
      "id": "pt.ine.add.PTCONT.1770402",
      "street": "TV 18 DE JUNHO",
      "house": "",
      "postcode": "8700-537",
      "city": "OLHÃO",
      "lon": "-7.84081842115791",
      "lat": "37.02712570009148"
    },
    {
      "id": "pt.ine.add.PTCONT.1770403",
      "street": "TV 18 DE JUNHO",
      "house": "",
      "postcode": "8700-537",
      "city": "OLHÃO",
      "lon": "-7.84081842115791",
      "lat": "37.02712570009148"
    },
    {
      "id": "pt.ine.add.PTCONT.1770404",
      "street": "TV 18 DE JUNHO",
      "house": "",
      "postcode": "8700-537",
      "city": "OLHÃO",
      "lon": "-7.84081842115791",
      "lat": "37.02712570009148"
    },
    {
      "id": "pt.ine.add.PTCONT.1770405",
      "street": "TV 18 DE JUNHO",
      "house": "",
      "postcode": "8700-537",
      "city": "OLHÃO",
      "lon": "-7.84081842115791",
      "lat": "37.02712570009148"
    },
    {
      "id": "pt.ine.add.PTCONT.1770406",
      "street": "TV 18 DE JUNHO",
      "house": "",
      "postcode": "8700-537",
      "city": "OLHÃO",
      "lon": "-7.84081842115791",
      "lat": "37.02712570009148"
    },
    {
      "id": "pt.ine.add.PTCONT.1770407",
      "street": "TV 18 DE JUNHO",
      "house": "",
      "postcode": "8700-537",
      "city": "OLHÃO",
      "lon": "-7.84081842115791",
      "lat": "37.02712570009148"
    },
    {
      "id": "pt.ine.add.PTCONT.1790925",
      "street": "PC RESTAURACAO B",
      "house": "B",
      "postcode": "8700-350",
      "city": "OLHÃO",
      "lon": "-7.84078684693353",
      "lat": "37.02656695577939"
    },
    {
      "id": "pt.ine.add.PTCONT.1790926",
      "street": "PC RESTAURACAO",
      "house": "",
      "postcode": "8700-350",
      "city": "OLHÃO",
      "lon": "-7.84078684693353",
      "lat": "37.02656695577939"
    },
    {
      "id": "pt.ine.add.PTCONT.1790927",
      "street": "PC RESTAURACAO",
      "house": "",
      "postcode": "8700-350",
      "city": "OLHÃO",
      "lon": "-7.84078684693353",
      "lat": "37.02656695577939"
    },
    {
      "id": "pt.ine.add.PTCONT.1790928",
      "street": "PC RESTAURACAO B",
      "house": "B",
      "postcode": "8700-350",
      "city": "OLHÃO",
      "lon": "-7.84078684693353",
      "lat": "37.02656695577939"
    },
    {
      "id": "pt.ine.add.PTCONT.1790929",
      "street": "PC RESTAURACAO B",
      "house": "B",
      "postcode": "8700-350",
      "city": "OLHÃO",
      "lon": "-7.84078684693353",
      "lat": "37.02656695577939"
    },
    {
      "id": "pt.ine.add.PTCONT.1791902",
      "street": "PC RESTAURACAO B",
      "house": "B",
      "postcode": "8700-350",
      "city": "OLHÃO",
      "lon": "-7.84078684693353",
      "lat": "37.02656695577939"
    },
    {
      "id": "pt.ine.add.PTCONT.1808698",
      "street": "R CORDOEIROS",
      "house": "",
      "postcode": "8700-441",
      "city": "OLHÃO",
      "lon": "-7.841224690357653",
      "lat": "37.026685173307115"
    },
    {
      "id": "pt.ine.add.PTCONT.1837339",
      "street": "R LUIS DE CAMÕES",
      "house": "",
      "postcode": "8700-492",
      "city": "OLHÃO",
      "lon": "-7.841045982049317",
      "lat": "37.02639638957033"
    },
    {
      "id": "pt.ine.add.PTCONT.1837340",
      "street": "R LUIS DE CAMÕES",
      "house": "",
      "postcode": "8700-492",
      "city": "OLHÃO",
      "lon": "-7.841045982049317",
      "lat": "37.02639638957033"
    },
    {
      "id": "pt.ine.add.PTCONT.1837341",
      "street": "R LUIS DE CAMÕES",
      "house": "",
      "postcode": "8700-492",
      "city": "OLHÃO",
      "lon": "-7.841045982049317",
      "lat": "37.02639638957033"
    },
    {
      "id": "pt.ine.add.PTCONT.1837342",
      "street": "R LUIS DE CAMÕES",
      "house": "",
      "postcode": "8700-492",
      "city": "OLHÃO",
      "lon": "-7.841045982049317",
      "lat": "37.02639638957033"
    },
    {
      "id": "pt.ine.add.PTCONT.1837343",
      "street": "R LUIS DE CAMÕES",
      "house": "",
      "postcode": "8700-492",
      "city": "OLHÃO",
      "lon": "-7.841045982049317",
      "lat": "37.02639638957033"
    },
    {
      "id": "pt.ine.add.PTCONT.1837344",
      "street": "R LUIS DE CAMÕES",
      "house": "",
      "postcode": "8700-492",
      "city": "OLHÃO",
      "lon": "-7.841045982049317",
      "lat": "37.02639638957033"
    },
    {
      "id": "pt.ine.add.PTCONT.1837345",
      "street": "R LUIS DE CAMÕES",
      "house": "",
      "postcode": "8700-492",
      "city": "OLHÃO",
      "lon": "-7.841045982049317",
      "lat": "37.02639638957033"
    },
    {
      "id": "pt.ine.add.PTCONT.1837346",
      "street": "R LUIS DE CAMÕES",
      "house": "",
      "postcode": "8700-492",
      "city": "OLHÃO",
      "lon": "-7.841045982049317",
      "lat": "37.02639638957033"
    },
    {
      "id": "pt.ine.add.PTCONT.1837349",
      "street": "R LUIS DE CAMÕES",
      "house": "",
      "postcode": "8700-492",
      "city": "OLHÃO",
      "lon": "-7.841045982049317",
      "lat": "37.02639638957033"
    },
    {
      "id": "pt.ine.add.PTCONT.1837350",
      "street": "R LUIS DE CAMÕES",
      "house": "",
      "postcode": "8700-492",
      "city": "OLHÃO",
      "lon": "-7.841045982049317",
      "lat": "37.02639638957033"
    },
    {
      "id": "pt.ine.add.PTCONT.1837351",
      "street": "R LUIS DE CAMÕES",
      "house": "",
      "postcode": "8700-492",
      "city": "OLHÃO",
      "lon": "-7.841045982049317",
      "lat": "37.02639638957033"
    },
    {
      "id": "pt.ine.add.PTCONT.1837352",
      "street": "R LUIS DE CAMÕES",
      "house": "",
      "postcode": "8700-492",
      "city": "OLHÃO",
      "lon": "-7.841045982049317",
      "lat": "37.02639638957033"
    },
    {
      "id": "pt.ine.add.PTCONT.1843650",
      "street": "R LUIS DE CAMÕES",
      "house": "",
      "postcode": "8700-492",
      "city": "OLHÃO",
      "lon": "-7.841045982049317",
      "lat": "37.02639638957033"
    },
    {
      "id": "pt.ine.add.PTCONT.1847554",
      "street": "TV 18 DE JUNHO",
      "house": "",
      "postcode": "8700-537",
      "city": "OLHÃO",
      "lon": "-7.841212762536649",
      "lat": "37.02686535898369"
    },
    {
      "id": "pt.ine.add.PTCONT.1848122",
      "street": "AV REPÚBLICA",
      "house": "7",
      "postcode": "8700-308",
      "city": "OLHÃO",
      "lon": "-7.840391745010129",
      "lat": "37.027025530117406"
    },
    {
      "id": "pt.ine.add.PTCONT.1848196",
      "street": "TV 18 DE JUNHO",
      "house": "",
      "postcode": "8700-537",
      "city": "OLHÃO",
      "lon": "-7.841269126346655",
      "lat": "37.02682044386004"
    }
  ]
}