{
  "data": {
    "distrito": "Viana do Castelo",
    "concelho": "Ponte de Lima",
    "freguesia": "Fornelos e Queijada",
    "OBJECTID": 1684,
    "BGRI2021": "16075800223",
    "DT21": "16",
    "DTMN21": "1607",
    "DTMNFR21": "160758",
    "DTMNFRSEC21": "160758002",
    "SECNUM21": "002",
    "SSNUM21": "23",
    "SECSSNUM21": "00223",
    "OBJECTID_1": 175542,
    "DT": "16",
    "CC": "07",
    "fr": "58",
    "SEC": "002",
    "SS": "23"
  },
  "addresses": [
    {
      "id": "pt.ine.add.PTCONT.5137244",
      "street": "TV ORJE",
      "house": "136",
      "postcode": "4990-623",
      "city": "FORNELOS PTL",
      "lon": "-8.53300732216485",
      "lat": "41.72351921723349"
    },
    {
      "id": "pt.ine.add.PTCONT.5145365",
      "street": "R ORJE",
      "house": "90",
      "postcode": "4990-623",
      "city": "FORNELOS PTL",
      "lon": "-8.532358421027016",
      "lat": "41.723530477084644"
    },
    {
      "id": "pt.ine.add.PTCONT.5174912",
      "street": "R TRELAES",
      "house": "",
      "postcode": "4990-623",
      "city": "FORNELOS PTL",
      "lon": "-8.531302862515885",
      "lat": "41.72385826475375"
    },
    {
      "id": "pt.ine.add.PTCONT.5180745",
      "street": "TV CRASTO QTA DO CRASTO",
      "house": "338",
      "postcode": "4990-623",
      "city": "FORNELOS PTL",
      "lon": "-8.536669045474099",
      "lat": "41.724838929918675"
    },
    {
      "id": "pt.ine.add.PTCONT.5193503",
      "street": "R ORJE",
      "house": "",
      "postcode": "4990-623",
      "city": "FORNELOS PTL",
      "lon": "-8.535030573608138",
      "lat": "41.72226967881835"
    },
    {
      "id": "pt.ine.add.PTCONT.5207846",
      "street": "R CRASTO QTA DO CRASTO",
      "house": "338",
      "postcode": "4990-623",
      "city": "FORNELOS PTL",
      "lon": "-8.536768739390904",
      "lat": "41.72540579846416"
    },
    {
      "id": "pt.ine.add.PTCONT.5209640",
      "street": "R CRASTO",
      "house": "39",
      "postcode": "4990-623",
      "city": "FORNELOS PTL",
      "lon": "-8.536045666839295",
      "lat": "41.723166471443086"
    },
    {
      "id": "pt.ine.add.PTCONT.5223540",
      "street": "R OUTEIRO",
      "house": "256",
      "postcode": "4990-623",
      "city": "FORNELOS PTL",
      "lon": "-8.535561252945847",
      "lat": "41.72257393964856"
    },
    {
      "id": "pt.ine.add.PTCONT.5223561",
      "street": "TV CRASTO",
      "house": "",
      "postcode": "4990-623",
      "city": "FORNELOS PTL",
      "lon": "-8.537749531951855",
      "lat": "41.72465506080013"
    },
    {
      "id": "pt.ine.add.PTCONT.5225951",
      "street": "R CRASTO",
      "house": "",
      "postcode": "4990-623",
      "city": "FORNELOS PTL",
      "lon": "-8.538588975155495",
      "lat": "41.72436399065991"
    },
    {
      "id": "pt.ine.add.PTCONT.5235882",
      "street": "R OUTEIRO",
      "house": "",
      "postcode": "4990-623",
      "city": "FORNELOS PTL",
      "lon": "-8.53622446846534",
      "lat": "41.72293175399202"
    },
    {
      "id": "pt.ine.add.PTCONT.5265761",
      "street": "R TRELAES",
      "house": "",
      "postcode": "4990-623",
      "city": "FORNELOS PTL",
      "lon": "-8.531736337478742",
      "lat": "41.72399181396014"
    }
  ]
}