{
  "data": {
    "distrito": "Coimbra",
    "concelho": "Oliveira do Hospital",
    "freguesia": "Lagares",
    "OBJECTID": 441,
    "BGRI2021": "06110600113",
    "DT21": "06",
    "DTMN21": "0611",
    "DTMNFR21": "061106",
    "DTMNFRSEC21": "061106001",
    "SECNUM21": "001",
    "SSNUM21": "13",
    "SECSSNUM21": "00113",
    "OBJECTID_1": 54859,
    "DT": "06",
    "CC": "11",
    "fr": "06",
    "SEC": "001",
    "SS": "13"
  },
  "addresses": [
    {
      "id": "pt.ine.add.PTCONT.1119731",
      "street": "AV DOS OLIVAIS",
      "house": "31",
      "postcode": "3405-163",
      "city": "LAGARES OHP",
      "lon": "-7.858519651270179",
      "lat": "40.39944752954589"
    },
    {
      "id": "pt.ine.add.PTCONT.1136463",
      "street": "LG DE S JOÃO",
      "house": "6",
      "postcode": "3405-166",
      "city": "LAGARES OHP",
      "lon": "-7.858335457205491",
      "lat": "40.40129323127189"
    },
    {
      "id": "pt.ine.add.PTCONT.1162584",
      "street": "AV DOS OLIVAIS",
      "house": "35",
      "postcode": "3405-163",
      "city": "LAGARES OHP",
      "lon": "-7.857859720866033",
      "lat": "40.39951800501583"
    },
    {
      "id": "pt.ine.add.PTCONT.1186975",
      "street": "R DA AZINHAGA",
      "house": "2",
      "postcode": "3405-166",
      "city": "LAGARES OHP",
      "lon": "-7.858479227118744",
      "lat": "40.40069920609411"
    },
    {
      "id": "pt.ine.add.PTCONT.1300494",
      "street": "R DR ANTÓNIO DIAS",
      "house": "4",
      "postcode": "3405-192",
      "city": "LAGARES OHP",
      "lon": "-7.859041792241695",
      "lat": "40.40140297424133"
    },
    {
      "id": "pt.ine.add.PTCONT.1349078",
      "street": "R DR ANTÓNIO DIAS",
      "house": "2",
      "postcode": "3405-192",
      "city": "LAGARES OHP",
      "lon": "-7.859218668336604",
      "lat": "40.40135836555446"
    },
    {
      "id": "pt.ine.add.PTCONT.1349566",
      "street": "R DR ANTÓNIO DIAS",
      "house": "2",
      "postcode": "3405-192",
      "city": "LAGARES OHP",
      "lon": "-7.859218668336604",
      "lat": "40.40135836555446"
    }
  ]
}