{
  "data": {
    "distrito": "Guarda",
    "concelho": "Mêda",
    "freguesia": "Prova e Casteição",
    "OBJECTID": 42,
    "BGRI2021": "09091800112",
    "DT21": "09",
    "DTMN21": "0909",
    "DTMNFR21": "090918",
    "DTMNFRSEC21": "090918001",
    "SECNUM21": "001",
    "SSNUM21": "12",
    "SECSSNUM21": "00112",
    "OBJECTID_1": 79739,
    "DT": "09",
    "CC": "09",
    "fr": "18",
    "SEC": "001",
    "SS": "12"
  },
  "addresses": [
    {
      "id": "pt.ine.add.PTCONT.1900847",
      "street": "R DA FONTE NOVA",
      "house": "",
      "postcode": "6430-041",
      "city": "CASTEIÇÃO",
      "lon": "-7.324414734127595",
      "lat": "40.8821113762086"
    },
    {
      "id": "pt.ine.add.PTCONT.1907620",
      "street": "R DA REPÚBLICA",
      "house": "",
      "postcode": "6430-041",
      "city": "CASTEIÇÃO",
      "lon": "-7.323766418897414",
      "lat": "40.881764650315915"
    },
    {
      "id": "pt.ine.add.PTCONT.1920694",
      "street": "R DA REPÚBLICA",
      "house": "",
      "postcode": "6430-041",
      "city": "CASTEIÇÃO",
      "lon": "-7.323517180493653",
      "lat": "40.881771905734425"
    },
    {
      "id": "pt.ine.add.PTCONT.1926595",
      "street": "R DA REPÚBLICA",
      "house": "",
      "postcode": "6430-041",
      "city": "CASTEIÇÃO",
      "lon": "-7.3234104110500615",
      "lat": "40.8817711562116"
    },
    {
      "id": "pt.ine.add.PTCONT.1935262",
      "street": "R DA REPÚBLICA",
      "house": "",
      "postcode": "6430-041",
      "city": "CASTEIÇÃO",
      "lon": "-7.323694032611951",
      "lat": "40.88186319392467"
    },
    {
      "id": "pt.ine.add.PTCONT.1949363",
      "street": "R DA FONTE NOVA",
      "house": "",
      "postcode": "6430-041",
      "city": "CASTEIÇÃO",
      "lon": "-7.324333225334772",
      "lat": "40.88198473899515"
    },
    {
      "id": "pt.ine.add.PTCONT.1964201",
      "street": "LG DO ROSSIO",
      "house": "",
      "postcode": "6430-041",
      "city": "CASTEIÇÃO",
      "lon": "-7.323907571813923",
      "lat": "40.88186469234911"
    },
    {
      "id": "pt.ine.add.PTCONT.1966017",
      "street": "R DA REPÚBLICA",
      "house": "",
      "postcode": "6430-041",
      "city": "CASTEIÇÃO",
      "lon": "-7.3238127751804285",
      "lat": "40.8818550225108"
    },
    {
      "id": "pt.ine.add.PTCONT.1859396",
      "street": "LG DO ROSSIO",
      "house": "",
      "postcode": "6430-041",
      "city": "CASTEIÇÃO",
      "lon": "-7.323861434741854",
      "lat": "40.88175631234928"
    },
    {
      "id": "pt.ine.add.PTCONT.1861523",
      "street": "R REPUBLICA",
      "house": "",
      "postcode": "6430-041",
      "city": "CASTEIÇÃO",
      "lon": "-7.322695759236955",
      "lat": "40.88200025874043"
    }
  ]
}