{
  "data": {
    "distrito": "Guarda",
    "concelho": "Mêda",
    "freguesia": "Prova e Casteição",
    "OBJECTID": 87,
    "BGRI2021": "09091800128",
    "DT21": "09",
    "DTMN21": "0909",
    "DTMNFR21": "090918",
    "DTMNFRSEC21": "090918001",
    "SECNUM21": "001",
    "SSNUM21": "28",
    "SECSSNUM21": "00128",
    "OBJECTID_1": 79679,
    "DT": "09",
    "CC": "09",
    "fr": "18",
    "SEC": "001",
    "SS": "28"
  },
  "addresses": [
    {
      "id": "pt.ine.add.PTCONT.1901648",
      "street": "R DA FORJA",
      "house": "",
      "postcode": "6430-341",
      "city": "PROVA",
      "lon": "-7.34221676044577",
      "lat": "40.91253554849944"
    },
    {
      "id": "pt.ine.add.PTCONT.1903196",
      "street": "R PADRE ANTÓNIO MARIA GAMBOA DE INFANÇÃO",
      "house": "",
      "postcode": "6430-341",
      "city": "PROVA",
      "lon": "-7.34248598907822",
      "lat": "40.9128525573831"
    },
    {
      "id": "pt.ine.add.PTCONT.1903197",
      "street": "LG DA DEVESA",
      "house": "",
      "postcode": "6430-341",
      "city": "PROVA",
      "lon": "-7.341883145245653",
      "lat": "40.91264131572646"
    },
    {
      "id": "pt.ine.add.PTCONT.1908176",
      "street": "R JOÃO DOS SANTOS DAMIÃO",
      "house": "",
      "postcode": "6430-341",
      "city": "PROVA",
      "lon": "-7.342099896621732",
      "lat": "40.912381667902075"
    },
    {
      "id": "pt.ine.add.PTCONT.1909491",
      "street": "R PADRE ANTÓNIO MARIA GAMBOA DE INFANÇÃO",
      "house": "",
      "postcode": "6430-341",
      "city": "PROVA",
      "lon": "-7.342675354967571",
      "lat": "40.91289887878389"
    },
    {
      "id": "pt.ine.add.PTCONT.1915755",
      "street": "R DA FORJA",
      "house": "",
      "postcode": "6430-341",
      "city": "PROVA",
      "lon": "-7.3420972136685245",
      "lat": "40.912606765725904"
    },
    {
      "id": "pt.ine.add.PTCONT.1933131",
      "street": "LG DO GORGULÃO",
      "house": "",
      "postcode": "6430-341",
      "city": "PROVA",
      "lon": "-7.343630736877814",
      "lat": "40.913409683778255"
    },
    {
      "id": "pt.ine.add.PTCONT.1939369",
      "street": "R PADRE ANTÓNIO MARIA GAMBOA DE INFANÇÃO",
      "house": "",
      "postcode": "6430-341",
      "city": "PROVA",
      "lon": "-7.342140825736885",
      "lat": "40.91293123222618"
    },
    {
      "id": "pt.ine.add.PTCONT.1939370",
      "street": "R PADRE ANTÓNIO MARIA GAMBOA DE INFANÇÃO",
      "house": "",
      "postcode": "6430-341",
      "city": "PROVA",
      "lon": "-7.342140825736885",
      "lat": "40.91293123222618"
    },
    {
      "id": "pt.ine.add.PTCONT.1941357",
      "street": "TV DA R DE NSA SRA DA PAZ",
      "house": "",
      "postcode": "6430-341",
      "city": "PROVA",
      "lon": "-7.343063491105349",
      "lat": "40.913198691998716"
    },
    {
      "id": "pt.ine.add.PTCONT.1941367",
      "street": "TV DA R JOÃO DOS SANTOS DAMIÃO",
      "house": "",
      "postcode": "6430-341",
      "city": "PROVA",
      "lon": "-7.342017566356295",
      "lat": "40.9123180705881"
    },
    {
      "id": "pt.ine.add.PTCONT.1943404",
      "street": "R DE S DOMINGOS",
      "house": "",
      "postcode": "6430-341",
      "city": "PROVA",
      "lon": "-7.341997969682404",
      "lat": "40.91296627086671"
    },
    {
      "id": "pt.ine.add.PTCONT.1948344",
      "street": "R DA FONTE DA TEJA",
      "house": "",
      "postcode": "6430-341",
      "city": "PROVA",
      "lon": "-7.341769180806387",
      "lat": "40.912244329163414"
    },
    {
      "id": "pt.ine.add.PTCONT.1949920",
      "street": "R PADRE ANTÓNIO MARIA GAMBOA DE INFANÇÃO",
      "house": "",
      "postcode": "6430-341",
      "city": "PROVA",
      "lon": "-7.342414668518904",
      "lat": "40.912861073028296"
    },
    {
      "id": "pt.ine.add.PTCONT.1956210",
      "street": "R DA FORJA",
      "house": "",
      "postcode": "6430-341",
      "city": "PROVA",
      "lon": "-7.342263484666844",
      "lat": "40.91259890148811"
    },
    {
      "id": "pt.ine.add.PTCONT.1958170",
      "street": "LG DA DEVESA",
      "house": "",
      "postcode": "6430-341",
      "city": "PROVA",
      "lon": "-7.341677938920401",
      "lat": "40.91292805630854"
    },
    {
      "id": "pt.ine.add.PTCONT.1970108",
      "street": "R JUIZ BARTOLOMEU AFONSO",
      "house": "",
      "postcode": "6430-341",
      "city": "PROVA",
      "lon": "-7.342901721560362",
      "lat": "40.91282839299362"
    },
    {
      "id": "pt.ine.add.PTCONT.1972744",
      "street": "R PADRE ANTÓNIO MARIA GAMBOA DE INFANÇÃO",
      "house": "",
      "postcode": "6430-341",
      "city": "PROVA",
      "lon": "-7.34236633472553",
      "lat": "40.91293277879509"
    },
    {
      "id": "pt.ine.add.PTCONT.1974031",
      "street": "R DO GORGULÃO",
      "house": "",
      "postcode": "6430-341",
      "city": "PROVA",
      "lon": "-7.34277863645968",
      "lat": "40.9131967400763"
    },
    {
      "id": "pt.ine.add.PTCONT.1854830",
      "street": "R DE S DOMINGOS",
      "house": "",
      "postcode": "6430-341",
      "city": "PROVA",
      "lon": "-7.341941201369927",
      "lat": "40.91274976983885"
    },
    {
      "id": "pt.ine.add.PTCONT.1870345",
      "street": "LG DO GORGULÃO",
      "house": "",
      "postcode": "6430-341",
      "city": "PROVA",
      "lon": "-7.343356357306126",
      "lat": "40.913524865419"
    },
    {
      "id": "pt.ine.add.PTCONT.1871388",
      "street": "TV DA R DA FORJA",
      "house": "",
      "postcode": "6430-341",
      "city": "PROVA",
      "lon": "-7.34231332036748",
      "lat": "40.91240114097052"
    },
    {
      "id": "pt.ine.add.PTCONT.1872349",
      "street": "LG DO GORGULÃO",
      "house": "",
      "postcode": "6430-341",
      "city": "PROVA",
      "lon": "-7.343181108809061",
      "lat": "40.91328954423339"
    },
    {
      "id": "pt.ine.add.PTCONT.1879059",
      "street": "R JOÃO DOS SANTOS DAMIÃO",
      "house": "",
      "postcode": "6430-341",
      "city": "PROVA",
      "lon": "-7.341719987828551",
      "lat": "40.91238806596383"
    },
    {
      "id": "pt.ine.add.PTCONT.1884002",
      "street": "R JUIZ BARTOLOMEU AFONSO",
      "house": "",
      "postcode": "6430-341",
      "city": "PROVA",
      "lon": "-7.343042433029479",
      "lat": "40.91297343151351"
    },
    {
      "id": "pt.ine.add.PTCONT.1884009",
      "street": "R PADRE ANTÓNIO MARIA GAMBOA DE INFANÇÃO",
      "house": "",
      "postcode": "6430-341",
      "city": "PROVA",
      "lon": "-7.34221311214125",
      "lat": "40.912841681538126"
    },
    {
      "id": "pt.ine.add.PTCONT.1886195",
      "street": "R DA FONTE DA TEJA",
      "house": "",
      "postcode": "6430-341",
      "city": "PROVA",
      "lon": "-7.341912786812275",
      "lat": "40.912146263397524"
    },
    {
      "id": "pt.ine.add.PTCONT.1886495",
      "street": "R PADRE ANTÓNIO MARIA GAMBOA DE INFANÇÃO",
      "house": "",
      "postcode": "6430-341",
      "city": "PROVA",
      "lon": "-7.342321004935734",
      "lat": "40.912752374980485"
    },
    {
      "id": "pt.ine.add.PTCONT.1887871",
      "street": "LG DA DEVESA",
      "house": "",
      "postcode": "6430-341",
      "city": "PROVA",
      "lon": "-7.341584383849818",
      "lat": "40.91281035376241"
    },
    {
      "id": "pt.ine.add.PTCONT.1892854",
      "street": "R NSA SRA DA PAZ",
      "house": "",
      "postcode": "6430-341",
      "city": "PROVA",
      "lon": "-7.34267749978597",
      "lat": "40.91271880050952"
    },
    {
      "id": "pt.ine.add.PTCONT.1896312",
      "street": "R VALE DO SAPO",
      "house": "",
      "postcode": "6430-341",
      "city": "PROVA",
      "lon": "-7.342502041269044",
      "lat": "40.91250148612873"
    }
  ]
}