{
  "data": {
    "distrito": "Guarda",
    "concelho": "Guarda",
    "freguesia": "União de freguesias de Mizarela, Pêro Soares e Vila Soeiro",
    "OBJECTID": 189,
    "BGRI2021": "09076300124",
    "DT21": "09",
    "DTMN21": "0907",
    "DTMNFR21": "090763",
    "DTMNFRSEC21": "090763001",
    "SECNUM21": "001",
    "SSNUM21": "24",
    "SECSSNUM21": "00124",
    "OBJECTID_1": 78568,
    "DT": "09",
    "CC": "07",
    "fr": "63",
    "SEC": "001",
    "SS": "24"
  },
  "addresses": [
    {
      "id": "pt.ine.add.PTCONT.1962991",
      "street": "R DO CEMITÉRIO",
      "house": "",
      "postcode": "6300-270",
      "city": "VILA SOEIRO",
      "lon": "-7.340427140012113",
      "lat": "40.54022325256896"
    },
    {
      "id": "pt.ine.add.PTCONT.1876106",
      "street": "QTA DO CARVALHAL",
      "house": "",
      "postcode": "6300-270",
      "city": "VILA SOEIRO",
      "lon": "-7.348044770326415",
      "lat": "40.53784385411591"
    },
    {
      "id": "pt.ine.add.PTCONT.1892762",
      "street": "QTA DE BOITECELA",
      "house": "",
      "postcode": "6300-270",
      "city": "VILA SOEIRO",
      "lon": "-7.354322914120222",
      "lat": "40.54712569937005"
    },
    {
      "id": "pt.ine.add.PTCONT.1893226",
      "street": "R DA ESCOLA",
      "house": "",
      "postcode": "6300-270",
      "city": "VILA SOEIRO",
      "lon": "-7.343006782986624",
      "lat": "40.540682178082996"
    },
    {
      "id": "pt.ine.add.PTCONT.1898544",
      "street": "R DA ESCOLA",
      "house": "",
      "postcode": "6300-270",
      "city": "VILA SOEIRO",
      "lon": "-7.342923104257088",
      "lat": "40.54077165801573"
    }
  ]
}