{
  "data": {
    "distrito": "Lisboa",
    "concelho": "Mafra",
    "freguesia": "Carvoeira",
    "OBJECTID": 49,
    "BGRI2021": "11090200311",
    "DT21": "11",
    "DTMN21": "1109",
    "DTMNFR21": "110902",
    "DTMNFRSEC21": "110902003",
    "SECNUM21": "003",
    "SSNUM21": "11",
    "SECSSNUM21": "00311",
    "OBJECTID_1": 108945,
    "DT": "11",
    "CC": "09",
    "fr": "02",
    "SEC": "003",
    "SS": "11"
  },
  "addresses": [
    {
      "id": "pt.ine.add.PTCONT.2353016",
      "street": "TV CALDEIRA",
      "house": "",
      "postcode": "2655-037",
      "city": "CARVOEIRA MFR",
      "lon": "-9.397096364411489",
      "lat": "38.942624522259095"
    },
    {
      "id": "pt.ine.add.PTCONT.2466362",
      "street": "TV SANTO ANTÓNIO",
      "house": "25",
      "postcode": "2655-056",
      "city": "CARVOEIRA MFR",
      "lon": "-9.397056474544744",
      "lat": "38.94297624194576"
    },
    {
      "id": "pt.ine.add.PTCONT.2642979",
      "street": "R JOGO",
      "house": "9",
      "postcode": "2655-048",
      "city": "CARVOEIRA MFR",
      "lon": "-9.397845274610994",
      "lat": "38.94322891033638"
    },
    {
      "id": "pt.ine.add.PTCONT.2672881",
      "street": "TV SANTO ANTÓNIO",
      "house": "",
      "postcode": "2655-056",
      "city": "CARVOEIRA MFR",
      "lon": "-9.397080817469886",
      "lat": "38.94304803731194"
    },
    {
      "id": "pt.ine.add.PTCONT.2683835",
      "street": "R JOGO",
      "house": "",
      "postcode": "2655-048",
      "city": "CARVOEIRA MFR",
      "lon": "-9.3975558597845",
      "lat": "38.94316899471907"
    },
    {
      "id": "pt.ine.add.PTCONT.2842537",
      "street": "TV SANTO ANTÓNIO",
      "house": "",
      "postcode": "2655-056",
      "city": "CARVOEIRA MFR",
      "lon": "-9.397242262239965",
      "lat": "38.94304628869509"
    },
    {
      "id": "pt.ine.add.PTCONT.3025020",
      "street": "R SANTO ANTÓNIO",
      "house": "25",
      "postcode": "2655-056",
      "city": "CARVOEIRA MFR",
      "lon": "-9.397147769002576",
      "lat": "38.942921208922805"
    },
    {
      "id": "pt.ine.add.PTCONT.3039198",
      "street": "R LARANJEIRA",
      "house": "",
      "postcode": "2655-049",
      "city": "CARVOEIRA MFR",
      "lon": "-9.397596707203087",
      "lat": "38.94287130876542"
    },
    {
      "id": "pt.ine.add.PTCONT.3132519",
      "street": "TV PRAÇA",
      "house": "",
      "postcode": "2655-055",
      "city": "CARVOEIRA MFR",
      "lon": "-9.39725155474022",
      "lat": "38.94292008478113"
    },
    {
      "id": "pt.ine.add.PTCONT.3136532",
      "street": "R SANTO ANTÓNIO",
      "house": "",
      "postcode": "2655-048",
      "city": "CARVOEIRA MFR",
      "lon": "-9.39705439555322",
      "lat": "38.942859168574465"
    },
    {
      "id": "pt.ine.add.PTCONT.3202142",
      "street": "R SANTO ANTÓNIO",
      "house": "29",
      "postcode": "2655-048",
      "city": "CARVOEIRA MFR",
      "lon": "-9.397018840830727",
      "lat": "38.942805509374466"
    },
    {
      "id": "pt.ine.add.PTCONT.3229730",
      "street": "R SANTO ANTÓNIO",
      "house": "",
      "postcode": "2655-048",
      "city": "CARVOEIRA MFR",
      "lon": "-9.397358859617574",
      "lat": "38.94311708468751"
    },
    {
      "id": "pt.ine.add.PTCONT.3305348",
      "street": "R LARANJEIRA",
      "house": "16",
      "postcode": "2655-049",
      "city": "CARVOEIRA MFR",
      "lon": "-9.397444235054065",
      "lat": "38.94272884265329"
    },
    {
      "id": "pt.ine.add.PTCONT.3318079",
      "street": "R CELEIRO",
      "house": "",
      "postcode": "2655-040",
      "city": "CARVOEIRA MFR",
      "lon": "-9.39730553454537",
      "lat": "38.94271233042387"
    }
  ]
}