{
  "data": {
    "distrito": "Lisboa",
    "concelho": "Mafra",
    "freguesia": "Carvoeira",
    "OBJECTID": 53,
    "BGRI2021": "11090200312",
    "DT21": "11",
    "DTMN21": "1109",
    "DTMNFR21": "110902",
    "DTMNFRSEC21": "110902003",
    "SECNUM21": "003",
    "SSNUM21": "12",
    "SECSSNUM21": "00312",
    "OBJECTID_1": 108213,
    "DT": "11",
    "CC": "09",
    "fr": "02",
    "SEC": "003",
    "SS": "12"
  },
  "addresses": [
    {
      "id": "pt.ine.add.PTCONT.2797321",
      "street": "R SANTO ANTÓNIO",
      "house": "30",
      "postcode": "2655-056",
      "city": "CARVOEIRA MFR",
      "lon": "-9.397059513092579",
      "lat": "38.94314734917633"
    },
    {
      "id": "pt.ine.add.PTCONT.2876512",
      "street": "R JOGO",
      "house": "8",
      "postcode": "2655-048",
      "city": "CARVOEIRA MFR",
      "lon": "-9.397200293653395",
      "lat": "38.94328093504246"
    },
    {
      "id": "pt.ine.add.PTCONT.2879151",
      "street": "R SANTO ANTÓNIO",
      "house": "",
      "postcode": "2655-056",
      "city": "CARVOEIRA MFR",
      "lon": "-9.396863472720664",
      "lat": "38.94314947216539"
    },
    {
      "id": "pt.ine.add.PTCONT.3068488",
      "street": "R FUNCHAIS",
      "house": "5",
      "postcode": "2655-046",
      "city": "CARVOEIRA MFR",
      "lon": "-9.396764962921173",
      "lat": "38.9434477822319"
    },
    {
      "id": "pt.ine.add.PTCONT.3145699",
      "street": "R SANTO ANTÓNIO",
      "house": "",
      "postcode": "2655-056",
      "city": "CARVOEIRA MFR",
      "lon": "-9.397186682614695",
      "lat": "38.94316398658836"
    },
    {
      "id": "pt.ine.add.PTCONT.3152522",
      "street": "TV JOGO",
      "house": "",
      "postcode": "2655-040",
      "city": "CARVOEIRA MFR",
      "lon": "-9.396751832216342",
      "lat": "38.94335785065195"
    }
  ]
}