{
  "data": {
    "distrito": "Porto",
    "concelho": "Porto",
    "freguesia": "Paranhos",
    "OBJECTID": 1112,
    "BGRI2021": "13121004408",
    "DT21": "13",
    "DTMN21": "1312",
    "DTMNFR21": "131210",
    "DTMNFRSEC21": "131210044",
    "SECNUM21": "044",
    "SSNUM21": "08",
    "SECSSNUM21": "04408",
    "OBJECTID_1": 138364,
    "DT": "13",
    "CC": "12",
    "fr": "10",
    "SEC": "044",
    "SS": "08"
  },
  "addresses": [
    {
      "id": "pt.ine.add.PTCONT.3621335",
      "street": "R DALIAS",
      "house": "45",
      "postcode": "4250-188",
      "city": "PORTO",
      "lon": "-8.618540471778147",
      "lat": "41.1762484528015"
    },
    {
      "id": "pt.ine.add.PTCONT.3872978",
      "street": "R CRISANTEMOS",
      "house": "102",
      "postcode": "4250-179",
      "city": "PORTO",
      "lon": "-8.618812101997019",
      "lat": "41.17591414796281"
    },
    {
      "id": "pt.ine.add.PTCONT.3911107",
      "street": "R CRAVOS",
      "house": "58",
      "postcode": "4250-178",
      "city": "PORTO",
      "lon": "-8.61885830639417",
      "lat": "41.175715858148315"
    },
    {
      "id": "pt.ine.add.PTCONT.4042622",
      "street": "R AZÁLEAS",
      "house": "113",
      "postcode": "4250-074",
      "city": "PORTO",
      "lon": "-8.6186459961214",
      "lat": "41.17601389579004"
    },
    {
      "id": "pt.ine.add.PTCONT.4079962",
      "street": "R CRAVOS",
      "house": "44",
      "postcode": "4250-178",
      "city": "PORTO",
      "lon": "-8.618953641675963",
      "lat": "41.17571545604207"
    },
    {
      "id": "pt.ine.add.PTCONT.4106356",
      "street": "R CRISANTEMOS",
      "house": "112",
      "postcode": "4250-179",
      "city": "PORTO",
      "lon": "-8.618717697405563",
      "lat": "41.17604060645501"
    },
    {
      "id": "pt.ine.add.PTCONT.4152223",
      "street": "R DALIAS",
      "house": "147",
      "postcode": "4250-188",
      "city": "PORTO",
      "lon": "-8.618504321935456",
      "lat": "41.176194579259594"
    },
    {
      "id": "pt.ine.add.PTCONT.4364312",
      "street": "R AZÁLEAS",
      "house": "103",
      "postcode": "4250-074",
      "city": "PORTO",
      "lon": "-8.618752184748777",
      "lat": "41.17586937903666"
    }
  ]
}