{
  "data": {
    "distrito": "Braga",
    "concelho": "Barcelos",
    "freguesia": "União das freguesias de Viatodos, Grimancelos, Minhotães e Monte de Fralães",
    "OBJECTID": 753,
    "BGRI2021": "0302FG00106",
    "DT21": "03",
    "DTMN21": "0302",
    "DTMNFR21": "0302FG",
    "DTMNFRSEC21": "0302FG001",
    "SECNUM21": "001",
    "SSNUM21": "06",
    "SECSSNUM21": "00106",
    "OBJECTID_1": 20549,
    "DT": "03",
    "CC": "02",
    "fr": "FG",
    "SEC": "001",
    "SS": "06"
  },
  "addresses": [
    {
      "id": "pt.ine.add.PTCONT.470639",
      "street": "R REQUIAO",
      "house": "431",
      "postcode": "4775-151",
      "city": "MINHOTÃES",
      "lon": "-8.568752946538607",
      "lat": "41.43150737819501"
    },
    {
      "id": "pt.ine.add.PTCONT.470640",
      "street": "R REQUIAO",
      "house": "431",
      "postcode": "4775-151",
      "city": "MINHOTÃES",
      "lon": "-8.568752946538607",
      "lat": "41.43150737819501"
    },
    {
      "id": "pt.ine.add.PTCONT.488777",
      "street": "R REQUIAO",
      "house": "87",
      "postcode": "4775-151",
      "city": "MINHOTÃES",
      "lon": "-8.565423090630942",
      "lat": "41.43272646494065"
    },
    {
      "id": "pt.ine.add.PTCONT.527517",
      "street": "R ROMA",
      "house": "191",
      "postcode": "4775-152",
      "city": "MINHOTÃES",
      "lon": "-8.5665425307191",
      "lat": "41.430147130014724"
    },
    {
      "id": "pt.ine.add.PTCONT.562954",
      "street": "TV ROMA",
      "house": "116",
      "postcode": "4775-152",
      "city": "MINHOTÃES",
      "lon": "-8.565652805376699",
      "lat": "41.43128497340433"
    },
    {
      "id": "pt.ine.add.PTCONT.569449",
      "street": "R ROMA",
      "house": "145",
      "postcode": "4775-152",
      "city": "MINHOTÃES",
      "lon": "-8.566924101024414",
      "lat": "41.42995660935884"
    },
    {
      "id": "pt.ine.add.PTCONT.601023",
      "street": "R REQUIAO",
      "house": "253",
      "postcode": "4775-151",
      "city": "MINHOTÃES",
      "lon": "-8.56737122296829",
      "lat": "41.43242199843934"
    },
    {
      "id": "pt.ine.add.PTCONT.625928",
      "street": "R SANTAS",
      "house": "76",
      "postcode": "4775-151",
      "city": "MINHOTÃES",
      "lon": "-8.566949586273479",
      "lat": "41.43019061539958"
    },
    {
      "id": "pt.ine.add.PTCONT.660915",
      "street": "R SANTAS",
      "house": "",
      "postcode": "4775-151",
      "city": "MINHOTÃES",
      "lon": "-8.567178330541363",
      "lat": "41.43040584686862"
    },
    {
      "id": "pt.ine.add.PTCONT.674210",
      "street": "R ALMINHAS",
      "house": "240",
      "postcode": "4775-152",
      "city": "MINHOTÃES",
      "lon": "-8.564038193065473",
      "lat": "41.43136306390551"
    },
    {
      "id": "pt.ine.add.PTCONT.722217",
      "street": "R REQUIAO",
      "house": "611",
      "postcode": "4775-151",
      "city": "MINHOTÃES",
      "lon": "-8.56795667598545",
      "lat": "41.43051095473343"
    },
    {
      "id": "pt.ine.add.PTCONT.769702",
      "street": "R REQUIAO",
      "house": "345",
      "postcode": "4775-151",
      "city": "MINHOTÃES",
      "lon": "-8.568170454580855",
      "lat": "41.43206782578819"
    },
    {
      "id": "pt.ine.add.PTCONT.818119",
      "street": "R REQUIAO",
      "house": "712",
      "postcode": "4775-151",
      "city": "MINHOTÃES",
      "lon": "-8.567821954473704",
      "lat": "41.430043259601376"
    },
    {
      "id": "pt.ine.add.PTCONT.826816",
      "street": "TV REQUIAO",
      "house": "73",
      "postcode": "4775-152",
      "city": "MINHOTÃES",
      "lon": "-8.56770027904091",
      "lat": "41.429737585713994"
    },
    {
      "id": "pt.ine.add.PTCONT.829157",
      "street": "TV REQUIAO",
      "house": "73",
      "postcode": "4775-152",
      "city": "MINHOTÃES",
      "lon": "-8.56770027904091",
      "lat": "41.429737585713994"
    }
  ]
}