{
  "data": {
    "distrito": "Aveiro",
    "concelho": "Águeda",
    "freguesia": "União das freguesias de Belazaima do Chão, Castanheira do Vouga e Agadão",
    "OBJECTID": 759,
    "BGRI2021": "01012300153",
    "DT21": "01",
    "DTMN21": "0101",
    "DTMNFR21": "010123",
    "DTMNFRSEC21": "010123001",
    "SECNUM21": "001",
    "SSNUM21": "53",
    "SECSSNUM21": "00153",
    "OBJECTID_1": 406,
    "DT": "01",
    "CC": "01",
    "fr": "23",
    "SEC": "001",
    "SS": "53"
  },
  "addresses": [
    {
      "id": "pt.ine.add.PTCONT.305464",
      "street": "TV ERVEDAL",
      "house": "45",
      "postcode": "3750-373",
      "city": "CASTANHEIRA DO VOUGA",
      "lon": "-8.360508078059507",
      "lat": "40.59136528415654"
    },
    {
      "id": "pt.ine.add.PTCONT.307978",
      "street": "R PRINCIPAL",
      "house": "43",
      "postcode": "3750-373",
      "city": "CASTANHEIRA DO VOUGA",
      "lon": "-8.3599916933285",
      "lat": "40.588871840713274"
    },
    {
      "id": "pt.ine.add.PTCONT.307979",
      "street": "R CAPELA",
      "house": "50",
      "postcode": "3750-373",
      "city": "CASTANHEIRA DO VOUGA",
      "lon": "-8.360735480527948",
      "lat": "40.5887533089394"
    },
    {
      "id": "pt.ine.add.PTCONT.315957",
      "street": "",
      "house": "",
      "postcode": "3750-373",
      "city": "CASTANHEIRA DO VOUGA",
      "lon": "-8.360822566040898",
      "lat": "40.59004989584198"
    },
    {
      "id": "pt.ine.add.PTCONT.321541",
      "street": "R PRINCIPAL",
      "house": "",
      "postcode": "3750-373",
      "city": "CASTANHEIRA DO VOUGA",
      "lon": "-8.36021536822931",
      "lat": "40.58864626945429"
    },
    {
      "id": "pt.ine.add.PTCONT.337608",
      "street": "R COSTA",
      "house": "",
      "postcode": "3750-373",
      "city": "CASTANHEIRA DO VOUGA",
      "lon": "-8.359298096433347",
      "lat": "40.58986378040286"
    },
    {
      "id": "pt.ine.add.PTCONT.13385",
      "street": "R CENTRAL",
      "house": "68",
      "postcode": "3750-373",
      "city": "CASTANHEIRA DO VOUGA",
      "lon": "-8.361608803069943",
      "lat": "40.58851744771693"
    },
    {
      "id": "pt.ine.add.PTCONT.15936",
      "street": "R OUTEIRO",
      "house": "81",
      "postcode": "3750-373",
      "city": "CASTANHEIRA DO VOUGA",
      "lon": "-8.359334657126896",
      "lat": "40.59019690367892"
    },
    {
      "id": "pt.ine.add.PTCONT.23939",
      "street": "BELZINHO",
      "house": "20",
      "postcode": "3750-373",
      "city": "CASTANHEIRA DO VOUGA",
      "lon": "-8.360844724985979",
      "lat": "40.58961759934237"
    },
    {
      "id": "pt.ine.add.PTCONT.26557",
      "street": "R ERVEDAL",
      "house": "",
      "postcode": "3750-373",
      "city": "CASTANHEIRA DO VOUGA",
      "lon": "-8.359408447492685",
      "lat": "40.59106126466502"
    },
    {
      "id": "pt.ine.add.PTCONT.33981",
      "street": "R CENTRAL",
      "house": "52",
      "postcode": "3750-373",
      "city": "CASTANHEIRA DO VOUGA",
      "lon": "-8.361253941923696",
      "lat": "40.58837406482274"
    },
    {
      "id": "pt.ine.add.PTCONT.34679",
      "street": "R PRINCIPAL",
      "house": "11",
      "postcode": "3750-373",
      "city": "CASTANHEIRA DO VOUGA",
      "lon": "-8.359202351978595",
      "lat": "40.58949475188037"
    },
    {
      "id": "pt.ine.add.PTCONT.86476",
      "street": "R ERVEDAL",
      "house": "185",
      "postcode": "3750-373",
      "city": "CASTANHEIRA DO VOUGA",
      "lon": "-8.35989417308321",
      "lat": "40.59147455424401"
    },
    {
      "id": "pt.ine.add.PTCONT.101412",
      "street": "PRINCIPAL",
      "house": "",
      "postcode": "3750-373",
      "city": "CASTANHEIRA DO VOUGA",
      "lon": "-8.361419069943166",
      "lat": "40.58830169641575"
    },
    {
      "id": "pt.ine.add.PTCONT.102305",
      "street": "R PRINCIPAL",
      "house": "",
      "postcode": "3750-373",
      "city": "CASTANHEIRA DO VOUGA",
      "lon": "-8.361643535159924",
      "lat": "40.58831025781789"
    },
    {
      "id": "pt.ine.add.PTCONT.117872",
      "street": "LG ESPÍRITO SANTO",
      "house": "18",
      "postcode": "3750-373",
      "city": "CASTANHEIRA DO VOUGA",
      "lon": "-8.361270161403434",
      "lat": "40.58967079140891"
    },
    {
      "id": "pt.ine.add.PTCONT.128105",
      "street": "R CAPELA",
      "house": "15",
      "postcode": "3750-373",
      "city": "CASTANHEIRA DO VOUGA",
      "lon": "-8.360899785050796",
      "lat": "40.588437800639156"
    },
    {
      "id": "pt.ine.add.PTCONT.146807",
      "street": "TV CAPELA",
      "house": "15",
      "postcode": "3750-373",
      "city": "CASTANHEIRA DO VOUGA",
      "lon": "-8.361848671290883",
      "lat": "40.58957959461742"
    },
    {
      "id": "pt.ine.add.PTCONT.161072",
      "street": "LG PRAÇA",
      "house": "20",
      "postcode": "3750-373",
      "city": "CASTANHEIRA DO VOUGA",
      "lon": "-8.360450823501028",
      "lat": "40.58841166930101"
    },
    {
      "id": "pt.ine.add.PTCONT.173700",
      "street": "LG ESPÍRITO SANTO",
      "house": "",
      "postcode": "3750-373",
      "city": "CASTANHEIRA DO VOUGA",
      "lon": "-8.361067940807962",
      "lat": "40.58925694835074"
    },
    {
      "id": "pt.ine.add.PTCONT.173869",
      "street": "R ERVEDAL",
      "house": "11",
      "postcode": "3750-373",
      "city": "CASTANHEIRA DO VOUGA",
      "lon": "-8.359076051267738",
      "lat": "40.59057563103916"
    },
    {
      "id": "pt.ine.add.PTCONT.211393",
      "street": "R NOVA",
      "house": "20",
      "postcode": "3750-373",
      "city": "CASTANHEIRA DO VOUGA",
      "lon": "-8.361891134123473",
      "lat": "40.588174688658675"
    },
    {
      "id": "pt.ine.add.PTCONT.216788",
      "street": "R PRINCIPAL",
      "house": "30",
      "postcode": "3750-373",
      "city": "CASTANHEIRA DO VOUGA",
      "lon": "-8.360580698498055",
      "lat": "40.588393403083785"
    },
    {
      "id": "pt.ine.add.PTCONT.230305",
      "street": "R CENTRAL",
      "house": "",
      "postcode": "3750-373",
      "city": "CASTANHEIRA DO VOUGA",
      "lon": "-8.36133938370486",
      "lat": "40.58918437021197"
    },
    {
      "id": "pt.ine.add.PTCONT.270863",
      "street": "R CAPELA",
      "house": "",
      "postcode": "3750-373",
      "city": "CASTANHEIRA DO VOUGA",
      "lon": "-8.360925671132351",
      "lat": "40.58910413946816"
    },
    {
      "id": "pt.ine.add.PTCONT.284201",
      "street": "R COSTA",
      "house": "",
      "postcode": "3750-373",
      "city": "CASTANHEIRA DO VOUGA",
      "lon": "-8.360562931750838",
      "lat": "40.59012244950684"
    }
  ]
}