{
  "data": {
    "distrito": "Santarém",
    "concelho": "Ourém",
    "freguesia": "União das freguesias de Rio de Couros e Casal dos Bernardos",
    "OBJECTID": 1048,
    "BGRI2021": "14212200307",
    "DT21": "14",
    "DTMN21": "1421",
    "DTMNFR21": "142122",
    "DTMNFRSEC21": "142122003",
    "SECNUM21": "003",
    "SSNUM21": "07",
    "SECSSNUM21": "00307",
    "OBJECTID_1": 159811,
    "DT": "14",
    "CC": "21",
    "fr": "22",
    "SEC": "003",
    "SS": "07"
  },
  "addresses": [
    {
      "id": "pt.ine.add.PTCONT.4391579",
      "street": "R CARVALHAL",
      "house": "13",
      "postcode": "2435-012",
      "city": "CASAL DOS BERNARDOS",
      "lon": "-8.553948590378171",
      "lat": "39.746060569676736"
    },
    {
      "id": "pt.ine.add.PTCONT.4440253",
      "street": "R VALINHO",
      "house": "7",
      "postcode": "2435-012",
      "city": "CASAL DOS BERNARDOS",
      "lon": "-8.558145120590492",
      "lat": "39.745459854067825"
    },
    {
      "id": "pt.ine.add.PTCONT.4460934",
      "street": "R CARVALHAL",
      "house": "21",
      "postcode": "2435-012",
      "city": "CASAL DOS BERNARDOS",
      "lon": "-8.555290133140613",
      "lat": "39.74602867866329"
    },
    {
      "id": "pt.ine.add.PTCONT.4466248",
      "street": "R CARVALHAL",
      "house": "15",
      "postcode": "2435-012",
      "city": "CASAL DOS BERNARDOS",
      "lon": "-8.554310268128843",
      "lat": "39.746059257891126"
    },
    {
      "id": "pt.ine.add.PTCONT.4479387",
      "street": "R OLHEIROS",
      "house": "14",
      "postcode": "2435-012",
      "city": "CASAL DOS BERNARDOS",
      "lon": "-8.55185343298891",
      "lat": "39.74109652874325"
    },
    {
      "id": "pt.ine.add.PTCONT.4527291",
      "street": "R BICA",
      "house": "5",
      "postcode": "2435-012",
      "city": "CASAL DOS BERNARDOS",
      "lon": "-8.556280066428473",
      "lat": "39.745736864527224"
    },
    {
      "id": "pt.ine.add.PTCONT.4530536",
      "street": "TV BICA",
      "house": "1",
      "postcode": "2435-012",
      "city": "CASAL DOS BERNARDOS",
      "lon": "-8.555217987670911",
      "lat": "39.745677685590735"
    },
    {
      "id": "pt.ine.add.PTCONT.4560535",
      "street": "R PRINCIPAL",
      "house": "45",
      "postcode": "2435-012",
      "city": "CASAL DOS BERNARDOS",
      "lon": "-8.55854925299023",
      "lat": "39.74477387581137"
    },
    {
      "id": "pt.ine.add.PTCONT.4566652",
      "street": "R OLHEIROS",
      "house": "14",
      "postcode": "2435-012",
      "city": "CASAL DOS BERNARDOS",
      "lon": "-8.552320517165755",
      "lat": "39.741166895387366"
    },
    {
      "id": "pt.ine.add.PTCONT.4574384",
      "street": "R OLHEIROS",
      "house": "12",
      "postcode": "2435-012",
      "city": "CASAL DOS BERNARDOS",
      "lon": "-8.552168474677888",
      "lat": "39.741104398447455"
    },
    {
      "id": "pt.ine.add.PTCONT.4581136",
      "street": "R OLHEIROS",
      "house": "6",
      "postcode": "2435-012",
      "city": "CASAL DOS BERNARDOS",
      "lon": "-8.551581896569418",
      "lat": "39.74056612098047"
    },
    {
      "id": "pt.ine.add.PTCONT.4618439",
      "street": "TV BICA",
      "house": "2",
      "postcode": "2435-012",
      "city": "CASAL DOS BERNARDOS",
      "lon": "-8.555393651806494",
      "lat": "39.74578512528622"
    }
  ]
}