{
  "data": {
    "distrito": "Bragança",
    "concelho": "Vila Flor",
    "freguesia": "União das freguesias de Assares e Lodões",
    "OBJECTID": 192,
    "BGRI2021": "04102000111",
    "DT21": "04",
    "DTMN21": "0410",
    "DTMNFR21": "041020",
    "DTMNFRSEC21": "041020001",
    "SECNUM21": "001",
    "SSNUM21": "11",
    "SECSSNUM21": "00111",
    "OBJECTID_1": 38956,
    "DT": "04",
    "CC": "10",
    "fr": "20",
    "SEC": "001",
    "SS": "11"
  },
  "addresses": [
    {
      "id": "pt.ine.add.PTCONT.852385",
      "street": "R DA EIRA NOVA",
      "house": "6",
      "postcode": "5360-080",
      "city": "LODÕES",
      "lon": "-7.083218994158792",
      "lat": "41.31827077339021"
    },
    {
      "id": "pt.ine.add.PTCONT.853142",
      "street": "R DAS EIRAS",
      "house": "19",
      "postcode": "5360-080",
      "city": "LODÕES",
      "lon": "-7.083741954644798",
      "lat": "41.318428609638524"
    },
    {
      "id": "pt.ine.add.PTCONT.853143",
      "street": "R DA EIRA NOVA",
      "house": "",
      "postcode": "5360-080",
      "city": "LODÕES",
      "lon": "-7.08430298366236",
      "lat": "41.31695707711003"
    },
    {
      "id": "pt.ine.add.PTCONT.855433",
      "street": "R DA EIRA NOVA",
      "house": "",
      "postcode": "5360-080",
      "city": "LODÕES",
      "lon": "-7.083579976259216",
      "lat": "41.31810299085096"
    },
    {
      "id": "pt.ine.add.PTCONT.858159",
      "street": "R DA CAPELA",
      "house": "9",
      "postcode": "5360-080",
      "city": "LODÕES",
      "lon": "-7.082178740137691",
      "lat": "41.319089641832996"
    },
    {
      "id": "pt.ine.add.PTCONT.866885",
      "street": "R DAS EIRAS",
      "house": "",
      "postcode": "5360-080",
      "city": "LODÕES",
      "lon": "-7.082935962763785",
      "lat": "41.31879041970155"
    },
    {
      "id": "pt.ine.add.PTCONT.876664",
      "street": "R DA CAPELA",
      "house": "3",
      "postcode": "5360-080",
      "city": "LODÕES",
      "lon": "-7.081830992599336",
      "lat": "41.319176505370095"
    },
    {
      "id": "pt.ine.add.PTCONT.884399",
      "street": "R DA EIRA NOVA",
      "house": "",
      "postcode": "5360-080",
      "city": "LODÕES",
      "lon": "-7.082974966285282",
      "lat": "41.318592688923445"
    },
    {
      "id": "pt.ine.add.PTCONT.903722",
      "street": "R DA CAPELA",
      "house": "",
      "postcode": "5360-080",
      "city": "LODÕES",
      "lon": "-7.082562455524615",
      "lat": "41.31899410161424"
    },
    {
      "id": "pt.ine.add.PTCONT.904557",
      "street": "AV DA FONTE ROMANA",
      "house": "",
      "postcode": "5360-080",
      "city": "LODÕES",
      "lon": "-7.079610469528278",
      "lat": "41.319120185663216"
    },
    {
      "id": "pt.ine.add.PTCONT.919532",
      "street": "LG DA FONTE",
      "house": "",
      "postcode": "5360-080",
      "city": "LODÕES",
      "lon": "-7.0814309197766",
      "lat": "41.32028933853609"
    },
    {
      "id": "pt.ine.add.PTCONT.924912",
      "street": "LG DA BARREIRA",
      "house": "14",
      "postcode": "5360-080",
      "city": "LODÕES",
      "lon": "-7.080980690371313",
      "lat": "41.319321802399294"
    },
    {
      "id": "pt.ine.add.PTCONT.942185",
      "street": "R DA CAPELA",
      "house": "7",
      "postcode": "5360-080",
      "city": "LODÕES",
      "lon": "-7.081578775636536",
      "lat": "41.31926424068996"
    }
  ]
}