{
  "data": {
    "distrito": "Porto",
    "concelho": "Baião",
    "freguesia": "Grilo",
    "OBJECTID": 62,
    "BGRI2021": "13020700104",
    "DT21": "13",
    "DTMN21": "1302",
    "DTMNFR21": "130207",
    "DTMNFRSEC21": "130207001",
    "SECNUM21": "001",
    "SSNUM21": "04",
    "SECSSNUM21": "00104",
    "OBJECTID_1": 126774,
    "DT": "13",
    "CC": "02",
    "fr": "07",
    "SEC": "001",
    "SS": "04"
  },
  "addresses": [
    {
      "id": "pt.ine.add.PTCONT.3617205",
      "street": "R COVELO",
      "house": "",
      "postcode": "4640-302",
      "city": "GRILO",
      "lon": "-8.076285513197334",
      "lat": "41.135422992655315"
    },
    {
      "id": "pt.ine.add.PTCONT.3714585",
      "street": "R COVELO",
      "house": "644",
      "postcode": "4640-302",
      "city": "GRILO",
      "lon": "-8.076259687440995",
      "lat": "41.13774612056042"
    },
    {
      "id": "pt.ine.add.PTCONT.3714586",
      "street": "CAM GRANJA",
      "house": "89",
      "postcode": "4640-302",
      "city": "GRILO",
      "lon": "-8.075977031858846",
      "lat": "41.13406317206221"
    },
    {
      "id": "pt.ine.add.PTCONT.3721115",
      "street": "R CRUZEIRO",
      "house": "307",
      "postcode": "4640-302",
      "city": "GRILO",
      "lon": "-8.07539035815495",
      "lat": "41.13759261315782"
    },
    {
      "id": "pt.ine.add.PTCONT.3961275",
      "street": "R COVELO",
      "house": "",
      "postcode": "4640-302",
      "city": "GRILO",
      "lon": "-8.076259982865883",
      "lat": "41.13740395276303"
    },
    {
      "id": "pt.ine.add.PTCONT.4037358",
      "street": "R COVELO",
      "house": "538",
      "postcode": "4640-302",
      "city": "GRILO",
      "lon": "-8.075938613246308",
      "lat": "41.13716067438751"
    },
    {
      "id": "pt.ine.add.PTCONT.4090036",
      "street": "R COVELO",
      "house": "476",
      "postcode": "4640-302",
      "city": "GRILO",
      "lon": "-8.075760428505257",
      "lat": "41.13662032058626"
    },
    {
      "id": "pt.ine.add.PTCONT.4240586",
      "street": "R PADRE ANTÓNIO OLIVEIRA GOMES",
      "house": "384",
      "postcode": "4640-302",
      "city": "GRILO",
      "lon": "-8.076093057978028",
      "lat": "41.13761097192143"
    },
    {
      "id": "pt.ine.add.PTCONT.4240587",
      "street": "R PADRE ANTÓNIO OLIVEIRA GOMES",
      "house": "384",
      "postcode": "4640-302",
      "city": "GRILO",
      "lon": "-8.076093057978028",
      "lat": "41.13761097192143"
    },
    {
      "id": "pt.ine.add.PTCONT.4253588",
      "street": "CAM GRANJA",
      "house": "",
      "postcode": "4640-302",
      "city": "GRILO",
      "lon": "-8.076607663696649",
      "lat": "41.13474781934426"
    }
  ]
}