{
  "data": {
    "distrito": "Beja",
    "concelho": "Ourique",
    "freguesia": "Ourique",
    "OBJECTID": 123,
    "BGRI2021": "02120300339",
    "DT21": "02",
    "DTMN21": "0212",
    "DTMNFR21": "021203",
    "DTMNFRSEC21": "021203003",
    "SECNUM21": "003",
    "SSNUM21": "39",
    "SECSSNUM21": "00339",
    "OBJECTID_1": 18302,
    "DT": "02",
    "CC": "12",
    "fr": "03",
    "SEC": "003",
    "SS": "39"
  },
  "addresses": [
    {
      "id": "pt.ine.add.PTCONT.355895",
      "street": "MTE VINHA",
      "house": "",
      "postcode": "7670-215",
      "city": "OURIQUE",
      "lon": "-8.311361736589522",
      "lat": "37.6526481648255"
    },
    {
      "id": "pt.ine.add.PTCONT.397803",
      "street": "MTE NOVO HORTAS DO SARAIVA",
      "house": "",
      "postcode": "7670-351",
      "city": "OURIQUE",
      "lon": "-8.30913209400708",
      "lat": "37.6538227888902"
    },
    {
      "id": "pt.ine.add.PTCONT.406568",
      "street": "MTE NOVO DO SARAIVA",
      "house": "",
      "postcode": "7670-215",
      "city": "OURIQUE",
      "lon": "-8.314166381852523",
      "lat": "37.65406130686417"
    },
    {
      "id": "pt.ine.add.PTCONT.413491",
      "street": "MTE VINHA",
      "house": "",
      "postcode": "7670-215",
      "city": "OURIQUE",
      "lon": "-8.311316128623158",
      "lat": "37.652531106115994"
    },
    {
      "id": "pt.ine.add.PTCONT.425382",
      "street": "MTE A BAIXO DO SARAIVA",
      "house": "",
      "postcode": "7670-215",
      "city": "OURIQUE",
      "lon": "-8.311270133347245",
      "lat": "37.6522518712651"
    },
    {
      "id": "pt.ine.add.PTCONT.441790",
      "street": "CASA DA JANELA REDONDA",
      "house": "",
      "postcode": "7670-215",
      "city": "OURIQUE",
      "lon": "-8.313707267320996",
      "lat": "37.65256350898057"
    }
  ]
}