{
  "data": {
    "distrito": "Lisboa",
    "concelho": "Torres Vedras",
    "freguesia": "São Pedro da Cadeira",
    "OBJECTID": 1107,
    "BGRI2021": "11131400320",
    "DT21": "11",
    "DTMN21": "1113",
    "DTMNFR21": "111314",
    "DTMNFRSEC21": "111314003",
    "SECNUM21": "003",
    "SSNUM21": "20",
    "SECSSNUM21": "00320",
    "OBJECTID_1": 115404,
    "DT": "11",
    "CC": "13",
    "fr": "14",
    "SEC": "003",
    "SS": "20"
  },
  "addresses": [
    {
      "id": "pt.ine.add.PTCONT.2436415",
      "street": "R TERTULIANO ROQUE",
      "house": "25",
      "postcode": "2560-193",
      "city": "SÃO PEDRO DA CADEIRA",
      "lon": "-9.363787683900036",
      "lat": "39.081909071382846"
    },
    {
      "id": "pt.ine.add.PTCONT.2468129",
      "street": "R MESTRE FÉLIX",
      "house": "6",
      "postcode": "2560-193",
      "city": "SÃO PEDRO DA CADEIRA",
      "lon": "-9.364014888478463",
      "lat": "39.08234802538342"
    },
    {
      "id": "pt.ine.add.PTCONT.2644917",
      "street": "R NSA SRA DA ESPERANÇA",
      "house": "17",
      "postcode": "2560-193",
      "city": "SÃO PEDRO DA CADEIRA",
      "lon": "-9.36379050067365",
      "lat": "39.08207117115361"
    },
    {
      "id": "pt.ine.add.PTCONT.2644918",
      "street": "R TERTULIANO ROQUE",
      "house": "21",
      "postcode": "2560-193",
      "city": "SÃO PEDRO DA CADEIRA",
      "lon": "-9.364114653189727",
      "lat": "39.08210377781872"
    },
    {
      "id": "pt.ine.add.PTCONT.2706902",
      "street": "R NSA SRA DA ESPERANÇA",
      "house": "21",
      "postcode": "2560-193",
      "city": "SÃO PEDRO DA CADEIRA",
      "lon": "-9.363805028502398",
      "lat": "39.08224215449461"
    },
    {
      "id": "pt.ine.add.PTCONT.2715117",
      "street": "R NSA SRA DA ESPERANÇA",
      "house": "23",
      "postcode": "2560-193",
      "city": "SÃO PEDRO DA CADEIRA",
      "lon": "-9.363807688857031",
      "lat": "39.082395248712885"
    },
    {
      "id": "pt.ine.add.PTCONT.2783046",
      "street": "R MESTRE FÉLIX",
      "house": "2",
      "postcode": "2560-193",
      "city": "SÃO PEDRO DA CADEIRA",
      "lon": "-9.364219739659472",
      "lat": "39.08216571857508"
    },
    {
      "id": "pt.ine.add.PTCONT.2951575",
      "street": "R TERTULIANO ROQUE",
      "house": "23",
      "postcode": "2560-193",
      "city": "SÃO PEDRO DA CADEIRA",
      "lon": "-9.363894021804354",
      "lat": "39.08204305678472"
    },
    {
      "id": "pt.ine.add.PTCONT.3306821",
      "street": "R NSA SRA DA ESPERANÇA",
      "house": "19",
      "postcode": "2560-193",
      "city": "SÃO PEDRO DA CADEIRA",
      "lon": "-9.363827042133556",
      "lat": "39.08217887175979"
    },
    {
      "id": "pt.ine.add.PTCONT.3329751",
      "street": "LG D CARMO PEREIRA",
      "house": "1",
      "postcode": "2560-193",
      "city": "SÃO PEDRO DA CADEIRA",
      "lon": "-9.363809097288271",
      "lat": "39.08247629859147"
    }
  ]
}