{
  "data": {
    "distrito": "Lisboa",
    "concelho": "Torres Vedras",
    "freguesia": "São Pedro da Cadeira",
    "OBJECTID": 1170,
    "BGRI2021": "11131400323",
    "DT21": "11",
    "DTMN21": "1113",
    "DTMNFR21": "111314",
    "DTMNFRSEC21": "111314003",
    "SECNUM21": "003",
    "SSNUM21": "23",
    "SECSSNUM21": "00323",
    "OBJECTID_1": 116664,
    "DT": "11",
    "CC": "13",
    "fr": "14",
    "SEC": "003",
    "SS": "23"
  },
  "addresses": [
    {
      "id": "pt.ine.add.PTCONT.2345754",
      "street": "R S RITA",
      "house": "11",
      "postcode": "2560-193",
      "city": "SÃO PEDRO DA CADEIRA",
      "lon": "-9.363784918415654",
      "lat": "39.083080035782714"
    },
    {
      "id": "pt.ine.add.PTCONT.2624575",
      "street": "AV AFONSO ALBUQUERQUE",
      "house": "26",
      "postcode": "2560-193",
      "city": "SÃO PEDRO DA CADEIRA",
      "lon": "-9.364108449423188",
      "lat": "39.08307662022357"
    },
    {
      "id": "pt.ine.add.PTCONT.2867748",
      "street": "LG CARMO PEREIRA",
      "house": "5",
      "postcode": "2560-193",
      "city": "SÃO PEDRO DA CADEIRA",
      "lon": "-9.363837996836203",
      "lat": "39.082809259692205"
    },
    {
      "id": "pt.ine.add.PTCONT.3004101",
      "street": "R NSA SRA DA ESPERANÇA",
      "house": "33",
      "postcode": "2560-193",
      "city": "SÃO PEDRO DA CADEIRA",
      "lon": "-9.363718407061606",
      "lat": "39.08324286731396"
    },
    {
      "id": "pt.ine.add.PTCONT.3032223",
      "street": "R S RITA",
      "house": "13",
      "postcode": "2560-193",
      "city": "SÃO PEDRO DA CADEIRA",
      "lon": "-9.363692950418807",
      "lat": "39.08310802811622"
    },
    {
      "id": "pt.ine.add.PTCONT.3227474",
      "street": "R NSA SRA DA ESPERANÇA",
      "house": "31",
      "postcode": "2560-193",
      "city": "SÃO PEDRO DA CADEIRA",
      "lon": "-9.363810375221574",
      "lat": "39.083214874958344"
    },
    {
      "id": "pt.ine.add.PTCONT.3301368",
      "street": "R S RITA",
      "house": "9",
      "postcode": "2560-193",
      "city": "SÃO PEDRO DA CADEIRA",
      "lon": "-9.363865331663273",
      "lat": "39.08305216535438"
    },
    {
      "id": "pt.ine.add.PTCONT.3306628",
      "street": "R S RITA",
      "house": "1",
      "postcode": "2560-193",
      "city": "SÃO PEDRO DA CADEIRA",
      "lon": "-9.364279421249487",
      "lat": "39.082939706996925"
    }
  ]
}