{
  "data": {
    "distrito": "Évora",
    "concelho": "Évora",
    "freguesia": "Torre de Coelheiros",
    "OBJECTID": 81,
    "BGRI2021": "07051300106",
    "DT21": "07",
    "DTMN21": "0705",
    "DTMNFR21": "070513",
    "DTMNFRSEC21": "070513001",
    "SECNUM21": "001",
    "SSNUM21": "06",
    "SECSSNUM21": "00106",
    "OBJECTID_1": 61377,
    "DT": "07",
    "CC": "05",
    "fr": "13",
    "SEC": "001",
    "SS": "06"
  },
  "addresses": [
    {
      "id": "pt.ine.add.PTCONT.1379109",
      "street": "MTE DA TRAVE",
      "house": "1",
      "postcode": "7005-774",
      "city": "TORRE DE COELHEIROS",
      "lon": "-7.900986753092069",
      "lat": "38.39493387860189"
    },
    {
      "id": "pt.ine.add.PTCONT.1379110",
      "street": "MTE DA TRAVE",
      "house": "1",
      "postcode": "7005-774",
      "city": "TORRE DE COELHEIROS",
      "lon": "-7.900986753092069",
      "lat": "38.39493387860189"
    },
    {
      "id": "pt.ine.add.PTCONT.1379111",
      "street": "MTE DA TRAVE",
      "house": "1",
      "postcode": "7005-774",
      "city": "TORRE DE COELHEIROS",
      "lon": "-7.900986753092069",
      "lat": "38.39493387860189"
    },
    {
      "id": "pt.ine.add.PTCONT.1394989",
      "street": "MTE MURTEIRAS DE BAIXO",
      "house": "C",
      "postcode": "7005-774",
      "city": "TORRE DE COELHEIROS",
      "lon": "-7.8833029735759315",
      "lat": "38.39109586802255"
    },
    {
      "id": "pt.ine.add.PTCONT.1401680",
      "street": "MTE DA FORNALHA",
      "house": "",
      "postcode": "7005-774",
      "city": "TORRE DE COELHEIROS",
      "lon": "-7.92509388249607",
      "lat": "38.394988145692196"
    },
    {
      "id": "pt.ine.add.PTCONT.1402177",
      "street": "MTE DA FORNALHA",
      "house": "",
      "postcode": "7005-774",
      "city": "TORRE DE COELHEIROS",
      "lon": "-7.92509388249607",
      "lat": "38.394988145692196"
    },
    {
      "id": "pt.ine.add.PTCONT.1402514",
      "street": "MTE MALHADA DAS MURTEIRAS",
      "house": "",
      "postcode": "7005-789",
      "city": "TORRE DE COELHEIROS",
      "lon": "-7.875400421880365",
      "lat": "38.39238501855184"
    },
    {
      "id": "pt.ine.add.PTCONT.1445732",
      "street": "MTE GANHOTEIRA",
      "house": "",
      "postcode": "7005-774",
      "city": "TORRE DE COELHEIROS",
      "lon": "-7.910088849375279",
      "lat": "38.383177203737795"
    },
    {
      "id": "pt.ine.add.PTCONT.1445733",
      "street": "MTE GANHOTEIRA",
      "house": "",
      "postcode": "7005-774",
      "city": "TORRE DE COELHEIROS",
      "lon": "-7.910088849375279",
      "lat": "38.383177203737795"
    }
  ]
}