{
  "data": {
    "distrito": "Lisboa",
    "concelho": "Sintra",
    "freguesia": "Casal de Cambra",
    "OBJECTID": 434,
    "BGRI2021": "11111500602",
    "DT21": "11",
    "DTMN21": "1111",
    "DTMNFR21": "111115",
    "DTMNFRSEC21": "111115006",
    "SECNUM21": "006",
    "SSNUM21": "02",
    "SECSSNUM21": "00602",
    "OBJECTID_1": 112974,
    "DT": "11",
    "CC": "11",
    "fr": "15",
    "SEC": "006",
    "SS": "02"
  },
  "addresses": [
    {
      "id": "pt.ine.add.PTCONT.2409743",
      "street": "R BORDEUS",
      "house": "4",
      "postcode": "2605-725",
      "city": "CASAL DE CAMBRA",
      "lon": "-9.233560809528088",
      "lat": "38.795736804338816"
    },
    {
      "id": "pt.ine.add.PTCONT.2509407",
      "street": "R LYON",
      "house": "1",
      "postcode": "2605-810",
      "city": "CASAL DE CAMBRA",
      "lon": "-9.233366269954548",
      "lat": "38.79581069810872"
    },
    {
      "id": "pt.ine.add.PTCONT.2545576",
      "street": "R EDIMBURGO",
      "house": "18",
      "postcode": "2605-751",
      "city": "CASAL DE CAMBRA",
      "lon": "-9.233867516669704",
      "lat": "38.796220331403255"
    },
    {
      "id": "pt.ine.add.PTCONT.2574397",
      "street": "R ESTRASBURGO",
      "house": "1",
      "postcode": "2605-756",
      "city": "CASAL DE CAMBRA",
      "lon": "-9.233363500252858",
      "lat": "38.79563057003323"
    },
    {
      "id": "pt.ine.add.PTCONT.2661850",
      "street": "R LYON",
      "house": "7",
      "postcode": "2605-810",
      "city": "CASAL DE CAMBRA",
      "lon": "-9.233668404775178",
      "lat": "38.79599701442012"
    },
    {
      "id": "pt.ine.add.PTCONT.2661851",
      "street": "R LYON",
      "house": "7",
      "postcode": "2605-810",
      "city": "CASAL DE CAMBRA",
      "lon": "-9.233668404775178",
      "lat": "38.79599701442012"
    },
    {
      "id": "pt.ine.add.PTCONT.2867264",
      "street": "R ESTRASBURGO",
      "house": "3",
      "postcode": "2605-756",
      "city": "CASAL DE CAMBRA",
      "lon": "-9.23336460813056",
      "lat": "38.79570262126411"
    },
    {
      "id": "pt.ine.add.PTCONT.3049588",
      "street": "R LYON",
      "house": "3",
      "postcode": "2605-810",
      "city": "CASAL DE CAMBRA",
      "lon": "-9.233470956118452",
      "lat": "38.79588177391054"
    },
    {
      "id": "pt.ine.add.PTCONT.3217266",
      "street": "R EDIMBURGO",
      "house": "16",
      "postcode": "2605-751",
      "city": "CASAL DE CAMBRA",
      "lon": "-9.233923397726775",
      "lat": "38.796111712443896"
    },
    {
      "id": "pt.ine.add.PTCONT.3217267",
      "street": "R EDIMBURGO",
      "house": "16",
      "postcode": "2605-751",
      "city": "CASAL DE CAMBRA",
      "lon": "-9.233923397726775",
      "lat": "38.796111712443896"
    },
    {
      "id": "pt.ine.add.PTCONT.3219801",
      "street": "R EDIMBURGO",
      "house": "16",
      "postcode": "2605-751",
      "city": "CASAL DE CAMBRA",
      "lon": "-9.233923397726775",
      "lat": "38.796111712443896"
    },
    {
      "id": "pt.ine.add.PTCONT.3374035",
      "street": "R LYON",
      "house": "5",
      "postcode": "2605-810",
      "city": "CASAL DE CAMBRA",
      "lon": "-9.233564133781652",
      "lat": "38.79595295801042"
    },
    {
      "id": "pt.ine.add.PTCONT.3374036",
      "street": "R LYON",
      "house": "5",
      "postcode": "2605-810",
      "city": "CASAL DE CAMBRA",
      "lon": "-9.233564133781652",
      "lat": "38.79595295801042"
    },
    {
      "id": "pt.ine.add.PTCONT.3449930",
      "street": "R LYON",
      "house": "9",
      "postcode": "2605-810",
      "city": "CASAL DE CAMBRA",
      "lon": "-9.23376255254249",
      "lat": "38.79613124316999"
    },
    {
      "id": "pt.ine.add.PTCONT.3454000",
      "street": "R EDIMBURGO",
      "house": "18",
      "postcode": "2605-751",
      "city": "CASAL DE CAMBRA",
      "lon": "-9.233867516669704",
      "lat": "38.796220331403255"
    }
  ]
}