{
  "data": {
    "distrito": "Viseu",
    "concelho": "São João da Pesqueira",
    "freguesia": "União das freguesias de São João da Pesqueira e Várzea de Trevões",
    "OBJECTID": 30,
    "BGRI2021": "18151500223",
    "DT21": "18",
    "DTMN21": "1815",
    "DTMNFR21": "181515",
    "DTMNFRSEC21": "181515002",
    "SECNUM21": "002",
    "SSNUM21": "23",
    "SECSSNUM21": "00223",
    "OBJECTID_1": 196219,
    "DT": "18",
    "CC": "15",
    "fr": "15",
    "SEC": "002",
    "SS": "23"
  },
  "addresses": [
    {
      "id": "pt.ine.add.PTCONT.5457176",
      "street": "TV FERNANDO O MAGNO",
      "house": "26",
      "postcode": "5130-372",
      "city": "SÃO JOÃO DA PESQUEIRA",
      "lon": "-7.39839279351467",
      "lat": "41.1407207375086"
    },
    {
      "id": "pt.ine.add.PTCONT.5475195",
      "street": "CAM SERRADO",
      "house": "6",
      "postcode": "5130-372",
      "city": "SÃO JOÃO DA PESQUEIRA",
      "lon": "-7.396770788772213",
      "lat": "41.13984596651211"
    },
    {
      "id": "pt.ine.add.PTCONT.5513002",
      "street": "AV FERNANDO O MAGNO",
      "house": "5",
      "postcode": "5130-326",
      "city": "SÃO JOÃO DA PESQUEIRA",
      "lon": "-7.395973735655327",
      "lat": "41.139759829992215"
    },
    {
      "id": "pt.ine.add.PTCONT.5516396",
      "street": "QTA DO ADOVISO",
      "house": "",
      "postcode": "5130-326",
      "city": "SÃO JOÃO DA PESQUEIRA",
      "lon": "-7.396469717737982",
      "lat": "41.140141183999624"
    },
    {
      "id": "pt.ine.add.PTCONT.5524869",
      "street": "AV FERNANDO O MAGNO",
      "house": "1",
      "postcode": "5130-326",
      "city": "SÃO JOÃO DA PESQUEIRA",
      "lon": "-7.39621596362955",
      "lat": "41.139401207168916"
    },
    {
      "id": "pt.ine.add.PTCONT.5528722",
      "street": "CAM SERRADO",
      "house": "8",
      "postcode": "5130-372",
      "city": "SÃO JOÃO DA PESQUEIRA",
      "lon": "-7.396982951393688",
      "lat": "41.140045417434436"
    },
    {
      "id": "pt.ine.add.PTCONT.5528723",
      "street": "CAM SERRADO",
      "house": "8",
      "postcode": "5130-372",
      "city": "SÃO JOÃO DA PESQUEIRA",
      "lon": "-7.396982951393688",
      "lat": "41.140045417434436"
    },
    {
      "id": "pt.ine.add.PTCONT.5584649",
      "street": "TV FERNANDO O MAGNO",
      "house": "26",
      "postcode": "5130-372",
      "city": "SÃO JOÃO DA PESQUEIRA",
      "lon": "-7.3981311751400325",
      "lat": "41.14068305131379"
    },
    {
      "id": "pt.ine.add.PTCONT.5599518",
      "street": "CAM D MARINHA",
      "house": "20",
      "postcode": "5130-579",
      "city": "SÃO JOÃO DA PESQUEIRA",
      "lon": "-7.40041839965357",
      "lat": "41.14065260048173"
    },
    {
      "id": "pt.ine.add.PTCONT.5659467",
      "street": "TV FERNANDO O MAGNO",
      "house": "26",
      "postcode": "5130-372",
      "city": "SÃO JOÃO DA PESQUEIRA",
      "lon": "-7.39836676272586",
      "lat": "41.140918666386774"
    },
    {
      "id": "pt.ine.add.PTCONT.5669813",
      "street": "AV FERNANDO O MAGNO",
      "house": "7",
      "postcode": "5130-326",
      "city": "SÃO JOÃO DA PESQUEIRA",
      "lon": "-7.396079311460163",
      "lat": "41.13990457457568"
    }
  ]
}