{
  "data": {
    "distrito": "Viseu",
    "concelho": "Viseu",
    "freguesia": "Orgens",
    "OBJECTID": 491,
    "BGRI2021": "18231900318",
    "DT21": "18",
    "DTMN21": "1823",
    "DTMNFR21": "182319",
    "DTMNFRSEC21": "182319003",
    "SECNUM21": "003",
    "SSNUM21": "18",
    "SECSSNUM21": "00318",
    "OBJECTID_1": 201871,
    "DT": "18",
    "CC": "23",
    "fr": "19",
    "SEC": "003",
    "SS": "18"
  },
  "addresses": [
    {
      "id": "pt.ine.add.PTCONT.5436728",
      "street": "AV NAMORADOS",
      "house": "33",
      "postcode": "3510-674",
      "city": "VISEU",
      "lon": "-7.936966856653688",
      "lat": "40.667723715598946"
    },
    {
      "id": "pt.ine.add.PTCONT.5436719",
      "street": "AV NAMORADOS",
      "house": "33",
      "postcode": "3510-674",
      "city": "VISEU",
      "lon": "-7.936966856653688",
      "lat": "40.667723715598946"
    },
    {
      "id": "pt.ine.add.PTCONT.5436729",
      "street": "AV NAMORADOS",
      "house": "33",
      "postcode": "3510-674",
      "city": "VISEU",
      "lon": "-7.936966856653688",
      "lat": "40.667723715598946"
    },
    {
      "id": "pt.ine.add.PTCONT.5436730",
      "street": "AV NAMORADOS",
      "house": "33",
      "postcode": "3510-674",
      "city": "VISEU",
      "lon": "-7.936966856653688",
      "lat": "40.667723715598946"
    },
    {
      "id": "pt.ine.add.PTCONT.5436731",
      "street": "AV NAMORADOS",
      "house": "33",
      "postcode": "3510-674",
      "city": "VISEU",
      "lon": "-7.936966856653688",
      "lat": "40.667723715598946"
    },
    {
      "id": "pt.ine.add.PTCONT.5436732",
      "street": "SIT SITIO DA FONTE FRIA",
      "house": "3",
      "postcode": "3510-674",
      "city": "VISEU",
      "lon": "-7.938975329380329",
      "lat": "40.668420506280626"
    },
    {
      "id": "pt.ine.add.PTCONT.5439298",
      "street": "TV S FRANCISCO",
      "house": "10",
      "postcode": "3510-685",
      "city": "VISEU",
      "lon": "-7.941340577371069",
      "lat": "40.668442469045715"
    },
    {
      "id": "pt.ine.add.PTCONT.5444066",
      "street": "R PRINCIPAL",
      "house": "10",
      "postcode": "3510-685",
      "city": "VISEU",
      "lon": "-7.94251224720362",
      "lat": "40.66814723915705"
    },
    {
      "id": "pt.ine.add.PTCONT.5451589",
      "street": "R S FRANCISCO",
      "house": "18",
      "postcode": "3510-674",
      "city": "VISEU",
      "lon": "-7.939566471992035",
      "lat": "40.66848453468699"
    },
    {
      "id": "pt.ine.add.PTCONT.5476786",
      "street": "AV CONVENTO",
      "house": "",
      "postcode": "3510-674",
      "city": "VISEU",
      "lon": "-7.937378778757553",
      "lat": "40.66840880581219"
    },
    {
      "id": "pt.ine.add.PTCONT.5476787",
      "street": "AV CONVENTO",
      "house": "",
      "postcode": "3510-674",
      "city": "VISEU",
      "lon": "-7.937378778757553",
      "lat": "40.66840880581219"
    },
    {
      "id": "pt.ine.add.PTCONT.5502180",
      "street": "R PRINCIPAL",
      "house": "4",
      "postcode": "3510-685",
      "city": "VISEU",
      "lon": "-7.942537028014657",
      "lat": "40.66775105353707"
    },
    {
      "id": "pt.ine.add.PTCONT.5540684",
      "street": "R PRINCIPAL",
      "house": "6",
      "postcode": "3510-685",
      "city": "VISEU",
      "lon": "-7.942572045828766",
      "lat": "40.66791320399843"
    },
    {
      "id": "pt.ine.add.PTCONT.5552650",
      "street": "AV DOS NAMORADOS",
      "house": "35",
      "postcode": "3510-779",
      "city": "VISEU",
      "lon": "-7.936847616154318",
      "lat": "40.66805670345559"
    },
    {
      "id": "pt.ine.add.PTCONT.5575237",
      "street": "SIT SITIO DA FONTE FRIA",
      "house": "1",
      "postcode": "3510-674",
      "city": "VISEU",
      "lon": "-7.939117690949491",
      "lat": "40.668267658040875"
    },
    {
      "id": "pt.ine.add.PTCONT.5580831",
      "street": "R OLIVAL",
      "house": "42",
      "postcode": "3510-674",
      "city": "VISEU",
      "lon": "-7.941887528769116",
      "lat": "40.66741678924081"
    },
    {
      "id": "pt.ine.add.PTCONT.5627059",
      "street": "R PRINCIPAL",
      "house": "2",
      "postcode": "3510-685",
      "city": "VISEU",
      "lon": "-7.942561219022141",
      "lat": "40.66756198533807"
    },
    {
      "id": "pt.ine.add.PTCONT.5628250",
      "street": "AV NAMORADOS",
      "house": "31",
      "postcode": "3510-674",
      "city": "VISEU",
      "lon": "-7.937239416495748",
      "lat": "40.66753507015766"
    },
    {
      "id": "pt.ine.add.PTCONT.5631193",
      "street": "R PRINCIPAL",
      "house": "8",
      "postcode": "3510-685",
      "city": "VISEU",
      "lon": "-7.942512529218015",
      "lat": "40.668048182994596"
    },
    {
      "id": "pt.ine.add.PTCONT.5640604",
      "street": "AV NAMORADOS",
      "house": "37",
      "postcode": "3510-674",
      "city": "VISEU",
      "lon": "-7.936599155374466",
      "lat": "40.66809230146326"
    },
    {
      "id": "pt.ine.add.PTCONT.5662273",
      "street": "AV NAMORADOS",
      "house": "33",
      "postcode": "3510-674",
      "city": "VISEU",
      "lon": "-7.936966856653688",
      "lat": "40.667723715598946"
    }
  ]
}