{
  "data": {
    "distrito": "Porto",
    "concelho": "Amarante",
    "freguesia": "Salvador do Monte",
    "OBJECTID": 1374,
    "BGRI2021": "13012900119",
    "DT21": "13",
    "DTMN21": "1301",
    "DTMNFR21": "130129",
    "DTMNFRSEC21": "130129001",
    "SECNUM21": "001",
    "SSNUM21": "19",
    "SECSSNUM21": "00119",
    "OBJECTID_1": 125479,
    "DT": "13",
    "CC": "01",
    "fr": "29",
    "SEC": "001",
    "SS": "19"
  },
  "addresses": [
    {
      "id": "pt.ine.add.PTCONT.3584980",
      "street": "TV VALE",
      "house": "718",
      "postcode": "4600-723",
      "city": "SALVADOR DO MONTE",
      "lon": "-8.094850825667718",
      "lat": "41.242015022563"
    },
    {
      "id": "pt.ine.add.PTCONT.3779814",
      "street": "R MOS",
      "house": "28",
      "postcode": "4600-723",
      "city": "SALVADOR DO MONTE",
      "lon": "-8.0945763707546",
      "lat": "41.24214999488683"
    },
    {
      "id": "pt.ine.add.PTCONT.3789353",
      "street": "TV VALE",
      "house": "712",
      "postcode": "4600-723",
      "city": "SALVADOR DO MONTE",
      "lon": "-8.094707710086487",
      "lat": "41.2419519451308"
    },
    {
      "id": "pt.ine.add.PTCONT.4056745",
      "street": "R VALE",
      "house": "11",
      "postcode": "4600-723",
      "city": "SALVADOR DO MONTE",
      "lon": "-8.093014274573441",
      "lat": "41.2410779550137"
    },
    {
      "id": "pt.ine.add.PTCONT.4096741",
      "street": "R VALE",
      "house": "",
      "postcode": "4600-723",
      "city": "SALVADOR DO MONTE",
      "lon": "-8.093264689388215",
      "lat": "41.24124011856894"
    },
    {
      "id": "pt.ine.add.PTCONT.4322050",
      "street": "R VALE",
      "house": "23",
      "postcode": "4600-723",
      "city": "SALVADOR DO MONTE",
      "lon": "-8.092668288850183",
      "lat": "41.24114086382348"
    },
    {
      "id": "pt.ine.add.PTCONT.4333478",
      "street": "TV VALE",
      "house": "230",
      "postcode": "4600-723",
      "city": "SALVADOR DO MONTE",
      "lon": "-8.094254474342529",
      "lat": "41.241816729242835"
    },
    {
      "id": "pt.ine.add.PTCONT.4352578",
      "street": "R IGREJA",
      "house": "658",
      "postcode": "4600-721",
      "city": "SALVADOR DO MONTE",
      "lon": "-8.09444550824323",
      "lat": "41.241537661591124"
    },
    {
      "id": "pt.ine.add.PTCONT.4365480",
      "street": "R IGREJA",
      "house": "",
      "postcode": "4600-721",
      "city": "SALVADOR DO MONTE",
      "lon": "-8.094648195252466",
      "lat": "41.24172681885916"
    }
  ]
}