{
  "data": {
    "distrito": "Guarda",
    "concelho": "Vila Nova de Foz Côa",
    "freguesia": "Muxagata",
    "OBJECTID": 383,
    "BGRI2021": "09141000122",
    "DT21": "09",
    "DTMN21": "0914",
    "DTMNFR21": "091410",
    "DTMNFRSEC21": "091410001",
    "SECNUM21": "001",
    "SSNUM21": "22",
    "SECSSNUM21": "00122",
    "OBJECTID_1": 83497,
    "DT": "09",
    "CC": "14",
    "fr": "10",
    "SEC": "001",
    "SS": "22"
  },
  "addresses": [
    {
      "id": "pt.ine.add.PTCONT.1903547",
      "street": "R DO CASTELO",
      "house": "1",
      "postcode": "5150-318",
      "city": "MUXAGATA VLF",
      "lon": "-7.167767624855777",
      "lat": "41.03718001168973"
    },
    {
      "id": "pt.ine.add.PTCONT.1910395",
      "street": "R DA PRAÇA",
      "house": "",
      "postcode": "5150-332",
      "city": "MUXAGATA VLF",
      "lon": "-7.168157385771345",
      "lat": "41.037363363839184"
    },
    {
      "id": "pt.ine.add.PTCONT.1917590",
      "street": "LG DO CASTELO",
      "house": "1",
      "postcode": "5150-330",
      "city": "MUXAGATA VLF",
      "lon": "-7.16841556246683",
      "lat": "41.03759963965687"
    },
    {
      "id": "pt.ine.add.PTCONT.1925376",
      "street": "LG DO CASTELO",
      "house": "",
      "postcode": "5150-318",
      "city": "MUXAGATA VLF",
      "lon": "-7.168381599359001",
      "lat": "41.03748229817183"
    },
    {
      "id": "pt.ine.add.PTCONT.1934515",
      "street": "LG DO CASTELO",
      "house": "",
      "postcode": "5150-318",
      "city": "MUXAGATA VLF",
      "lon": "-7.168383702739166",
      "lat": "41.037338245403255"
    },
    {
      "id": "pt.ine.add.PTCONT.1965340",
      "street": "R CASTELO",
      "house": "",
      "postcode": "5150-313",
      "city": "MUXAGATA VLF",
      "lon": "-7.167743054316514",
      "lat": "41.03723383226334"
    },
    {
      "id": "pt.ine.add.PTCONT.1849725",
      "street": "LG DO CASTELO",
      "house": "",
      "postcode": "5150-318",
      "city": "MUXAGATA VLF",
      "lon": "-7.168406038018864",
      "lat": "41.0374374807577"
    },
    {
      "id": "pt.ine.add.PTCONT.1863652",
      "street": "R DO PADRECA",
      "house": "",
      "postcode": "5150-330",
      "city": "MUXAGATA VLF",
      "lon": "-7.168167435565711",
      "lat": "41.037489509564864"
    },
    {
      "id": "pt.ine.add.PTCONT.1872655",
      "street": "R DA PRAÇA",
      "house": "",
      "postcode": "5150-332",
      "city": "MUXAGATA VLF",
      "lon": "-7.167814266601993",
      "lat": "41.037243433165585"
    }
  ]
}