{
  "data": {
    "distrito": "Coimbra",
    "concelho": "Soure",
    "freguesia": "Soure",
    "OBJECTID": 335,
    "BGRI2021": "06150900236",
    "DT21": "06",
    "DTMN21": "0615",
    "DTMNFR21": "061509",
    "DTMNFRSEC21": "061509002",
    "SECNUM21": "002",
    "SSNUM21": "36",
    "SECSSNUM21": "00236",
    "OBJECTID_1": 56709,
    "DT": "06",
    "CC": "15",
    "fr": "09",
    "SEC": "002",
    "SS": "36"
  },
  "addresses": [
    {
      "id": "pt.ine.add.PTCONT.1105703",
      "street": "R FONTE",
      "house": "",
      "postcode": "3130-537",
      "city": "SOURE",
      "lon": "-8.610943265441874",
      "lat": "40.01721860113548"
    },
    {
      "id": "pt.ine.add.PTCONT.1106008",
      "street": "R FONTE",
      "house": "",
      "postcode": "3130-537",
      "city": "SOURE",
      "lon": "-8.610943265441874",
      "lat": "40.01721860113548"
    },
    {
      "id": "pt.ine.add.PTCONT.1115949",
      "street": "BC TIA AUGUSTITA",
      "house": "",
      "postcode": "3130-537",
      "city": "SOURE",
      "lon": "-8.610162432688428",
      "lat": "40.01610505945101"
    },
    {
      "id": "pt.ine.add.PTCONT.1130522",
      "street": "R TIA AUGUSTITA",
      "house": "",
      "postcode": "3130-537",
      "city": "SOURE",
      "lon": "-8.610021941902351",
      "lat": "40.01611464382179"
    },
    {
      "id": "pt.ine.add.PTCONT.1164823",
      "street": "R S SEBASTIÃO",
      "house": "",
      "postcode": "3130-537",
      "city": "SOURE",
      "lon": "-8.611514245590264",
      "lat": "40.016792957878586"
    },
    {
      "id": "pt.ine.add.PTCONT.1224915",
      "street": "R ASSOCIAÇÃO",
      "house": "",
      "postcode": "3130-537",
      "city": "SOURE",
      "lon": "-8.609571093021463",
      "lat": "40.016972079608216"
    },
    {
      "id": "pt.ine.add.PTCONT.1224916",
      "street": "R S SEBASTIÃO",
      "house": "",
      "postcode": "3130-537",
      "city": "SOURE",
      "lon": "-8.611325770436189",
      "lat": "40.01664063178845"
    },
    {
      "id": "pt.ine.add.PTCONT.1236734",
      "street": "R FONTE",
      "house": "",
      "postcode": "3130-537",
      "city": "SOURE",
      "lon": "-8.611539998389413",
      "lat": "40.0171260779111"
    },
    {
      "id": "pt.ine.add.PTCONT.1284510",
      "street": "R ESCOLA",
      "house": "",
      "postcode": "3130-537",
      "city": "SOURE",
      "lon": "-8.609621389391613",
      "lat": "40.01578306511377"
    },
    {
      "id": "pt.ine.add.PTCONT.1290698",
      "street": "R S SEBASTIÃO",
      "house": "",
      "postcode": "3130-537",
      "city": "SOURE",
      "lon": "-8.611843339678884",
      "lat": "40.016953708952556"
    },
    {
      "id": "pt.ine.add.PTCONT.1296947",
      "street": "R ASSOCIAÇÃO",
      "house": "",
      "postcode": "3130-537",
      "city": "SOURE",
      "lon": "-8.6104394818419",
      "lat": "40.01720266506237"
    },
    {
      "id": "pt.ine.add.PTCONT.1359863",
      "street": "R S PEDRO",
      "house": "",
      "postcode": "3130-537",
      "city": "SOURE",
      "lon": "-8.610502166326393",
      "lat": "40.01611266654304"
    }
  ]
}