{
  "data": {
    "distrito": "Lisboa",
    "concelho": "Vila Franca de Xira",
    "freguesia": "Vila Franca de Xira",
    "OBJECTID": 555,
    "BGRI2021": "11140900105",
    "DT21": "11",
    "DTMN21": "1114",
    "DTMNFR21": "111409",
    "DTMNFRSEC21": "111409001",
    "SECNUM21": "001",
    "SSNUM21": "05",
    "SECSSNUM21": "00105",
    "OBJECTID_1": 117136,
    "DT": "11",
    "CC": "14",
    "fr": "09",
    "SEC": "001",
    "SS": "05"
  },
  "addresses": [
    {
      "id": "pt.ine.add.PTCONT.2319369",
      "street": "R GEN HUMBERTO DELGADO",
      "house": "3",
      "postcode": "2600-154",
      "city": "VILA FRANCA DE XIRA",
      "lon": "-8.99763707558962",
      "lat": "38.95503152029097"
    },
    {
      "id": "pt.ine.add.PTCONT.2319370",
      "street": "R GEN HUMBERTO DELGADO",
      "house": "3",
      "postcode": "2600-154",
      "city": "VILA FRANCA DE XIRA",
      "lon": "-8.99763707558962",
      "lat": "38.95503152029097"
    },
    {
      "id": "pt.ine.add.PTCONT.2319371",
      "street": "R GEN HUMBERTO DELGADO",
      "house": "3",
      "postcode": "2600-154",
      "city": "VILA FRANCA DE XIRA",
      "lon": "-8.99763707558962",
      "lat": "38.95503152029097"
    },
    {
      "id": "pt.ine.add.PTCONT.2319372",
      "street": "R GEN HUMBERTO DELGADO",
      "house": "3",
      "postcode": "2600-154",
      "city": "VILA FRANCA DE XIRA",
      "lon": "-8.99763707558962",
      "lat": "38.95503152029097"
    },
    {
      "id": "pt.ine.add.PTCONT.2319373",
      "street": "R GEN HUMBERTO DELGADO",
      "house": "3",
      "postcode": "2600-154",
      "city": "VILA FRANCA DE XIRA",
      "lon": "-8.99763707558962",
      "lat": "38.95503152029097"
    },
    {
      "id": "pt.ine.add.PTCONT.2320275",
      "street": "R GEN HUMBERTO DELGADO",
      "house": "3",
      "postcode": "2600-154",
      "city": "VILA FRANCA DE XIRA",
      "lon": "-8.99763707558962",
      "lat": "38.95503152029097"
    },
    {
      "id": "pt.ine.add.PTCONT.2337370",
      "street": "R EÇA DE QUEIRÓS",
      "house": "6",
      "postcode": "2600-031",
      "city": "VILA FRANCA DE XIRA",
      "lon": "-8.998145719762903",
      "lat": "38.95511782732971"
    },
    {
      "id": "pt.ine.add.PTCONT.2337371",
      "street": "R EÇA DE QUEIRÓS",
      "house": "6",
      "postcode": "2600-031",
      "city": "VILA FRANCA DE XIRA",
      "lon": "-8.998145719762903",
      "lat": "38.95511782732971"
    },
    {
      "id": "pt.ine.add.PTCONT.2337372",
      "street": "R EÇA DE QUEIRÓS",
      "house": "6",
      "postcode": "2600-031",
      "city": "VILA FRANCA DE XIRA",
      "lon": "-8.998145719762903",
      "lat": "38.95511782732971"
    },
    {
      "id": "pt.ine.add.PTCONT.2337373",
      "street": "R EÇA DE QUEIRÓS",
      "house": "6",
      "postcode": "2600-031",
      "city": "VILA FRANCA DE XIRA",
      "lon": "-8.998145719762903",
      "lat": "38.95511782732971"
    },
    {
      "id": "pt.ine.add.PTCONT.2337374",
      "street": "R EÇA DE QUEIRÓS",
      "house": "6",
      "postcode": "2600-031",
      "city": "VILA FRANCA DE XIRA",
      "lon": "-8.998145719762903",
      "lat": "38.95511782732971"
    },
    {
      "id": "pt.ine.add.PTCONT.2340675",
      "street": "R EÇA DE QUEIRÓS",
      "house": "6",
      "postcode": "2600-031",
      "city": "VILA FRANCA DE XIRA",
      "lon": "-8.998145719762903",
      "lat": "38.95511782732971"
    },
    {
      "id": "pt.ine.add.PTCONT.2403856",
      "street": "R CAMILO CASTELO BRANCO",
      "house": "1",
      "postcode": "2600-030",
      "city": "VILA FRANCA DE XIRA",
      "lon": "-8.997989043900578",
      "lat": "38.95551532311781"
    },
    {
      "id": "pt.ine.add.PTCONT.2403857",
      "street": "R CAMILO CASTELO BRANCO",
      "house": "1",
      "postcode": "2600-030",
      "city": "VILA FRANCA DE XIRA",
      "lon": "-8.997989043900578",
      "lat": "38.95551532311781"
    },
    {
      "id": "pt.ine.add.PTCONT.2403858",
      "street": "R CAMILO CASTELO BRANCO",
      "house": "1",
      "postcode": "2600-030",
      "city": "VILA FRANCA DE XIRA",
      "lon": "-8.997989043900578",
      "lat": "38.95551532311781"
    },
    {
      "id": "pt.ine.add.PTCONT.2403911",
      "street": "R CAMILO CASTELO BRANCO",
      "house": "1",
      "postcode": "2600-030",
      "city": "VILA FRANCA DE XIRA",
      "lon": "-8.997989043900578",
      "lat": "38.95551532311781"
    },
    {
      "id": "pt.ine.add.PTCONT.2466198",
      "street": "R RAMALHO ORTIGÃO",
      "house": "8",
      "postcode": "2600-036",
      "city": "VILA FRANCA DE XIRA",
      "lon": "-8.998128671853395",
      "lat": "38.95561337192708"
    },
    {
      "id": "pt.ine.add.PTCONT.2466199",
      "street": "R RAMALHO ORTIGÃO",
      "house": "8",
      "postcode": "2600-036",
      "city": "VILA FRANCA DE XIRA",
      "lon": "-8.998128671853395",
      "lat": "38.95561337192708"
    },
    {
      "id": "pt.ine.add.PTCONT.2466200",
      "street": "R RAMALHO ORTIGÃO",
      "house": "8",
      "postcode": "2600-036",
      "city": "VILA FRANCA DE XIRA",
      "lon": "-8.998128671853395",
      "lat": "38.95561337192708"
    },
    {
      "id": "pt.ine.add.PTCONT.2466201",
      "street": "R RAMALHO ORTIGÃO",
      "house": "8",
      "postcode": "2600-036",
      "city": "VILA FRANCA DE XIRA",
      "lon": "-8.998128671853395",
      "lat": "38.95561337192708"
    },
    {
      "id": "pt.ine.add.PTCONT.2466202",
      "street": "R RAMALHO ORTIGÃO",
      "house": "8",
      "postcode": "2600-036",
      "city": "VILA FRANCA DE XIRA",
      "lon": "-8.998128671853395",
      "lat": "38.95561337192708"
    },
    {
      "id": "pt.ine.add.PTCONT.2466203",
      "street": "R RAMALHO ORTIGÃO",
      "house": "8",
      "postcode": "2600-036",
      "city": "VILA FRANCA DE XIRA",
      "lon": "-8.998128671853395",
      "lat": "38.95561337192708"
    },
    {
      "id": "pt.ine.add.PTCONT.2466204",
      "street": "R RAMALHO ORTIGÃO",
      "house": "8",
      "postcode": "2600-036",
      "city": "VILA FRANCA DE XIRA",
      "lon": "-8.998128671853395",
      "lat": "38.95561337192708"
    },
    {
      "id": "pt.ine.add.PTCONT.2466205",
      "street": "R RAMALHO ORTIGÃO",
      "house": "8",
      "postcode": "2600-036",
      "city": "VILA FRANCA DE XIRA",
      "lon": "-8.998128671853395",
      "lat": "38.95561337192708"
    },
    {
      "id": "pt.ine.add.PTCONT.2466206",
      "street": "R RAMALHO ORTIGÃO",
      "house": "8",
      "postcode": "2600-036",
      "city": "VILA FRANCA DE XIRA",
      "lon": "-8.998128671853395",
      "lat": "38.95561337192708"
    },
    {
      "id": "pt.ine.add.PTCONT.2752059",
      "street": "R CAMILO CASTELO BRANCO",
      "house": "3",
      "postcode": "2600-030",
      "city": "VILA FRANCA DE XIRA",
      "lon": "-8.997967287102863",
      "lat": "38.95562357559969"
    },
    {
      "id": "pt.ine.add.PTCONT.2784098",
      "street": "R ANTÓNIO ALEIXO",
      "house": "2",
      "postcode": "2600-030",
      "city": "VILA FRANCA DE XIRA",
      "lon": "-8.997430098285534",
      "lat": "38.955087098970886"
    },
    {
      "id": "pt.ine.add.PTCONT.2784099",
      "street": "R ANTÓNIO ALEIXO",
      "house": "2",
      "postcode": "2600-030",
      "city": "VILA FRANCA DE XIRA",
      "lon": "-8.997430098285534",
      "lat": "38.955087098970886"
    },
    {
      "id": "pt.ine.add.PTCONT.2784226",
      "street": "R ANTÓNIO ALEIXO",
      "house": "2",
      "postcode": "2600-030",
      "city": "VILA FRANCA DE XIRA",
      "lon": "-8.997430098285534",
      "lat": "38.955087098970886"
    },
    {
      "id": "pt.ine.add.PTCONT.2784227",
      "street": "R ANTÓNIO ALEIXO",
      "house": "2",
      "postcode": "2600-030",
      "city": "VILA FRANCA DE XIRA",
      "lon": "-8.997430098285534",
      "lat": "38.955087098970886"
    },
    {
      "id": "pt.ine.add.PTCONT.2784228",
      "street": "R ANTÓNIO ALEIXO",
      "house": "2",
      "postcode": "2600-030",
      "city": "VILA FRANCA DE XIRA",
      "lon": "-8.997430098285534",
      "lat": "38.955087098970886"
    },
    {
      "id": "pt.ine.add.PTCONT.2788574",
      "street": "R ANTÓNIO ALEIXO",
      "house": "2",
      "postcode": "2600-030",
      "city": "VILA FRANCA DE XIRA",
      "lon": "-8.997430098285534",
      "lat": "38.955087098970886"
    },
    {
      "id": "pt.ine.add.PTCONT.2841022",
      "street": "R CAMILO CASTELO BRANCO",
      "house": "1",
      "postcode": "2600-030",
      "city": "VILA FRANCA DE XIRA",
      "lon": "-8.997863250427262",
      "lat": "38.95560633131886"
    },
    {
      "id": "pt.ine.add.PTCONT.2979414",
      "street": "R RAMALHO ORTIGÃO",
      "house": "2",
      "postcode": "2600-036",
      "city": "VILA FRANCA DE XIRA",
      "lon": "-8.998379272016797",
      "lat": "38.955350293698444"
    },
    {
      "id": "pt.ine.add.PTCONT.3023356",
      "street": "R GEN HUMBERTO DELGADO",
      "house": "4",
      "postcode": "2600-154",
      "city": "VILA FRANCA DE XIRA",
      "lon": "-8.997879971779954",
      "lat": "38.95508376635751"
    },
    {
      "id": "pt.ine.add.PTCONT.3023357",
      "street": "R GEN HUMBERTO DELGADO",
      "house": "4",
      "postcode": "2600-154",
      "city": "VILA FRANCA DE XIRA",
      "lon": "-8.997879971779954",
      "lat": "38.95508376635751"
    },
    {
      "id": "pt.ine.add.PTCONT.3023358",
      "street": "R GEN HUMBERTO DELGADO",
      "house": "4",
      "postcode": "2600-154",
      "city": "VILA FRANCA DE XIRA",
      "lon": "-8.997879971779954",
      "lat": "38.95508376635751"
    },
    {
      "id": "pt.ine.add.PTCONT.3023359",
      "street": "R GEN HUMBERTO DELGADO",
      "house": "4",
      "postcode": "2600-154",
      "city": "VILA FRANCA DE XIRA",
      "lon": "-8.997879971779954",
      "lat": "38.95508376635751"
    },
    {
      "id": "pt.ine.add.PTCONT.3023360",
      "street": "R GEN HUMBERTO DELGADO",
      "house": "4",
      "postcode": "2600-154",
      "city": "VILA FRANCA DE XIRA",
      "lon": "-8.997879971779954",
      "lat": "38.95508376635751"
    },
    {
      "id": "pt.ine.add.PTCONT.3023392",
      "street": "R GEN HUMBERTO DELGADO",
      "house": "4",
      "postcode": "2600-154",
      "city": "VILA FRANCA DE XIRA",
      "lon": "-8.997879971779954",
      "lat": "38.95508376635751"
    },
    {
      "id": "pt.ine.add.PTCONT.3050708",
      "street": "R ANTONIO ALEIXO",
      "house": "1",
      "postcode": "2600-030",
      "city": "VILA FRANCA DE XIRA",
      "lon": "-8.997374391474372",
      "lat": "38.95524964841017"
    },
    {
      "id": "pt.ine.add.PTCONT.3050709",
      "street": "R ANTONIO ALEIXO",
      "house": "1",
      "postcode": "2600-030",
      "city": "VILA FRANCA DE XIRA",
      "lon": "-8.997374391474372",
      "lat": "38.95524964841017"
    },
    {
      "id": "pt.ine.add.PTCONT.3050711",
      "street": "R ANTONIO ALEIXO",
      "house": "1",
      "postcode": "2600-030",
      "city": "VILA FRANCA DE XIRA",
      "lon": "-8.997374391474372",
      "lat": "38.95524964841017"
    },
    {
      "id": "pt.ine.add.PTCONT.3050712",
      "street": "R ANTONIO ALEIXO",
      "house": "1",
      "postcode": "2600-030",
      "city": "VILA FRANCA DE XIRA",
      "lon": "-8.997374391474372",
      "lat": "38.95524964841017"
    },
    {
      "id": "pt.ine.add.PTCONT.3050713",
      "street": "R ANTONIO ALEIXO",
      "house": "1",
      "postcode": "2600-030",
      "city": "VILA FRANCA DE XIRA",
      "lon": "-8.997374391474372",
      "lat": "38.95524964841017"
    },
    {
      "id": "pt.ine.add.PTCONT.3107344",
      "street": "R EÇA DE QUEIRÓS",
      "house": "4",
      "postcode": "2600-031",
      "city": "VILA FRANCA DE XIRA",
      "lon": "-8.998493310036208",
      "lat": "38.955241356901205"
    },
    {
      "id": "pt.ine.add.PTCONT.3347706",
      "street": "R CAMILO CASTELO BRANCO",
      "house": "1",
      "postcode": "2600-030",
      "city": "VILA FRANCA DE XIRA",
      "lon": "-8.997965097481213",
      "lat": "38.95544343974301"
    },
    {
      "id": "pt.ine.add.PTCONT.3367559",
      "street": "R RAMALHO ORTIGÃO",
      "house": "6",
      "postcode": "2600-036",
      "city": "VILA FRANCA DE XIRA",
      "lon": "-8.998253917407096",
      "lat": "38.95547732948275"
    },
    {
      "id": "pt.ine.add.PTCONT.3367560",
      "street": "R RAMALHO ORTIGÃO",
      "house": "6",
      "postcode": "2600-036",
      "city": "VILA FRANCA DE XIRA",
      "lon": "-8.998253917407096",
      "lat": "38.95547732948275"
    },
    {
      "id": "pt.ine.add.PTCONT.3367561",
      "street": "R RAMALHO ORTIGÃO",
      "house": "6",
      "postcode": "2600-036",
      "city": "VILA FRANCA DE XIRA",
      "lon": "-8.998253917407096",
      "lat": "38.95547732948275"
    },
    {
      "id": "pt.ine.add.PTCONT.3367562",
      "street": "R RAMALHO ORTIGÃO",
      "house": "6",
      "postcode": "2600-036",
      "city": "VILA FRANCA DE XIRA",
      "lon": "-8.998253917407096",
      "lat": "38.95547732948275"
    },
    {
      "id": "pt.ine.add.PTCONT.3367563",
      "street": "R RAMALHO ORTIGÃO",
      "house": "6",
      "postcode": "2600-036",
      "city": "VILA FRANCA DE XIRA",
      "lon": "-8.998253917407096",
      "lat": "38.95547732948275"
    },
    {
      "id": "pt.ine.add.PTCONT.3367564",
      "street": "R RAMALHO ORTIGÃO",
      "house": "6",
      "postcode": "2600-036",
      "city": "VILA FRANCA DE XIRA",
      "lon": "-8.998253917407096",
      "lat": "38.95547732948275"
    },
    {
      "id": "pt.ine.add.PTCONT.3367565",
      "street": "R RAMALHO ORTIGÃO",
      "house": "6",
      "postcode": "2600-036",
      "city": "VILA FRANCA DE XIRA",
      "lon": "-8.998253917407096",
      "lat": "38.95547732948275"
    },
    {
      "id": "pt.ine.add.PTCONT.3367566",
      "street": "R RAMALHO ORTIGÃO",
      "house": "6",
      "postcode": "2600-036",
      "city": "VILA FRANCA DE XIRA",
      "lon": "-8.998253917407096",
      "lat": "38.95547732948275"
    },
    {
      "id": "pt.ine.add.PTCONT.3367567",
      "street": "R RAMALHO ORTIGÃO",
      "house": "6",
      "postcode": "2600-036",
      "city": "VILA FRANCA DE XIRA",
      "lon": "-8.998253917407096",
      "lat": "38.95547732948275"
    },
    {
      "id": "pt.ine.add.PTCONT.3411011",
      "street": "R EÇA DE QUEIRÓS",
      "house": "8",
      "postcode": "2600-031",
      "city": "VILA FRANCA DE XIRA",
      "lon": "-8.998330283301629",
      "lat": "38.95511645918095"
    },
    {
      "id": "pt.ine.add.PTCONT.3411012",
      "street": "R EÇA DE QUEIRÓS",
      "house": "8",
      "postcode": "2600-031",
      "city": "VILA FRANCA DE XIRA",
      "lon": "-8.998330283301629",
      "lat": "38.95511645918095"
    },
    {
      "id": "pt.ine.add.PTCONT.3411013",
      "street": "R EÇA DE QUEIRÓS",
      "house": "8",
      "postcode": "2600-031",
      "city": "VILA FRANCA DE XIRA",
      "lon": "-8.998330283301629",
      "lat": "38.95511645918095"
    },
    {
      "id": "pt.ine.add.PTCONT.3411014",
      "street": "R EÇA DE QUEIRÓS",
      "house": "8",
      "postcode": "2600-031",
      "city": "VILA FRANCA DE XIRA",
      "lon": "-8.998330283301629",
      "lat": "38.95511645918095"
    },
    {
      "id": "pt.ine.add.PTCONT.3412922",
      "street": "R EÇA DE QUEIRÓS",
      "house": "8",
      "postcode": "2600-031",
      "city": "VILA FRANCA DE XIRA",
      "lon": "-8.998330283301629",
      "lat": "38.95511645918095"
    },
    {
      "id": "pt.ine.add.PTCONT.3413208",
      "street": "R EÇA DE QUEIRÓS",
      "house": "8",
      "postcode": "2600-031",
      "city": "VILA FRANCA DE XIRA",
      "lon": "-8.998330283301629",
      "lat": "38.95511645918095"
    },
    {
      "id": "pt.ine.add.PTCONT.3443554",
      "street": "R RAMALHO ORTIGÃO",
      "house": "6",
      "postcode": "2600-036",
      "city": "VILA FRANCA DE XIRA",
      "lon": "-8.998253917407096",
      "lat": "38.95547732948275"
    },
    {
      "id": "pt.ine.add.PTCONT.3447459",
      "street": "R GEN HUMBERTO DELGADO",
      "house": "1",
      "postcode": "2600-154",
      "city": "VILA FRANCA DE XIRA",
      "lon": "-8.997374391474372",
      "lat": "38.95524964841017"
    }
  ]
}