{
  "data": {
    "distrito": "Setúbal",
    "concelho": "Setúbal",
    "freguesia": "União das freguesias de Setúbal (São Julião, Nossa Senhora da Anunciada e Santa Maria da Graça)",
    "OBJECTID": 153,
    "BGRI2021": "15121000203",
    "DT21": "15",
    "DTMN21": "1512",
    "DTMNFR21": "151210",
    "DTMNFRSEC21": "151210002",
    "SECNUM21": "002",
    "SSNUM21": "03",
    "SECSSNUM21": "00203",
    "OBJECTID_1": 170076,
    "DT": "15",
    "CC": "12",
    "fr": "10",
    "SEC": "002",
    "SS": "03"
  },
  "addresses": [
    {
      "id": "pt.ine.add.PTCONT.4683631",
      "street": "R JOSE CARLOS DA MAIA",
      "house": "92",
      "postcode": "2900-432",
      "city": "SETÚBAL",
      "lon": "-8.90265509361955",
      "lat": "38.52278206172185"
    },
    {
      "id": "pt.ine.add.PTCONT.4765167",
      "street": "R MAFALDO DE SETUBAL",
      "house": "7",
      "postcode": "2900-158",
      "city": "SETÚBAL",
      "lon": "-8.902599201571533",
      "lat": "38.52291755362323"
    },
    {
      "id": "pt.ine.add.PTCONT.4765189",
      "street": "R MAFALDO DE SETUBAL",
      "house": "7",
      "postcode": "2900-158",
      "city": "SETÚBAL",
      "lon": "-8.902599201571533",
      "lat": "38.52291755362323"
    },
    {
      "id": "pt.ine.add.PTCONT.4765354",
      "street": "R MAFALDO DE SETÚBAL",
      "house": "11",
      "postcode": "2900-158",
      "city": "SETÚBAL",
      "lon": "-8.902612010608056",
      "lat": "38.523043585728296"
    },
    {
      "id": "pt.ine.add.PTCONT.4765355",
      "street": "R MAFALDO DE SETÚBAL",
      "house": "11",
      "postcode": "2900-158",
      "city": "SETÚBAL",
      "lon": "-8.902612010608056",
      "lat": "38.523043585728296"
    },
    {
      "id": "pt.ine.add.PTCONT.4841843",
      "street": "R CLUBE RECREATIVO PALHAVA",
      "house": "56",
      "postcode": "2900-326",
      "city": "SETÚBAL",
      "lon": "-8.902714726748846",
      "lat": "38.52299786913679"
    },
    {
      "id": "pt.ine.add.PTCONT.4889292",
      "street": "R MAFALDO DE SETÚBAL",
      "house": "11",
      "postcode": "2900-158",
      "city": "SETÚBAL",
      "lon": "-8.902692369935208",
      "lat": "38.523052065910285"
    },
    {
      "id": "pt.ine.add.PTCONT.4889293",
      "street": "R MAFALDO DE SETÚBAL",
      "house": "11",
      "postcode": "2900-158",
      "city": "SETÚBAL",
      "lon": "-8.902692369935208",
      "lat": "38.523052065910285"
    },
    {
      "id": "pt.ine.add.PTCONT.4982194",
      "street": "R MAFALDO DE SETÚBAL",
      "house": "5",
      "postcode": "2900-158",
      "city": "SETÚBAL",
      "lon": "-8.902598530156396",
      "lat": "38.522854499893825"
    },
    {
      "id": "pt.ine.add.PTCONT.4996665",
      "street": "R MAFALDO DE SETÚBAL",
      "house": "9",
      "postcode": "2900-158",
      "city": "SETÚBAL",
      "lon": "-8.902599872988766",
      "lat": "38.522980607351954"
    },
    {
      "id": "pt.ine.add.PTCONT.5007291",
      "street": "R MAFALDO DE SETÚBAL",
      "house": "3",
      "postcode": "2900-158",
      "city": "SETÚBAL",
      "lon": "-8.902586584412594",
      "lat": "38.5228095368652"
    }
  ]
}