{
  "data": {
    "distrito": "Guarda",
    "concelho": "Pinhel",
    "freguesia": "União das freguesias de Atalaia e Safurdão",
    "OBJECTID": 607,
    "BGRI2021": "09103500118",
    "DT21": "09",
    "DTMN21": "0910",
    "DTMNFR21": "091035",
    "DTMNFRSEC21": "091035001",
    "SECNUM21": "001",
    "SSNUM21": "18",
    "SECSSNUM21": "00118",
    "OBJECTID_1": 79921,
    "DT": "09",
    "CC": "10",
    "fr": "35",
    "SEC": "001",
    "SS": "18"
  },
  "addresses": [
    {
      "id": "pt.ine.add.PTCONT.1900014",
      "street": "R DA FONTE NOVA",
      "house": "",
      "postcode": "6400-121",
      "city": "ATALAIA PNH",
      "lon": "-7.033072443431888",
      "lat": "40.66183966237841"
    },
    {
      "id": "pt.ine.add.PTCONT.1900418",
      "street": "LG DA IGREJA",
      "house": "",
      "postcode": "6400-121",
      "city": "ATALAIA PNH",
      "lon": "-7.031424720415826",
      "lat": "40.662085093931566"
    },
    {
      "id": "pt.ine.add.PTCONT.1911442",
      "street": "R DA FONTE DO RIBEIRO",
      "house": "",
      "postcode": "6400-121",
      "city": "ATALAIA PNH",
      "lon": "-7.032293591507402",
      "lat": "40.66174218993279"
    },
    {
      "id": "pt.ine.add.PTCONT.1926985",
      "street": "TV DO FORNO",
      "house": "",
      "postcode": "6400-121",
      "city": "ATALAIA PNH",
      "lon": "-7.031290664048156",
      "lat": "40.66232694725559"
    },
    {
      "id": "pt.ine.add.PTCONT.1931132",
      "street": "R DA FONTE DO RIBEIRO",
      "house": "",
      "postcode": "6400-121",
      "city": "ATALAIA PNH",
      "lon": "-7.033465862911151",
      "lat": "40.66164530205077"
    },
    {
      "id": "pt.ine.add.PTCONT.1934228",
      "street": "R DA FONTE DO RIBEIRO",
      "house": "",
      "postcode": "6400-121",
      "city": "ATALAIA PNH",
      "lon": "-7.0320198811460415",
      "lat": "40.661847638851576"
    },
    {
      "id": "pt.ine.add.PTCONT.1941401",
      "street": "TV DA FONTE NOVA",
      "house": "",
      "postcode": "6400-121",
      "city": "ATALAIA PNH",
      "lon": "-7.031110202512543",
      "lat": "40.662514328035655"
    },
    {
      "id": "pt.ine.add.PTCONT.1943453",
      "street": "R DO CALVÁRIO",
      "house": "",
      "postcode": "6400-121",
      "city": "ATALAIA PNH",
      "lon": "-7.030841640045783",
      "lat": "40.663025044168165"
    },
    {
      "id": "pt.ine.add.PTCONT.1951531",
      "street": "R DA FONTE DO RIBEIRO",
      "house": "",
      "postcode": "6400-121",
      "city": "ATALAIA PNH",
      "lon": "-7.031852430939123",
      "lat": "40.661963105619996"
    },
    {
      "id": "pt.ine.add.PTCONT.1965083",
      "street": "R DO CALVÁRIO",
      "house": "",
      "postcode": "6400-121",
      "city": "ATALAIA PNH",
      "lon": "-7.031293034760925",
      "lat": "40.66218289131938"
    },
    {
      "id": "pt.ine.add.PTCONT.1967898",
      "street": "TV DO FORNO",
      "house": "",
      "postcode": "6400-121",
      "city": "ATALAIA PNH",
      "lon": "-7.03116134872144",
      "lat": "40.662280688550325"
    },
    {
      "id": "pt.ine.add.PTCONT.1975084",
      "street": "LG DA IGREJA",
      "house": "",
      "postcode": "6400-121",
      "city": "ATALAIA PNH",
      "lon": "-7.031522417342105",
      "lat": "40.66189692299686"
    },
    {
      "id": "pt.ine.add.PTCONT.1863428",
      "street": "TV DA FONTE NOVA",
      "house": "",
      "postcode": "6400-121",
      "city": "ATALAIA PNH",
      "lon": "-7.031487512075858",
      "lat": "40.66258096312462"
    },
    {
      "id": "pt.ine.add.PTCONT.1881897",
      "street": "R DO PASSO",
      "house": "",
      "postcode": "6400-121",
      "city": "ATALAIA PNH",
      "lon": "-7.032563305132676",
      "lat": "40.66187983486937"
    },
    {
      "id": "pt.ine.add.PTCONT.1886287",
      "street": "LG DA IGREJA",
      "house": "",
      "postcode": "6400-121",
      "city": "ATALAIA PNH",
      "lon": "-7.031518862042598",
      "lat": "40.66211300692716"
    }
  ]
}