{
  "data": {
    "distrito": "Leiria",
    "concelho": "Caldas da Rainha",
    "freguesia": "Nadadouro",
    "OBJECTID": 1138,
    "BGRI2021": "10060800118",
    "DT21": "10",
    "DTMN21": "1006",
    "DTMNFR21": "100608",
    "DTMNFRSEC21": "100608001",
    "SECNUM21": "001",
    "SSNUM21": "18",
    "SECSSNUM21": "00118",
    "OBJECTID_1": 88581,
    "DT": "10",
    "CC": "06",
    "fr": "08",
    "SEC": "001",
    "SS": "18"
  },
  "addresses": [
    {
      "id": "pt.ine.add.PTCONT.1984691",
      "street": "R ENG LUIS PAIVA E SOUSA",
      "house": "67",
      "postcode": "2500-576",
      "city": "NADADOURO",
      "lon": "-9.189141027367688",
      "lat": "39.41848604580229"
    },
    {
      "id": "pt.ine.add.PTCONT.2017594",
      "street": "R POÇO DA BOMBA",
      "house": "2",
      "postcode": "2500-576",
      "city": "NADADOURO",
      "lon": "-9.18855486484931",
      "lat": "39.41888766527912"
    },
    {
      "id": "pt.ine.add.PTCONT.2043932",
      "street": "R NSA SRA DO BOM SUCESSO",
      "house": "3",
      "postcode": "2500-573",
      "city": "NADADOURO",
      "lon": "-9.188698059976076",
      "lat": "39.41837297805542"
    },
    {
      "id": "pt.ine.add.PTCONT.2078803",
      "street": "R ENG LUIS PAIVA E SOUSA",
      "house": "",
      "postcode": "2500-617",
      "city": "NADADOURO",
      "lon": "-9.189530892312618",
      "lat": "39.41815826074791"
    },
    {
      "id": "pt.ine.add.PTCONT.2123003",
      "street": "TV 21 DE AGOSTO BRISA DA LAGOA",
      "house": "10",
      "postcode": "2500-585",
      "city": "NADADOURO",
      "lon": "-9.188203015575986",
      "lat": "39.41865668039682"
    },
    {
      "id": "pt.ine.add.PTCONT.2139845",
      "street": "R POÇO DA BOMBA",
      "house": "4",
      "postcode": "2500-576",
      "city": "NADADOURO",
      "lon": "-9.188299566724861",
      "lat": "39.41889898828912"
    },
    {
      "id": "pt.ine.add.PTCONT.2139846",
      "street": "R POÇO DA BOMBA",
      "house": "4",
      "postcode": "2500-576",
      "city": "NADADOURO",
      "lon": "-9.188299566724861",
      "lat": "39.41889898828912"
    },
    {
      "id": "pt.ine.add.PTCONT.2142070",
      "street": "R POÇO DA BOMBA",
      "house": "6",
      "postcode": "2500-576",
      "city": "NADADOURO",
      "lon": "-9.18803170755751",
      "lat": "39.41884737702908"
    },
    {
      "id": "pt.ine.add.PTCONT.2217557",
      "street": "R ENG LUIS PAIVA E SOUSA",
      "house": "60",
      "postcode": "2500-617",
      "city": "NADADOURO",
      "lon": "-9.189208244405156",
      "lat": "39.418323313067354"
    },
    {
      "id": "pt.ine.add.PTCONT.2217558",
      "street": "TV 21 DE AGOSTO",
      "house": "6",
      "postcode": "2500-585",
      "city": "NADADOURO",
      "lon": "-9.188305066664904",
      "lat": "39.41849363220718"
    }
  ]
}