{
  "data": {
    "distrito": "Lisboa",
    "concelho": "Sintra",
    "freguesia": "Casal de Cambra",
    "OBJECTID": 2649,
    "BGRI2021": "11111500405",
    "DT21": "11",
    "DTMN21": "1111",
    "DTMNFR21": "111115",
    "DTMNFRSEC21": "111115004",
    "SECNUM21": "004",
    "SSNUM21": "05",
    "SECSSNUM21": "00405",
    "OBJECTID_1": 114299,
    "DT": "11",
    "CC": "11",
    "fr": "15",
    "SEC": "004",
    "SS": "05"
  },
  "addresses": [
    {
      "id": "pt.ine.add.PTCONT.2380402",
      "street": "R FERNﾃグ LOPES",
      "house": "8",
      "postcode": "2605-760",
      "city": "CASAL DE CAMBRA",
      "lon": "-9.225747859369065",
      "lat": "38.80419630400298"
    },
    {
      "id": "pt.ine.add.PTCONT.2380403",
      "street": "R FERNﾃグ LOPES",
      "house": "8",
      "postcode": "2605-760",
      "city": "CASAL DE CAMBRA",
      "lon": "-9.225747859369065",
      "lat": "38.80419630400298"
    },
    {
      "id": "pt.ine.add.PTCONT.2380404",
      "street": "R FERNﾃグ LOPES",
      "house": "8",
      "postcode": "2605-760",
      "city": "CASAL DE CAMBRA",
      "lon": "-9.225747859369065",
      "lat": "38.80419630400298"
    },
    {
      "id": "pt.ine.add.PTCONT.2391181",
      "street": "AV CABO VERDE",
      "house": "33",
      "postcode": "2605-901",
      "city": "CASAL DE CAMBRA",
      "lon": "-9.225790231289412",
      "lat": "38.80470934661318"
    },
    {
      "id": "pt.ine.add.PTCONT.2455170",
      "street": "R PEDRO JULIAO",
      "house": "4",
      "postcode": "2605-839",
      "city": "CASAL DE CAMBRA",
      "lon": "-9.226040467933903",
      "lat": "38.803759933703894"
    },
    {
      "id": "pt.ine.add.PTCONT.2455171",
      "street": "R PEDRO JULIAO",
      "house": "4",
      "postcode": "2605-839",
      "city": "CASAL DE CAMBRA",
      "lon": "-9.226040467933903",
      "lat": "38.803759933703894"
    },
    {
      "id": "pt.ine.add.PTCONT.2455172",
      "street": "R PEDRO JULIAO",
      "house": "4A",
      "postcode": "2605-839",
      "city": "CASAL DE CAMBRA",
      "lon": "-9.226040467933903",
      "lat": "38.803759933703894"
    },
    {
      "id": "pt.ine.add.PTCONT.2457383",
      "street": "R PEDRO JULIAO",
      "house": "4",
      "postcode": "2605-839",
      "city": "CASAL DE CAMBRA",
      "lon": "-9.226040467933903",
      "lat": "38.803759933703894"
    },
    {
      "id": "pt.ine.add.PTCONT.2481945",
      "street": "R JULIO DINIS",
      "house": "27",
      "postcode": "2605-795",
      "city": "CASAL DE CAMBRA",
      "lon": "-9.225966060099896",
      "lat": "38.804521274171876"
    },
    {
      "id": "pt.ine.add.PTCONT.2784817",
      "street": "AV CABO VERDE",
      "house": "23",
      "postcode": "2605-901",
      "city": "CASAL DE CAMBRA",
      "lon": "-9.225951235740078",
      "lat": "38.80469883299189"
    },
    {
      "id": "pt.ine.add.PTCONT.2784818",
      "street": "AV CABO VERDE",
      "house": "35",
      "postcode": "2605-901",
      "city": "CASAL DE CAMBRA",
      "lon": "-9.225951235740078",
      "lat": "38.80469883299189"
    },
    {
      "id": "pt.ine.add.PTCONT.2784819",
      "street": "AV CABO VERDE",
      "house": "35 A",
      "postcode": "2605-901",
      "city": "CASAL DE CAMBRA",
      "lon": "-9.225951235740078",
      "lat": "38.80469883299189"
    },
    {
      "id": "pt.ine.add.PTCONT.2815851",
      "street": "AV CABO VERDE",
      "house": "31",
      "postcode": "2605-901",
      "city": "CASAL DE CAMBRA",
      "lon": "-9.225617028866678",
      "lat": "38.80467493558033"
    },
    {
      "id": "pt.ine.add.PTCONT.2815852",
      "street": "AV CABO VERDE",
      "house": "31",
      "postcode": "2605-901",
      "city": "CASAL DE CAMBRA",
      "lon": "-9.225617028866678",
      "lat": "38.80467493558033"
    },
    {
      "id": "pt.ine.add.PTCONT.2815853",
      "street": "AV CABO VERDE",
      "house": "31",
      "postcode": "2605-901",
      "city": "CASAL DE CAMBRA",
      "lon": "-9.225617028866678",
      "lat": "38.80467493558033"
    },
    {
      "id": "pt.ine.add.PTCONT.2815854",
      "street": "AV CABO VERDE",
      "house": "31",
      "postcode": "2605-901",
      "city": "CASAL DE CAMBRA",
      "lon": "-9.225617028866678",
      "lat": "38.80467493558033"
    },
    {
      "id": "pt.ine.add.PTCONT.3153232",
      "street": "R JULIO DINIS",
      "house": "33",
      "postcode": "2605-795",
      "city": "CASAL DE CAMBRA",
      "lon": "-9.226092335600962",
      "lat": "38.80413903568228"
    },
    {
      "id": "pt.ine.add.PTCONT.3153233",
      "street": "R JULIO DINIS",
      "house": "33",
      "postcode": "2605-795",
      "city": "CASAL DE CAMBRA",
      "lon": "-9.226092335600962",
      "lat": "38.80413903568228"
    },
    {
      "id": "pt.ine.add.PTCONT.3190396",
      "street": "R JULIO DINIS",
      "house": "37",
      "postcode": "2605-795",
      "city": "CASAL DE CAMBRA",
      "lon": "-9.226174154978487",
      "lat": "38.80380468985847"
    },
    {
      "id": "pt.ine.add.PTCONT.3190397",
      "street": "R JULIO DINIS",
      "house": "37",
      "postcode": "2605-795",
      "city": "CASAL DE CAMBRA",
      "lon": "-9.226174154978487",
      "lat": "38.80380468985847"
    },
    {
      "id": "pt.ine.add.PTCONT.3190398",
      "street": "R JULIO DINIS",
      "house": "37",
      "postcode": "2605-795",
      "city": "CASAL DE CAMBRA",
      "lon": "-9.226174154978487",
      "lat": "38.80380468985847"
    },
    {
      "id": "pt.ine.add.PTCONT.3190399",
      "street": "R JULIO DINIS",
      "house": "37",
      "postcode": "2605-795",
      "city": "CASAL DE CAMBRA",
      "lon": "-9.226174154978487",
      "lat": "38.80380468985847"
    },
    {
      "id": "pt.ine.add.PTCONT.3227031",
      "street": "R JULIO DINIS",
      "house": "29",
      "postcode": "2605-795",
      "city": "CASAL DE CAMBRA",
      "lon": "-9.226016954408138",
      "lat": "38.80435089305758"
    },
    {
      "id": "pt.ine.add.PTCONT.3227032",
      "street": "R JULIO DINIS",
      "house": "29",
      "postcode": "2605-795",
      "city": "CASAL DE CAMBRA",
      "lon": "-9.226016954408138",
      "lat": "38.80435089305758"
    },
    {
      "id": "pt.ine.add.PTCONT.3365495",
      "street": "R FERNﾃグ LOPES",
      "house": "6",
      "postcode": "2605-760",
      "city": "CASAL DE CAMBRA",
      "lon": "-9.22570498306027",
      "lat": "38.80440388208515"
    }
  ]
}