{
  "data": {
    "distrito": "Bragança",
    "concelho": "Vila Flor",
    "freguesia": "União das freguesias de Vila Flor e Nabo",
    "OBJECTID": 5,
    "BGRI2021": "04102300104",
    "DT21": "04",
    "DTMN21": "0410",
    "DTMNFR21": "041023",
    "DTMNFRSEC21": "041023001",
    "SECNUM21": "001",
    "SSNUM21": "04",
    "SECSSNUM21": "00104",
    "OBJECTID_1": 38817,
    "DT": "04",
    "CC": "10",
    "fr": "23",
    "SEC": "001",
    "SS": "04"
  },
  "addresses": [
    {
      "id": "pt.ine.add.PTCONT.855329",
      "street": "R DA PORTELA",
      "house": "4",
      "postcode": "5360-351",
      "city": "VILA FLOR",
      "lon": "-7.150491294354712",
      "lat": "41.30732167713335"
    },
    {
      "id": "pt.ine.add.PTCONT.873310",
      "street": "R DA SENHORA DO ROSÁRIO",
      "house": "10",
      "postcode": "5360-451",
      "city": "VILA FLOR",
      "lon": "-7.150902556417432",
      "lat": "41.307766382394384"
    },
    {
      "id": "pt.ine.add.PTCONT.875806",
      "street": "R DA SENHORA DO ROSÁRIO",
      "house": "12",
      "postcode": "5360-451",
      "city": "VILA FLOR",
      "lon": "-7.150510307123888",
      "lat": "41.307645982746735"
    },
    {
      "id": "pt.ine.add.PTCONT.918641",
      "street": "R DA PORTELA",
      "house": "7",
      "postcode": "5360-351",
      "city": "VILA FLOR",
      "lon": "-7.150716928779238",
      "lat": "41.30740463898026"
    },
    {
      "id": "pt.ine.add.PTCONT.922687",
      "street": "LG DO ROSSIO",
      "house": "11",
      "postcode": "5360-323",
      "city": "VILA FLOR",
      "lon": "-7.1509893761986065",
      "lat": "41.30755102769989"
    },
    {
      "id": "pt.ine.add.PTCONT.923675",
      "street": "R DA PORTELA",
      "house": "22",
      "postcode": "5360-351",
      "city": "VILA FLOR",
      "lon": "-7.150454799915632",
      "lat": "41.30736638547886"
    },
    {
      "id": "pt.ine.add.PTCONT.924983",
      "street": "R PORTELA",
      "house": "",
      "postcode": "5360-351",
      "city": "VILA FLOR",
      "lon": "-7.150926165369293",
      "lat": "41.3077845918182"
    },
    {
      "id": "pt.ine.add.PTCONT.929508",
      "street": "R FR JOSÉ",
      "house": "11",
      "postcode": "5360-387",
      "city": "VILA FLOR",
      "lon": "-7.150975409984872",
      "lat": "41.307685968238864"
    },
    {
      "id": "pt.ine.add.PTCONT.929509",
      "street": "R FR JOSÉ",
      "house": "11",
      "postcode": "5360-387",
      "city": "VILA FLOR",
      "lon": "-7.150975409984872",
      "lat": "41.307685968238864"
    },
    {
      "id": "pt.ine.add.PTCONT.932592",
      "street": "R DA PORTELA",
      "house": "11",
      "postcode": "5360-351",
      "city": "VILA FLOR",
      "lon": "-7.150562661092525",
      "lat": "41.307340294330494"
    },
    {
      "id": "pt.ine.add.PTCONT.938737",
      "street": "R DA PORTELA",
      "house": "1",
      "postcode": "5360-351",
      "city": "VILA FLOR",
      "lon": "-7.1510029370313335",
      "lat": "41.30744309563974"
    }
  ]
}