{
  "data": {
    "distrito": "Viseu",
    "concelho": "Viseu",
    "freguesia": "Cota",
    "OBJECTID": 1686,
    "BGRI2021": "18231000132",
    "DT21": "18",
    "DTMN21": "1823",
    "DTMNFR21": "182310",
    "DTMNFRSEC21": "182310001",
    "SECNUM21": "001",
    "SSNUM21": "32",
    "SECSSNUM21": "00132",
    "OBJECTID_1": 200802,
    "DT": "18",
    "CC": "23",
    "fr": "10",
    "SEC": "001",
    "SS": "32"
  },
  "addresses": [
    {
      "id": "pt.ine.add.PTCONT.5451635",
      "street": "R OUTEIRO",
      "house": "11",
      "postcode": "3505-236",
      "city": "CÔTA",
      "lon": "-7.82125403876838",
      "lat": "40.79516059353244"
    },
    {
      "id": "pt.ine.add.PTCONT.5453453",
      "street": "R OUTEIRO",
      "house": "13",
      "postcode": "3505-236",
      "city": "CÔTA",
      "lon": "-7.821002682664052",
      "lat": "40.79570021013111"
    },
    {
      "id": "pt.ine.add.PTCONT.5475035",
      "street": "R OUTEIRO",
      "house": "15",
      "postcode": "3505-236",
      "city": "CÔTA",
      "lon": "-7.821311260823904",
      "lat": "40.795592985123925"
    },
    {
      "id": "pt.ine.add.PTCONT.5486552",
      "street": "R ALEGRIA",
      "house": "13",
      "postcode": "3505-236",
      "city": "CÔTA",
      "lon": "-7.8215870272417325",
      "lat": "40.794900349810355"
    },
    {
      "id": "pt.ine.add.PTCONT.5511757",
      "street": "TV OUTEIRO",
      "house": "8",
      "postcode": "3505-236",
      "city": "CÔTA",
      "lon": "-7.821003315233041",
      "lat": "40.795565137799585"
    },
    {
      "id": "pt.ine.add.PTCONT.5512525",
      "street": "R OUTEIRO",
      "house": "15",
      "postcode": "3505-236",
      "city": "CÔTA",
      "lon": "-7.820907469253124",
      "lat": "40.79579000191919"
    },
    {
      "id": "pt.ine.add.PTCONT.5517200",
      "street": "LG ROSSIO",
      "house": "1",
      "postcode": "3505-236",
      "city": "CÔTA",
      "lon": "-7.8211083957206835",
      "lat": "40.795898604604695"
    },
    {
      "id": "pt.ine.add.PTCONT.5521211",
      "street": "R CAMPO DE FUTEBOL",
      "house": "4",
      "postcode": "3505-236",
      "city": "CÔTA",
      "lon": "-7.822150391317031",
      "lat": "40.793515108823996"
    },
    {
      "id": "pt.ine.add.PTCONT.5560513",
      "street": "R CAMPO DE FUTEBOL",
      "house": "",
      "postcode": "3505-236",
      "city": "CÔTA",
      "lon": "-7.822024928635638",
      "lat": "40.79500959043725"
    },
    {
      "id": "pt.ine.add.PTCONT.5560514",
      "street": "R CAMPO DE FUTEBOL",
      "house": "3",
      "postcode": "3505-236",
      "city": "CÔTA",
      "lon": "-7.822754374323414",
      "lat": "40.793579769443404"
    },
    {
      "id": "pt.ine.add.PTCONT.5599352",
      "street": "TV OUTEIRO",
      "house": "7",
      "postcode": "3505-236",
      "city": "CÔTA",
      "lon": "-7.821040042648719",
      "lat": "40.79531309891225"
    },
    {
      "id": "pt.ine.add.PTCONT.5640357",
      "street": "R CASTANHEIRO DO MONTE",
      "house": "3",
      "postcode": "3505-236",
      "city": "CÔTA",
      "lon": "-7.823299785332307",
      "lat": "40.79350019062445"
    },
    {
      "id": "pt.ine.add.PTCONT.5650413",
      "street": "R OUTEIRO",
      "house": "17",
      "postcode": "3505-236",
      "city": "CÔTA",
      "lon": "-7.820942467802471",
      "lat": "40.795907160772245"
    },
    {
      "id": "pt.ine.add.PTCONT.5656489",
      "street": "R CAMPO DA BOLA",
      "house": "",
      "postcode": "3505-236",
      "city": "CÔTA",
      "lon": "-7.82153735872187",
      "lat": "40.795386482306604"
    },
    {
      "id": "pt.ine.add.PTCONT.5661181",
      "street": "R ALEGRIA",
      "house": "",
      "postcode": "3505-236",
      "city": "CÔTA",
      "lon": "-7.821409758443242",
      "lat": "40.794800816786854"
    },
    {
      "id": "pt.ine.add.PTCONT.5663260",
      "street": "R OUTEIRO",
      "house": "19",
      "postcode": "3505-236",
      "city": "CÔTA",
      "lon": "-7.820753137312905",
      "lat": "40.795852618803586"
    }
  ]
}