{
  "data": {
    "distrito": "Viseu",
    "concelho": "Viseu",
    "freguesia": "Cota",
    "OBJECTID": 1701,
    "BGRI2021": "18231000149",
    "DT21": "18",
    "DTMN21": "1823",
    "DTMNFR21": "182310",
    "DTMNFRSEC21": "182310001",
    "SECNUM21": "001",
    "SSNUM21": "49",
    "SECSSNUM21": "00149",
    "OBJECTID_1": 200778,
    "DT": "18",
    "CC": "23",
    "fr": "10",
    "SEC": "001",
    "SS": "49"
  },
  "addresses": [
    {
      "id": "pt.ine.add.PTCONT.5484851",
      "street": "R SR BOA MORTE",
      "house": "35",
      "postcode": "3505-238",
      "city": "CÔTA",
      "lon": "-7.817358491005323",
      "lat": "40.80457816040723"
    },
    {
      "id": "pt.ine.add.PTCONT.5491322",
      "street": "R SENHOR DA BOA MORTE",
      "house": "33",
      "postcode": "3505-238",
      "city": "CÔTA",
      "lon": "-7.817168242132598",
      "lat": "40.80471271345919"
    },
    {
      "id": "pt.ine.add.PTCONT.5505983",
      "street": "R SENHOR DA BOA MORTE",
      "house": "39",
      "postcode": "3505-238",
      "city": "CÔTA",
      "lon": "-7.817559182158531",
      "lat": "40.80474079801266"
    },
    {
      "id": "pt.ine.add.PTCONT.5553603",
      "street": "R SENHOR DA BOA MORTE",
      "house": "37",
      "postcode": "3505-238",
      "city": "CÔTA",
      "lon": "-7.81740550905087",
      "lat": "40.804659333357456"
    },
    {
      "id": "pt.ine.add.PTCONT.5567959",
      "street": "R S MIGUEL",
      "house": "6",
      "postcode": "3505-238",
      "city": "CÔTA",
      "lon": "-7.817613364488172",
      "lat": "40.803309163477046"
    },
    {
      "id": "pt.ine.add.PTCONT.5617991",
      "street": "R SENHOR DA BOA MORTE",
      "house": "31",
      "postcode": "3505-238",
      "city": "CÔTA",
      "lon": "-7.817085074750448",
      "lat": "40.80475751031197"
    },
    {
      "id": "pt.ine.add.PTCONT.5629289",
      "street": "R ARRABALDE",
      "house": "4",
      "postcode": "3505-238",
      "city": "CÔTA",
      "lon": "-7.816801388295816",
      "lat": "40.80460364931783"
    },
    {
      "id": "pt.ine.add.PTCONT.5667613",
      "street": "R S MIGUEL",
      "house": "8",
      "postcode": "3505-238",
      "city": "CÔTA",
      "lon": "-7.817826968089794",
      "lat": "40.80324671286241"
    },
    {
      "id": "pt.ine.add.PTCONT.5669654",
      "street": "R ARRABALDE",
      "house": "12",
      "postcode": "3505-238",
      "city": "CÔTA",
      "lon": "-7.816854048015733",
      "lat": "40.80349618819622"
    }
  ]
}