{
  "data": {
    "distrito": "Viseu",
    "concelho": "Viseu",
    "freguesia": "Cota",
    "OBJECTID": 1704,
    "BGRI2021": "18231000156",
    "DT21": "18",
    "DTMN21": "1823",
    "DTMNFR21": "182310",
    "DTMNFRSEC21": "182310001",
    "SECNUM21": "001",
    "SSNUM21": "56",
    "SECSSNUM21": "00156",
    "OBJECTID_1": 201512,
    "DT": "18",
    "CC": "23",
    "fr": "10",
    "SEC": "001",
    "SS": "56"
  },
  "addresses": [
    {
      "id": "pt.ine.add.PTCONT.5453437",
      "street": "ESTR SANGUINHEDO",
      "house": "10",
      "postcode": "3505-236",
      "city": "CÔTA",
      "lon": "-7.808638136754677",
      "lat": "40.79448645760153"
    },
    {
      "id": "pt.ine.add.PTCONT.5468359",
      "street": "R ARRABALDE",
      "house": "13",
      "postcode": "3505-238",
      "city": "CÔTA",
      "lon": "-7.816629062889546",
      "lat": "40.80345955163226"
    },
    {
      "id": "pt.ine.add.PTCONT.5471528",
      "street": "R S MIGUEL",
      "house": "11",
      "postcode": "3505-238",
      "city": "CÔTA",
      "lon": "-7.817923090926117",
      "lat": "40.80296782282287"
    },
    {
      "id": "pt.ine.add.PTCONT.5493775",
      "street": "R ARRABALDE",
      "house": "11",
      "postcode": "3505-238",
      "city": "CÔTA",
      "lon": "-7.816569682938955",
      "lat": "40.80348640351959"
    },
    {
      "id": "pt.ine.add.PTCONT.5542521",
      "street": "R PONTE",
      "house": "14",
      "postcode": "3505-238",
      "city": "CÔTA",
      "lon": "-7.812672928818374",
      "lat": "40.80798711226933"
    },
    {
      "id": "pt.ine.add.PTCONT.5550500",
      "street": "R ARRABALDE",
      "house": "15",
      "postcode": "3505-238",
      "city": "CÔTA",
      "lon": "-7.8167479509211875",
      "lat": "40.80337883334621"
    },
    {
      "id": "pt.ine.add.PTCONT.5564469",
      "street": "BR MOITA DA CASA",
      "house": "1",
      "postcode": "3505-236",
      "city": "CÔTA",
      "lon": "-7.819254627997036",
      "lat": "40.79954057509102"
    },
    {
      "id": "pt.ine.add.PTCONT.5571812",
      "street": "R LUIS DE CAMÕES",
      "house": "6",
      "postcode": "3505-238",
      "city": "CÔTA",
      "lon": "-7.819467563837439",
      "lat": "40.80213457329793"
    },
    {
      "id": "pt.ine.add.PTCONT.5571813",
      "street": "R RELVA",
      "house": "2",
      "postcode": "3505-238",
      "city": "CÔTA",
      "lon": "-7.816203136654091",
      "lat": "40.8033143038394"
    },
    {
      "id": "pt.ine.add.PTCONT.5573362",
      "street": "R S MIGUEL",
      "house": "9",
      "postcode": "3505-238",
      "city": "CÔTA",
      "lon": "-7.817460505168659",
      "lat": "40.80305660754723"
    },
    {
      "id": "pt.ine.add.PTCONT.5588142",
      "street": "R S MIGUEL",
      "house": "1",
      "postcode": "3505-238",
      "city": "CÔTA",
      "lon": "-7.816842924355387",
      "lat": "40.80334307400825"
    },
    {
      "id": "pt.ine.add.PTCONT.5593869",
      "street": "BR MOITA DA CASA",
      "house": "5",
      "postcode": "3505-236",
      "city": "CÔTA",
      "lon": "-7.818889455158263",
      "lat": "40.79908032980743"
    },
    {
      "id": "pt.ine.add.PTCONT.5602085",
      "street": "R S MIGUEL",
      "house": "13",
      "postcode": "3505-238",
      "city": "CÔTA",
      "lon": "-7.8182321758417235",
      "lat": "40.802761553435246"
    },
    {
      "id": "pt.ine.add.PTCONT.5612320",
      "street": "R LAGE DA BEZERRA",
      "house": "10",
      "postcode": "3505-236",
      "city": "CÔTA",
      "lon": "-7.810678031988875",
      "lat": "40.79654530079739"
    },
    {
      "id": "pt.ine.add.PTCONT.5623613",
      "street": "BR MOITA DA CASA",
      "house": "3",
      "postcode": "3505-236",
      "city": "CÔTA",
      "lon": "-7.819125639882614",
      "lat": "40.79925206641044"
    },
    {
      "id": "pt.ine.add.PTCONT.5650325",
      "street": "R LUIS CAMOES",
      "house": "",
      "postcode": "3505-238",
      "city": "CÔTA",
      "lon": "-7.819061859567449",
      "lat": "40.802727794876155"
    }
  ]
}