{
  "data": {
    "distrito": "Lisboa",
    "concelho": "Lisboa",
    "freguesia": "Olivais",
    "OBJECTID": 332,
    "BGRI2021": "11063301908",
    "DT21": "11",
    "DTMN21": "1106",
    "DTMNFR21": "110633",
    "DTMNFRSEC21": "110633019",
    "SECNUM21": "019",
    "SSNUM21": "08",
    "SECSSNUM21": "01908",
    "OBJECTID_1": 104547,
    "DT": "11",
    "CC": "06",
    "fr": "33",
    "SEC": "019",
    "SS": "08"
  },
  "addresses": [
    {
      "id": "pt.ine.add.PTCONT.2479143",
      "street": "TV COURELAS",
      "house": "5",
      "postcode": "1800-155",
      "city": "LISBOA",
      "lon": "-9.10565077743574",
      "lat": "38.76899233939897"
    },
    {
      "id": "pt.ine.add.PTCONT.2506936",
      "street": "PC VISC DOS OLIVAIS",
      "house": "1",
      "postcode": "1800-379",
      "city": "LISBOA",
      "lon": "-9.106329685350232",
      "lat": "38.76899569549701"
    },
    {
      "id": "pt.ine.add.PTCONT.2530133",
      "street": "TV ADRO",
      "house": "ZJ",
      "postcode": "1800-044",
      "city": "LISBOA",
      "lon": "-9.106862821041425",
      "lat": "38.768432769269104"
    },
    {
      "id": "pt.ine.add.PTCONT.2530134",
      "street": "TV ADRO",
      "house": "ZJ",
      "postcode": "1800-044",
      "city": "LISBOA",
      "lon": "-9.106862821041425",
      "lat": "38.768432769269104"
    },
    {
      "id": "pt.ine.add.PTCONT.2530135",
      "street": "TV ADRO",
      "house": "ZJ",
      "postcode": "1800-044",
      "city": "LISBOA",
      "lon": "-9.106862821041425",
      "lat": "38.768432769269104"
    },
    {
      "id": "pt.ine.add.PTCONT.2530136",
      "street": "TV ADRO",
      "house": "ZJ",
      "postcode": "1800-044",
      "city": "LISBOA",
      "lon": "-9.106862821041425",
      "lat": "38.768432769269104"
    },
    {
      "id": "pt.ine.add.PTCONT.2530379",
      "street": "TV ADRO",
      "house": "ZJ",
      "postcode": "1800-044",
      "city": "LISBOA",
      "lon": "-9.106862821041425",
      "lat": "38.768432769269104"
    },
    {
      "id": "pt.ine.add.PTCONT.2739691",
      "street": "TV ADRO",
      "house": "2F",
      "postcode": "1800-379",
      "city": "LISBOA",
      "lon": "-9.106734554816418",
      "lat": "38.768307728353776"
    },
    {
      "id": "pt.ine.add.PTCONT.2739692",
      "street": "TV ADRO",
      "house": "2F",
      "postcode": "1800-379",
      "city": "LISBOA",
      "lon": "-9.106734554816418",
      "lat": "38.768307728353776"
    },
    {
      "id": "pt.ine.add.PTCONT.2739874",
      "street": "TV ADRO",
      "house": "2F",
      "postcode": "1800-379",
      "city": "LISBOA",
      "lon": "-9.106734554816418",
      "lat": "38.768307728353776"
    },
    {
      "id": "pt.ine.add.PTCONT.2739875",
      "street": "TV ADRO",
      "house": "2F",
      "postcode": "1800-379",
      "city": "LISBOA",
      "lon": "-9.106734554816418",
      "lat": "38.768307728353776"
    },
    {
      "id": "pt.ine.add.PTCONT.2739876",
      "street": "TV ADRO",
      "house": "2F",
      "postcode": "1800-379",
      "city": "LISBOA",
      "lon": "-9.106734554816418",
      "lat": "38.768307728353776"
    },
    {
      "id": "pt.ine.add.PTCONT.2882279",
      "street": "PC VISC OLIVAIS",
      "house": "35",
      "postcode": "1800-379",
      "city": "LISBOA",
      "lon": "-9.105869247085593",
      "lat": "38.76898151330069"
    },
    {
      "id": "pt.ine.add.PTCONT.2882280",
      "street": "PC VISC OLIVAIS",
      "house": "37",
      "postcode": "1800-379",
      "city": "LISBOA",
      "lon": "-9.105869247085593",
      "lat": "38.76898151330069"
    },
    {
      "id": "pt.ine.add.PTCONT.2882281",
      "street": "PC VISC OLIVAIS",
      "house": "39",
      "postcode": "1800-379",
      "city": "LISBOA",
      "lon": "-9.105869247085593",
      "lat": "38.76898151330069"
    },
    {
      "id": "pt.ine.add.PTCONT.2882446",
      "street": "PC VISC OLIVAIS",
      "house": "39",
      "postcode": "1800-379",
      "city": "LISBOA",
      "lon": "-9.105869247085593",
      "lat": "38.76898151330069"
    },
    {
      "id": "pt.ine.add.PTCONT.2887625",
      "street": "PC VISC OLIVAIS",
      "house": "35",
      "postcode": "1800-379",
      "city": "LISBOA",
      "lon": "-9.105869247085593",
      "lat": "38.76898151330069"
    },
    {
      "id": "pt.ine.add.PTCONT.2887783",
      "street": "PC VISC OLIVAIS",
      "house": "37",
      "postcode": "1800-379",
      "city": "LISBOA",
      "lon": "-9.105869247085593",
      "lat": "38.76898151330069"
    },
    {
      "id": "pt.ine.add.PTCONT.2986193",
      "street": "PC VISC OLIVAIS",
      "house": "26",
      "postcode": "1800-379",
      "city": "LISBOA",
      "lon": "-9.106122720586809",
      "lat": "38.76900642666848"
    },
    {
      "id": "pt.ine.add.PTCONT.2988225",
      "street": "PC VISC OLIVAIS",
      "house": "27",
      "postcode": "1800-379",
      "city": "LISBOA",
      "lon": "-9.106122720586809",
      "lat": "38.76900642666848"
    },
    {
      "id": "pt.ine.add.PTCONT.3010520",
      "street": "TV ADRO",
      "house": "2",
      "postcode": "1800-379",
      "city": "LISBOA",
      "lon": "-9.106560147803078",
      "lat": "38.76817406380702"
    },
    {
      "id": "pt.ine.add.PTCONT.3010516",
      "street": "TV ADRO",
      "house": "2",
      "postcode": "1800-379",
      "city": "LISBOA",
      "lon": "-9.106560147803078",
      "lat": "38.76817406380702"
    },
    {
      "id": "pt.ine.add.PTCONT.3010517",
      "street": "TV ADRO",
      "house": "2",
      "postcode": "1800-379",
      "city": "LISBOA",
      "lon": "-9.106560147803078",
      "lat": "38.76817406380702"
    },
    {
      "id": "pt.ine.add.PTCONT.3010518",
      "street": "TV ADRO",
      "house": "2",
      "postcode": "1800-379",
      "city": "LISBOA",
      "lon": "-9.106560147803078",
      "lat": "38.76817406380702"
    },
    {
      "id": "pt.ine.add.PTCONT.3010519",
      "street": "TV ADRO",
      "house": "2",
      "postcode": "1800-379",
      "city": "LISBOA",
      "lon": "-9.106560147803078",
      "lat": "38.76817406380702"
    },
    {
      "id": "pt.ine.add.PTCONT.3010521",
      "street": "TV ADRO",
      "house": "2",
      "postcode": "1800-379",
      "city": "LISBOA",
      "lon": "-9.106560147803078",
      "lat": "38.76817406380702"
    },
    {
      "id": "pt.ine.add.PTCONT.3085772",
      "street": "PC VISC DOS OLIVAIS",
      "house": "20",
      "postcode": "1800-379",
      "city": "LISBOA",
      "lon": "-9.106615592490146",
      "lat": "38.76886720464551"
    },
    {
      "id": "pt.ine.add.PTCONT.3085773",
      "street": "PC VISC DOS OLIVAIS",
      "house": "20",
      "postcode": "1800-379",
      "city": "LISBOA",
      "lon": "-9.106615592490146",
      "lat": "38.76886720464551"
    },
    {
      "id": "pt.ine.add.PTCONT.3085774",
      "street": "PC VISC DOS OLIVAIS",
      "house": "20",
      "postcode": "1800-379",
      "city": "LISBOA",
      "lon": "-9.106615592490146",
      "lat": "38.76886720464551"
    },
    {
      "id": "pt.ine.add.PTCONT.3122254",
      "street": "CCNH OLIVAIS",
      "house": "16",
      "postcode": "1800-289",
      "city": "LISBOA",
      "lon": "-9.105984540143854",
      "lat": "38.7689985692325"
    },
    {
      "id": "pt.ine.add.PTCONT.3122255",
      "street": "PC VISC OLIVAIS",
      "house": "30",
      "postcode": "1800-379",
      "city": "LISBOA",
      "lon": "-9.105984540143854",
      "lat": "38.7689985692325"
    },
    {
      "id": "pt.ine.add.PTCONT.3122256",
      "street": "PC VISC OLIVAIS",
      "house": "30",
      "postcode": "1800-379",
      "city": "LISBOA",
      "lon": "-9.105984540143854",
      "lat": "38.7689985692325"
    },
    {
      "id": "pt.ine.add.PTCONT.3122257",
      "street": "PC VISC OLIVAIS",
      "house": "30",
      "postcode": "1800-379",
      "city": "LISBOA",
      "lon": "-9.105984540143854",
      "lat": "38.7689985692325"
    },
    {
      "id": "pt.ine.add.PTCONT.3122258",
      "street": "PC VISC OLIVAIS",
      "house": "30",
      "postcode": "1800-379",
      "city": "LISBOA",
      "lon": "-9.105984540143854",
      "lat": "38.7689985692325"
    },
    {
      "id": "pt.ine.add.PTCONT.3122259",
      "street": "PC VISC OLIVAIS",
      "house": "30",
      "postcode": "1800-379",
      "city": "LISBOA",
      "lon": "-9.105984540143854",
      "lat": "38.7689985692325"
    },
    {
      "id": "pt.ine.add.PTCONT.3122260",
      "street": "PC VISC OLIVAIS",
      "house": "31",
      "postcode": "1800-379",
      "city": "LISBOA",
      "lon": "-9.105984540143854",
      "lat": "38.7689985692325"
    },
    {
      "id": "pt.ine.add.PTCONT.3122261",
      "street": "PC VISC OLIVAIS",
      "house": "32",
      "postcode": "1800-379",
      "city": "LISBOA",
      "lon": "-9.105984540143854",
      "lat": "38.7689985692325"
    },
    {
      "id": "pt.ine.add.PTCONT.3436744",
      "street": "TV ADRO",
      "house": "2F",
      "postcode": "1800-379",
      "city": "LISBOA",
      "lon": "-9.106734554816418",
      "lat": "38.768307728353776"
    },
    {
      "id": "pt.ine.add.PTCONT.3458074",
      "street": "CCNH OLIVAIS",
      "house": "36",
      "postcode": "1800-289",
      "city": "LISBOA",
      "lon": "-9.106401529285453",
      "lat": "38.770049012785975"
    }
  ]
}