{
  "data": {
    "distrito": "Setúbal",
    "concelho": "Alcácer do Sal",
    "freguesia": "União das freguesias de Alcácer do Sal (Santa Maria do Castelo e Santiago) e Santa Susana",
    "OBJECTID": 307,
    "BGRI2021": "15010700704",
    "DT21": "15",
    "DTMN21": "1501",
    "DTMNFR21": "150107",
    "DTMNFRSEC21": "150107007",
    "SECNUM21": "007",
    "SSNUM21": "04",
    "SECSSNUM21": "00704",
    "OBJECTID_1": 160348,
    "DT": "15",
    "CC": "01",
    "fr": "07",
    "SEC": "007",
    "SS": "04"
  },
  "addresses": [
    {
      "id": "pt.ine.add.PTCONT.4685909",
      "street": "R S PEDRO",
      "house": "11",
      "postcode": "7580-142",
      "city": "ALCÁCER DO SAL",
      "lon": "-8.513810612468534",
      "lat": "38.37081667895241"
    },
    {
      "id": "pt.ine.add.PTCONT.4685910",
      "street": "R S PEDRO",
      "house": "11",
      "postcode": "7580-142",
      "city": "ALCÁCER DO SAL",
      "lon": "-8.513810612468534",
      "lat": "38.37081667895241"
    },
    {
      "id": "pt.ine.add.PTCONT.4871810",
      "street": "R S PEDRO",
      "house": "15",
      "postcode": "7580-142",
      "city": "ALCÁCER DO SAL",
      "lon": "-8.513913598747125",
      "lat": "38.37081634449571"
    },
    {
      "id": "pt.ine.add.PTCONT.4871811",
      "street": "R S PEDRO",
      "house": "15",
      "postcode": "7580-142",
      "city": "ALCÁCER DO SAL",
      "lon": "-8.513913598747125",
      "lat": "38.37081634449571"
    },
    {
      "id": "pt.ine.add.PTCONT.4980125",
      "street": "AV JOÃO SOARES BRANCO",
      "house": "67",
      "postcode": "7580-246",
      "city": "ALCÁCER DO SAL",
      "lon": "-8.513592630937143",
      "lat": "38.370709282424926"
    },
    {
      "id": "pt.ine.add.PTCONT.4980126",
      "street": "AV JOÃO SOARES BRANCO",
      "house": "67",
      "postcode": "7580-246",
      "city": "ALCÁCER DO SAL",
      "lon": "-8.513592630937143",
      "lat": "38.370709282424926"
    },
    {
      "id": "pt.ine.add.PTCONT.4980127",
      "street": "AV JOÃO SOARES BRANCO",
      "house": "67",
      "postcode": "7580-246",
      "city": "ALCÁCER DO SAL",
      "lon": "-8.513592630937143",
      "lat": "38.370709282424926"
    },
    {
      "id": "pt.ine.add.PTCONT.4980128",
      "street": "AV JOÃO SOARES BRANCO",
      "house": "67",
      "postcode": "7580-246",
      "city": "ALCÁCER DO SAL",
      "lon": "-8.513592630937143",
      "lat": "38.370709282424926"
    },
    {
      "id": "pt.ine.add.PTCONT.5003645",
      "street": "R MARIA CUNHA",
      "house": "",
      "postcode": "7580-165",
      "city": "ALCÁCER DO SAL",
      "lon": "-8.51417640795081",
      "lat": "38.37074342116327"
    },
    {
      "id": "pt.ine.add.PTCONT.5026933",
      "street": "AV JOAO SOARES BRANCO",
      "house": "70",
      "postcode": "7580-246",
      "city": "ALCÁCER DO SAL",
      "lon": "-8.513764227292635",
      "lat": "38.37069971674183"
    },
    {
      "id": "pt.ine.add.PTCONT.5026934",
      "street": "AV JOAO SOARES BRANCO",
      "house": "71",
      "postcode": "7580-246",
      "city": "ALCÁCER DO SAL",
      "lon": "-8.513764227292635",
      "lat": "38.37069971674183"
    },
    {
      "id": "pt.ine.add.PTCONT.5044978",
      "street": "R S PEDRO",
      "house": "5",
      "postcode": "7580-142",
      "city": "ALCÁCER DO SAL",
      "lon": "-8.513662043225198",
      "lat": "38.37085319599803"
    },
    {
      "id": "pt.ine.add.PTCONT.5044979",
      "street": "R S PEDRO",
      "house": "3",
      "postcode": "7580-142",
      "city": "ALCÁCER DO SAL",
      "lon": "-8.513662043225198",
      "lat": "38.37085319599803"
    },
    {
      "id": "pt.ine.add.PTCONT.5067073",
      "street": "R S PEDRO",
      "house": "7",
      "postcode": "7580-142",
      "city": "ALCÁCER DO SAL",
      "lon": "-8.513730747968113",
      "lat": "38.37086198164895"
    },
    {
      "id": "pt.ine.add.PTCONT.5114353",
      "street": "TV CADEIA",
      "house": "1",
      "postcode": "7580-171",
      "city": "ALCÁCER DO SAL",
      "lon": "-8.513581942743476",
      "lat": "38.3708534559672"
    },
    {
      "id": "pt.ine.add.PTCONT.5120906",
      "street": "TV CADEIA",
      "house": "2",
      "postcode": "7580-171",
      "city": "ALCÁCER DO SAL",
      "lon": "-8.513593008302648",
      "lat": "38.37078135062895"
    }
  ]
}