{
  "data": {
    "distrito": "Santarém",
    "concelho": "Ferreira do Zêzere",
    "freguesia": "Ferreira do Zêzere",
    "OBJECTID": 277,
    "BGRI2021": "14110600116",
    "DT21": "14",
    "DTMN21": "1411",
    "DTMNFR21": "141106",
    "DTMNFRSEC21": "141106001",
    "SECNUM21": "001",
    "SSNUM21": "16",
    "SECSSNUM21": "00116",
    "OBJECTID_1": 151552,
    "DT": "14",
    "CC": "11",
    "fr": "06",
    "SEC": "001",
    "SS": "16"
  },
  "addresses": [
    {
      "id": "pt.ine.add.PTCONT.4401428",
      "street": "R NSA SRA DA PAZ CASA DO ENGENHO",
      "house": "",
      "postcode": "2240-334",
      "city": "FERREIRA DO ZÊZERE",
      "lon": "-8.275995621966763",
      "lat": "39.69393861727566"
    },
    {
      "id": "pt.ine.add.PTCONT.4403540",
      "street": "R CASTELO",
      "house": "",
      "postcode": "2240-334",
      "city": "FERREIRA DO ZÊZERE",
      "lon": "-8.275508073685685",
      "lat": "39.694965976518695"
    },
    {
      "id": "pt.ine.add.PTCONT.4465384",
      "street": "R CASTELO",
      "house": "",
      "postcode": "2240-334",
      "city": "FERREIRA DO ZÊZERE",
      "lon": "-8.275041707347157",
      "lat": "39.69495754081947"
    },
    {
      "id": "pt.ine.add.PTCONT.4527552",
      "street": "R CASTELO",
      "house": "",
      "postcode": "2240-334",
      "city": "FERREIRA DO ZÊZERE",
      "lon": "-8.274936650054638",
      "lat": "39.69489462249925"
    },
    {
      "id": "pt.ine.add.PTCONT.4581428",
      "street": "R NSA SRA DA PAZ CASA DO ALPENDRE",
      "house": "",
      "postcode": "2240-334",
      "city": "FERREIRA DO ZÊZERE",
      "lon": "-8.276194207379435",
      "lat": "39.6941275128235"
    },
    {
      "id": "pt.ine.add.PTCONT.4649836",
      "street": "R CASTELO",
      "house": "",
      "postcode": "2240-334",
      "city": "FERREIRA DO ZÊZERE",
      "lon": "-8.274329664254601",
      "lat": "39.694535095500065"
    },
    {
      "id": "pt.ine.add.PTCONT.4651966",
      "street": "R CASTELO",
      "house": "",
      "postcode": "2240-334",
      "city": "FERREIRA DO ZÊZERE",
      "lon": "-8.276067505342512",
      "lat": "39.69487522244975"
    },
    {
      "id": "pt.ine.add.PTCONT.4653970",
      "street": "R NSA SRA DA PAZ CASA DA FLOR",
      "house": "",
      "postcode": "2240-334",
      "city": "FERREIRA DO ZÊZERE",
      "lon": "-8.276322730676322",
      "lat": "39.69426245443545"
    }
  ]
}