{
  "data": {
    "distrito": "Aveiro",
    "concelho": "Oliveira de Azeméis",
    "freguesia": "Vila de Cucujães",
    "OBJECTID": 445,
    "BGRI2021": "01131900804",
    "DT21": "01",
    "DTMN21": "0113",
    "DTMNFR21": "011319",
    "DTMNFRSEC21": "011319008",
    "SECNUM21": "008",
    "SSNUM21": "04",
    "SECSSNUM21": "00804",
    "OBJECTID_1": 8827,
    "DT": "01",
    "CC": "13",
    "fr": "19",
    "SEC": "008",
    "SS": "04"
  },
  "addresses": [
    {
      "id": "pt.ine.add.PTCONT.82291",
      "street": "R DR ANTÓNIO DE CASTRO ALVES FERREIRA DA SILVA",
      "house": "1",
      "postcode": "3720-367",
      "city": "VILA DE CUCUJÃES",
      "lon": "-8.48888625856797",
      "lat": "40.87710388451263"
    },
    {
      "id": "pt.ine.add.PTCONT.101376",
      "street": "R ALDEIA",
      "house": "",
      "postcode": "3720-787",
      "city": "VILA DE CUCUJÃES",
      "lon": "-8.48932013599873",
      "lat": "40.87615704098855"
    },
    {
      "id": "pt.ine.add.PTCONT.106258",
      "street": "R FARIA DE BAIXO",
      "house": "",
      "postcode": "3720-786",
      "city": "VILA DE CUCUJÃES",
      "lon": "-8.489166493013771",
      "lat": "40.876265573032164"
    },
    {
      "id": "pt.ine.add.PTCONT.124760",
      "street": "R ALDEIA",
      "house": "24",
      "postcode": "3720-787",
      "city": "VILA DE CUCUJÃES",
      "lon": "-8.488847535068615",
      "lat": "40.876518691716306"
    },
    {
      "id": "pt.ine.add.PTCONT.138517",
      "street": "R DR EGAS MONIZ O GASCAO",
      "house": "171",
      "postcode": "3720-358",
      "city": "VILA DE CUCUJÃES",
      "lon": "-8.488837985520664",
      "lat": "40.876950951746764"
    },
    {
      "id": "pt.ine.add.PTCONT.191045",
      "street": "R FARIA DE BAIXO",
      "house": "280",
      "postcode": "3720-786",
      "city": "VILA DE CUCUJÃES",
      "lon": "-8.489231117415212",
      "lat": "40.87725590192005"
    },
    {
      "id": "pt.ine.add.PTCONT.265849",
      "street": "R ALDEIA",
      "house": "66",
      "postcode": "3720-787",
      "city": "VILA DE CUCUJÃES",
      "lon": "-8.489024134059841",
      "lat": "40.876266012398816"
    },
    {
      "id": "pt.ine.add.PTCONT.285677",
      "street": "R DR EGAS MONIZ O GASCAO",
      "house": "155",
      "postcode": "3720-358",
      "city": "VILA DE CUCUJÃES",
      "lon": "-8.488955558381909",
      "lat": "40.87675248340199"
    }
  ]
}