{
  "data": {
    "distrito": "Aveiro",
    "concelho": "Oliveira de Azeméis",
    "freguesia": "Vila de Cucujães",
    "OBJECTID": 524,
    "BGRI2021": "01131900818",
    "DT21": "01",
    "DTMN21": "0113",
    "DTMNFR21": "011319",
    "DTMNFRSEC21": "011319008",
    "SECNUM21": "008",
    "SSNUM21": "18",
    "SECSSNUM21": "00818",
    "OBJECTID_1": 9341,
    "DT": "01",
    "CC": "13",
    "fr": "19",
    "SEC": "008",
    "SS": "18"
  },
  "addresses": [
    {
      "id": "pt.ine.add.PTCONT.349425",
      "street": "R D EGAS MONIZ",
      "house": "",
      "postcode": "3720-358",
      "city": "VILA DE CUCUJÃES",
      "lon": "-8.487796132122966",
      "lat": "40.8795745574604"
    },
    {
      "id": "pt.ine.add.PTCONT.349829",
      "street": "R EGAS MONIZ",
      "house": "466",
      "postcode": "3720-358",
      "city": "VILA DE CUCUJÃES",
      "lon": "-8.488032591210901",
      "lat": "40.879420748487064"
    },
    {
      "id": "pt.ine.add.PTCONT.74155",
      "street": "R D EGAS MONIZ",
      "house": "",
      "postcode": "3720-358",
      "city": "VILA DE CUCUJÃES",
      "lon": "-8.487950121584172",
      "lat": "40.87952905982491"
    },
    {
      "id": "pt.ine.add.PTCONT.74156",
      "street": "R D EGAS MONIZ",
      "house": "",
      "postcode": "3720-358",
      "city": "VILA DE CUCUJÃES",
      "lon": "-8.487950121584172",
      "lat": "40.87952905982491"
    },
    {
      "id": "pt.ine.add.PTCONT.74157",
      "street": "R D EGAS MONIZ",
      "house": "",
      "postcode": "3720-358",
      "city": "VILA DE CUCUJÃES",
      "lon": "-8.487950121584172",
      "lat": "40.87952905982491"
    },
    {
      "id": "pt.ine.add.PTCONT.74158",
      "street": "R D EGAS MONIZ",
      "house": "",
      "postcode": "3720-358",
      "city": "VILA DE CUCUJÃES",
      "lon": "-8.487950121584172",
      "lat": "40.87952905982491"
    },
    {
      "id": "pt.ine.add.PTCONT.74159",
      "street": "R D EGAS MONIZ",
      "house": "",
      "postcode": "3720-358",
      "city": "VILA DE CUCUJÃES",
      "lon": "-8.487950121584172",
      "lat": "40.87952905982491"
    },
    {
      "id": "pt.ine.add.PTCONT.74160",
      "street": "R D EGAS MONIZ",
      "house": "",
      "postcode": "3720-358",
      "city": "VILA DE CUCUJÃES",
      "lon": "-8.487950121584172",
      "lat": "40.87952905982491"
    },
    {
      "id": "pt.ine.add.PTCONT.74161",
      "street": "R D EGAS MONIZ",
      "house": "",
      "postcode": "3720-358",
      "city": "VILA DE CUCUJÃES",
      "lon": "-8.487950121584172",
      "lat": "40.87952905982491"
    },
    {
      "id": "pt.ine.add.PTCONT.74162",
      "street": "R D EGAS MONIZ",
      "house": "",
      "postcode": "3720-358",
      "city": "VILA DE CUCUJÃES",
      "lon": "-8.487950121584172",
      "lat": "40.87952905982491"
    },
    {
      "id": "pt.ine.add.PTCONT.74734",
      "street": "R D EGAS MONIZ",
      "house": "",
      "postcode": "3720-358",
      "city": "VILA DE CUCUJÃES",
      "lon": "-8.487950121584172",
      "lat": "40.87952905982491"
    },
    {
      "id": "pt.ine.add.PTCONT.119554",
      "street": "R JOSE MARIA CASTRO LOPES",
      "house": "1368",
      "postcode": "3720-351",
      "city": "VILA DE CUCUJÃES",
      "lon": "-8.487404395368012",
      "lat": "40.87508236473858"
    },
    {
      "id": "pt.ine.add.PTCONT.127874",
      "street": "R JOSE MARIA CASTRO LOPES",
      "house": "1374",
      "postcode": "3720-351",
      "city": "VILA DE CUCUJÃES",
      "lon": "-8.487546991938625",
      "lat": "40.875126950675686"
    },
    {
      "id": "pt.ine.add.PTCONT.135635",
      "street": "R JOSE MARIA CASTRO LOPES",
      "house": "1352",
      "postcode": "3720-351",
      "city": "VILA DE CUCUJÃES",
      "lon": "-8.487143840284519",
      "lat": "40.87516420803689"
    },
    {
      "id": "pt.ine.add.PTCONT.157067",
      "street": "R D EGAS MONIZ",
      "house": "56",
      "postcode": "3720-358",
      "city": "VILA DE CUCUJÃES",
      "lon": "-8.488049375882332",
      "lat": "40.87589981910492"
    },
    {
      "id": "pt.ine.add.PTCONT.164729",
      "street": "BC DR EGAS MONIZ",
      "house": "51",
      "postcode": "3720-832",
      "city": "VILA DE CUCUJÃES",
      "lon": "-8.487750832535312",
      "lat": "40.87775572697984"
    },
    {
      "id": "pt.ine.add.PTCONT.199587",
      "street": "R DR EGAS MONIZ",
      "house": "1354",
      "postcode": "3720-358",
      "city": "VILA DE CUCUJÃES",
      "lon": "-8.487262278855818",
      "lat": "40.87512782521582"
    },
    {
      "id": "pt.ine.add.PTCONT.229172",
      "street": "BC DR EGAS MONIZ",
      "house": "19",
      "postcode": "3720-832",
      "city": "VILA DE CUCUJÃES",
      "lon": "-8.487964760474323",
      "lat": "40.87782710743568"
    },
    {
      "id": "pt.ine.add.PTCONT.229173",
      "street": "BC DR EGAS MONIZ",
      "house": "19",
      "postcode": "3720-832",
      "city": "VILA DE CUCUJÃES",
      "lon": "-8.487964760474323",
      "lat": "40.87782710743568"
    },
    {
      "id": "pt.ine.add.PTCONT.240031",
      "street": "R D EGAS MONIZ",
      "house": "",
      "postcode": "3720-358",
      "city": "VILA DE CUCUJÃES",
      "lon": "-8.487796132122966",
      "lat": "40.8795745574604"
    },
    {
      "id": "pt.ine.add.PTCONT.240032",
      "street": "R D EGAS MONIZ",
      "house": "",
      "postcode": "3720-358",
      "city": "VILA DE CUCUJÃES",
      "lon": "-8.487796132122966",
      "lat": "40.8795745574604"
    },
    {
      "id": "pt.ine.add.PTCONT.240033",
      "street": "R D EGAS MONIZ",
      "house": "",
      "postcode": "3720-358",
      "city": "VILA DE CUCUJÃES",
      "lon": "-8.487796132122966",
      "lat": "40.8795745574604"
    },
    {
      "id": "pt.ine.add.PTCONT.240034",
      "street": "R D EGAS MONIZ",
      "house": "",
      "postcode": "3720-358",
      "city": "VILA DE CUCUJÃES",
      "lon": "-8.487796132122966",
      "lat": "40.8795745574604"
    },
    {
      "id": "pt.ine.add.PTCONT.240035",
      "street": "R D EGAS MONIZ",
      "house": "",
      "postcode": "3720-358",
      "city": "VILA DE CUCUJÃES",
      "lon": "-8.487796132122966",
      "lat": "40.8795745574604"
    },
    {
      "id": "pt.ine.add.PTCONT.240036",
      "street": "R D EGAS MONIZ",
      "house": "",
      "postcode": "3720-358",
      "city": "VILA DE CUCUJÃES",
      "lon": "-8.487796132122966",
      "lat": "40.8795745574604"
    },
    {
      "id": "pt.ine.add.PTCONT.240038",
      "street": "R D EGAS MONIZ",
      "house": "",
      "postcode": "3720-358",
      "city": "VILA DE CUCUJÃES",
      "lon": "-8.487796132122966",
      "lat": "40.8795745574604"
    },
    {
      "id": "pt.ine.add.PTCONT.240039",
      "street": "R D EGAS MONIZ",
      "house": "",
      "postcode": "3720-358",
      "city": "VILA DE CUCUJÃES",
      "lon": "-8.487796132122966",
      "lat": "40.8795745574604"
    },
    {
      "id": "pt.ine.add.PTCONT.245526",
      "street": "R EGAS MONIZ",
      "house": "466",
      "postcode": "3720-358",
      "city": "VILA DE CUCUJÃES",
      "lon": "-8.488032591210901",
      "lat": "40.879420748487064"
    },
    {
      "id": "pt.ine.add.PTCONT.245527",
      "street": "R EGAS MONIZ",
      "house": "466",
      "postcode": "3720-358",
      "city": "VILA DE CUCUJÃES",
      "lon": "-8.488032591210901",
      "lat": "40.879420748487064"
    },
    {
      "id": "pt.ine.add.PTCONT.245528",
      "street": "R DR EGAS MONIZ",
      "house": "N 466",
      "postcode": "3720-358",
      "city": "VILA DE CUCUJÃES",
      "lon": "-8.488032591210901",
      "lat": "40.879420748487064"
    },
    {
      "id": "pt.ine.add.PTCONT.245529",
      "street": "R D EGAS MONIZ",
      "house": "466",
      "postcode": "3720-358",
      "city": "VILA DE CUCUJÃES",
      "lon": "-8.488032591210901",
      "lat": "40.879420748487064"
    },
    {
      "id": "pt.ine.add.PTCONT.245530",
      "street": "R DR EGAS MONIZ O GASCAO",
      "house": "466",
      "postcode": "3720-358",
      "city": "VILA DE CUCUJÃES",
      "lon": "-8.488032591210901",
      "lat": "40.879420748487064"
    },
    {
      "id": "pt.ine.add.PTCONT.245532",
      "street": "R EGAS MONIZ",
      "house": "466",
      "postcode": "3720-358",
      "city": "VILA DE CUCUJÃES",
      "lon": "-8.488032591210901",
      "lat": "40.879420748487064"
    },
    {
      "id": "pt.ine.add.PTCONT.245533",
      "street": "R EGAS MONIZ",
      "house": "466",
      "postcode": "3720-358",
      "city": "VILA DE CUCUJÃES",
      "lon": "-8.488032591210901",
      "lat": "40.879420748487064"
    },
    {
      "id": "pt.ine.add.PTCONT.245534",
      "street": "R EGAS MONIZ",
      "house": "466",
      "postcode": "3720-358",
      "city": "VILA DE CUCUJÃES",
      "lon": "-8.488032591210901",
      "lat": "40.879420748487064"
    }
  ]
}