{
  "data": {
    "distrito": "Porto",
    "concelho": "Maia",
    "freguesia": "Folgosa",
    "OBJECTID": 752,
    "BGRI2021": "13060300124",
    "DT21": "13",
    "DTMN21": "1306",
    "DTMNFR21": "130603",
    "DTMNFRSEC21": "130603001",
    "SECNUM21": "001",
    "SSNUM21": "24",
    "SECSSNUM21": "00124",
    "OBJECTID_1": 130710,
    "DT": "13",
    "CC": "06",
    "fr": "03",
    "SEC": "001",
    "SS": "24"
  },
  "addresses": [
    {
      "id": "pt.ine.add.PTCONT.3560457",
      "street": "R FONTE",
      "house": "",
      "postcode": "4425-332",
      "city": "MAIA",
      "lon": "-8.524257162479167",
      "lat": "41.277499874117694"
    },
    {
      "id": "pt.ine.add.PTCONT.3560463",
      "street": "R S BARBARA",
      "house": "",
      "postcode": "4425-374",
      "city": "MAIA",
      "lon": "-8.524079394055521",
      "lat": "41.277237413838"
    },
    {
      "id": "pt.ine.add.PTCONT.3603320",
      "street": "R GUILHERME SOUSA E SILVA",
      "house": "25",
      "postcode": "4425-338",
      "city": "MAIA",
      "lon": "-8.524862645505753",
      "lat": "41.276957564948994"
    },
    {
      "id": "pt.ine.add.PTCONT.3629934",
      "street": "R DA FONTE",
      "house": "97",
      "postcode": "4425-332",
      "city": "MAIA",
      "lon": "-8.52419021407293",
      "lat": "41.27711326516695"
    },
    {
      "id": "pt.ine.add.PTCONT.3778879",
      "street": "R DA FONTE",
      "house": "97",
      "postcode": "4425-332",
      "city": "MAIA",
      "lon": "-8.52408294429596",
      "lat": "41.277183901683635"
    },
    {
      "id": "pt.ine.add.PTCONT.3893570",
      "street": "R VILAR DE LUZ",
      "house": "29",
      "postcode": "4425-403",
      "city": "MAIA",
      "lon": "-8.524795715849036",
      "lat": "41.27774115574519"
    },
    {
      "id": "pt.ine.add.PTCONT.3945375",
      "street": "R OUTEIRINHO",
      "house": "19",
      "postcode": "4425-356",
      "city": "MAIA",
      "lon": "-8.523651401074753",
      "lat": "41.27799716014407"
    },
    {
      "id": "pt.ine.add.PTCONT.3985189",
      "street": "R S BARBARA",
      "house": "",
      "postcode": "4425-374",
      "city": "MAIA",
      "lon": "-8.524969491129879",
      "lat": "41.277240484326825"
    },
    {
      "id": "pt.ine.add.PTCONT.3985190",
      "street": "R VILAR LUZ",
      "house": "229",
      "postcode": "4425-403",
      "city": "MAIA",
      "lon": "-8.524969491129879",
      "lat": "41.277240484326825"
    },
    {
      "id": "pt.ine.add.PTCONT.4064716",
      "street": "R OUTEIRINHO",
      "house": "",
      "postcode": "4425-356",
      "city": "MAIA",
      "lon": "-8.522958544147766",
      "lat": "41.277900462556445"
    },
    {
      "id": "pt.ine.add.PTCONT.4071231",
      "street": "R S BARBARA",
      "house": "35",
      "postcode": "4425-374",
      "city": "MAIA",
      "lon": "-8.524902304986222",
      "lat": "41.27737963568006"
    },
    {
      "id": "pt.ine.add.PTCONT.4116958",
      "street": "R NSA SRA DA LUZ",
      "house": "3",
      "postcode": "4425-349",
      "city": "MAIA",
      "lon": "-8.525433983812404",
      "lat": "41.27669449832176"
    },
    {
      "id": "pt.ine.add.PTCONT.4128393",
      "street": "R DO OUTEIRINHO",
      "house": "115",
      "postcode": "4425-356",
      "city": "MAIA",
      "lon": "-8.52424834466509",
      "lat": "41.27802214608741"
    },
    {
      "id": "pt.ine.add.PTCONT.4333268",
      "street": "R VILAR DE LUZ",
      "house": "29",
      "postcode": "4425-403",
      "city": "MAIA",
      "lon": "-8.524881089894004",
      "lat": "41.27785063151362"
    },
    {
      "id": "pt.ine.add.PTCONT.4388367",
      "street": "R DO OUTEIRINHO",
      "house": "115",
      "postcode": "4425-356",
      "city": "MAIA",
      "lon": "-8.524523725312369",
      "lat": "41.2781652769025"
    }
  ]
}