{
  "data": {
    "distrito": "Porto",
    "concelho": "Valongo",
    "freguesia": "Ermesinde",
    "OBJECTID": 158,
    "BGRI2021": "13150300901",
    "DT21": "13",
    "DTMN21": "1315",
    "DTMNFR21": "131503",
    "DTMNFRSEC21": "131503009",
    "SECNUM21": "009",
    "SSNUM21": "01",
    "SECSSNUM21": "00901",
    "OBJECTID_1": 141802,
    "DT": "13",
    "CC": "15",
    "fr": "03",
    "SEC": "009",
    "SS": "01"
  },
  "addresses": [
    {
      "id": "pt.ine.add.PTCONT.3578761",
      "street": "R BARREIRA",
      "house": "5",
      "postcode": "4445-341",
      "city": "ERMESINDE",
      "lon": "-8.540350133990627",
      "lat": "41.21081282354707"
    },
    {
      "id": "pt.ine.add.PTCONT.3578762",
      "street": "R BARREIRA",
      "house": "5",
      "postcode": "4445-341",
      "city": "ERMESINDE",
      "lon": "-8.540350133990627",
      "lat": "41.21081282354707"
    },
    {
      "id": "pt.ine.add.PTCONT.3580867",
      "street": "R BARREIRA",
      "house": "5",
      "postcode": "4445-341",
      "city": "ERMESINDE",
      "lon": "-8.540350133990627",
      "lat": "41.21081282354707"
    },
    {
      "id": "pt.ine.add.PTCONT.3580865",
      "street": "R BARREIRA",
      "house": "C5",
      "postcode": "4445-341",
      "city": "ERMESINDE",
      "lon": "-8.540350133990627",
      "lat": "41.21081282354707"
    },
    {
      "id": "pt.ine.add.PTCONT.3580866",
      "street": "R BARREIRA",
      "house": "C5",
      "postcode": "4445-341",
      "city": "ERMESINDE",
      "lon": "-8.540350133990627",
      "lat": "41.21081282354707"
    },
    {
      "id": "pt.ine.add.PTCONT.3583868",
      "street": "R BARREIRA",
      "house": "ENT 5",
      "postcode": "4445-341",
      "city": "ERMESINDE",
      "lon": "-8.540350133990627",
      "lat": "41.21081282354707"
    },
    {
      "id": "pt.ine.add.PTCONT.3584517",
      "street": "R BARREIRA",
      "house": "B4",
      "postcode": "4445-341",
      "city": "ERMESINDE",
      "lon": "-8.540097956864551",
      "lat": "41.21052557824558"
    },
    {
      "id": "pt.ine.add.PTCONT.3584518",
      "street": "R BARREIRA",
      "house": "B4",
      "postcode": "4445-341",
      "city": "ERMESINDE",
      "lon": "-8.540097956864551",
      "lat": "41.21052557824558"
    },
    {
      "id": "pt.ine.add.PTCONT.3584519",
      "street": "R BARREIRA",
      "house": "B4",
      "postcode": "4445-341",
      "city": "ERMESINDE",
      "lon": "-8.540097956864551",
      "lat": "41.21052557824558"
    },
    {
      "id": "pt.ine.add.PTCONT.3584520",
      "street": "R BARREIRA",
      "house": "B4",
      "postcode": "4445-341",
      "city": "ERMESINDE",
      "lon": "-8.540097956864551",
      "lat": "41.21052557824558"
    },
    {
      "id": "pt.ine.add.PTCONT.3584521",
      "street": "R BARREIRA",
      "house": "B4",
      "postcode": "4445-341",
      "city": "ERMESINDE",
      "lon": "-8.540097956864551",
      "lat": "41.21052557824558"
    },
    {
      "id": "pt.ine.add.PTCONT.3584522",
      "street": "R BARREIRA",
      "house": "B4",
      "postcode": "4445-341",
      "city": "ERMESINDE",
      "lon": "-8.540097956864551",
      "lat": "41.21052557824558"
    },
    {
      "id": "pt.ine.add.PTCONT.3619979",
      "street": "R BARREIRA",
      "house": "C6",
      "postcode": "4445-341",
      "city": "ERMESINDE",
      "lon": "-8.540422177026361",
      "lat": "41.21089360723053"
    },
    {
      "id": "pt.ine.add.PTCONT.3619980",
      "street": "R BARREIRA",
      "house": "ENT 6",
      "postcode": "4445-341",
      "city": "ERMESINDE",
      "lon": "-8.540422177026361",
      "lat": "41.21089360723053"
    },
    {
      "id": "pt.ine.add.PTCONT.3619981",
      "street": "R BARREIRA",
      "house": "C6",
      "postcode": "4445-341",
      "city": "ERMESINDE",
      "lon": "-8.540422177026361",
      "lat": "41.21089360723053"
    },
    {
      "id": "pt.ine.add.PTCONT.3619982",
      "street": "R BARREIRA",
      "house": "C6",
      "postcode": "4445-341",
      "city": "ERMESINDE",
      "lon": "-8.540422177026361",
      "lat": "41.21089360723053"
    },
    {
      "id": "pt.ine.add.PTCONT.3622266",
      "street": "R BARREIRA",
      "house": "ENTRADA",
      "postcode": "4445-341",
      "city": "ERMESINDE",
      "lon": "-8.540422177026361",
      "lat": "41.21089360723053"
    },
    {
      "id": "pt.ine.add.PTCONT.3645895",
      "street": "R BARREIRA",
      "house": "100",
      "postcode": "4445-341",
      "city": "ERMESINDE",
      "lon": "-8.540554116726533",
      "lat": "41.211019200336146"
    },
    {
      "id": "pt.ine.add.PTCONT.3683228",
      "street": "R ALTO DA COSTA",
      "house": "200",
      "postcode": "4445-321",
      "city": "ERMESINDE",
      "lon": "-8.540781891808441",
      "lat": "41.211216488257"
    },
    {
      "id": "pt.ine.add.PTCONT.3859201",
      "street": "R ALTO DA COSTA",
      "house": "203",
      "postcode": "4445-321",
      "city": "ERMESINDE",
      "lon": "-8.540686727522358",
      "lat": "41.21125284220189"
    },
    {
      "id": "pt.ine.add.PTCONT.3891272",
      "street": "R HUMBERTO DELGADO A",
      "house": "A 2",
      "postcode": "4445-450",
      "city": "ERMESINDE",
      "lon": "-8.53978605393166",
      "lat": "41.2102205347549"
    },
    {
      "id": "pt.ine.add.PTCONT.3891273",
      "street": "R HUMBERTO DELGADO A",
      "house": "A 2",
      "postcode": "4445-450",
      "city": "ERMESINDE",
      "lon": "-8.53978605393166",
      "lat": "41.2102205347549"
    },
    {
      "id": "pt.ine.add.PTCONT.3891274",
      "street": "R HUMBERTO DELGADO",
      "house": "2",
      "postcode": "4445-450",
      "city": "ERMESINDE",
      "lon": "-8.53978605393166",
      "lat": "41.2102205347549"
    },
    {
      "id": "pt.ine.add.PTCONT.3891275",
      "street": "R HUMBERTO DELGADO",
      "house": "C",
      "postcode": "4445-450",
      "city": "ERMESINDE",
      "lon": "-8.53978605393166",
      "lat": "41.2102205347549"
    },
    {
      "id": "pt.ine.add.PTCONT.3891276",
      "street": "R HUMBERTO DELGADO",
      "house": "C",
      "postcode": "4445-450",
      "city": "ERMESINDE",
      "lon": "-8.53978605393166",
      "lat": "41.2102205347549"
    },
    {
      "id": "pt.ine.add.PTCONT.3893638",
      "street": "R HUMBERTO DELGADO A",
      "house": "A 2",
      "postcode": "4445-450",
      "city": "ERMESINDE",
      "lon": "-8.53978605393166",
      "lat": "41.2102205347549"
    },
    {
      "id": "pt.ine.add.PTCONT.3893750",
      "street": "R HUMBERTO DELGADO",
      "house": "C",
      "postcode": "4445-450",
      "city": "ERMESINDE",
      "lon": "-8.53978605393166",
      "lat": "41.2102205347549"
    },
    {
      "id": "pt.ine.add.PTCONT.3926127",
      "street": "R VIRGILIO FERREIRA",
      "house": "215",
      "postcode": "4445-300",
      "city": "ERMESINDE",
      "lon": "-8.53691279532347",
      "lat": "41.21221158596987"
    },
    {
      "id": "pt.ine.add.PTCONT.3926128",
      "street": "R VIRGILIO FERREIRA",
      "house": "215",
      "postcode": "4445-300",
      "city": "ERMESINDE",
      "lon": "-8.53691279532347",
      "lat": "41.21221158596987"
    },
    {
      "id": "pt.ine.add.PTCONT.3926206",
      "street": "R VIRGILIO FERREIRA",
      "house": "215",
      "postcode": "4445-300",
      "city": "ERMESINDE",
      "lon": "-8.53691279532347",
      "lat": "41.21221158596987"
    },
    {
      "id": "pt.ine.add.PTCONT.3926207",
      "street": "R VIRGILIO FERREIRA",
      "house": "215",
      "postcode": "4445-300",
      "city": "ERMESINDE",
      "lon": "-8.53691279532347",
      "lat": "41.21221158596987"
    },
    {
      "id": "pt.ine.add.PTCONT.3926208",
      "street": "R VIRGILIO FERREIRA",
      "house": "215",
      "postcode": "4445-300",
      "city": "ERMESINDE",
      "lon": "-8.53691279532347",
      "lat": "41.21221158596987"
    },
    {
      "id": "pt.ine.add.PTCONT.3926209",
      "street": "R VIRGILIO FERREIRA",
      "house": "215",
      "postcode": "4445-300",
      "city": "ERMESINDE",
      "lon": "-8.53691279532347",
      "lat": "41.21221158596987"
    },
    {
      "id": "pt.ine.add.PTCONT.3926210",
      "street": "R VIRGILIO FERREIRA",
      "house": "215",
      "postcode": "4445-300",
      "city": "ERMESINDE",
      "lon": "-8.53691279532347",
      "lat": "41.21221158596987"
    },
    {
      "id": "pt.ine.add.PTCONT.3926211",
      "street": "R VIRGILIO FERREIRA",
      "house": "215",
      "postcode": "4445-300",
      "city": "ERMESINDE",
      "lon": "-8.53691279532347",
      "lat": "41.21221158596987"
    },
    {
      "id": "pt.ine.add.PTCONT.3926212",
      "street": "R VIRGILIO FERREIRA",
      "house": "215",
      "postcode": "4445-300",
      "city": "ERMESINDE",
      "lon": "-8.53691279532347",
      "lat": "41.21221158596987"
    },
    {
      "id": "pt.ine.add.PTCONT.3926213",
      "street": "R BARREIRA",
      "house": "114",
      "postcode": "4445-341",
      "city": "ERMESINDE",
      "lon": "-8.540662042366655",
      "lat": "41.211117865453396"
    },
    {
      "id": "pt.ine.add.PTCONT.3926626",
      "street": "R VIRGILIO FERREIRA",
      "house": "215",
      "postcode": "4445-300",
      "city": "ERMESINDE",
      "lon": "-8.53691279532347",
      "lat": "41.21221158596987"
    },
    {
      "id": "pt.ine.add.PTCONT.3963663",
      "street": "R VIRGILIO FERREIRA",
      "house": "207",
      "postcode": "4445-300",
      "city": "ERMESINDE",
      "lon": "-8.53704301407599",
      "lat": "41.21205805664153"
    },
    {
      "id": "pt.ine.add.PTCONT.3963664",
      "street": "R VIRGILIO FERREIRA",
      "house": "207",
      "postcode": "4445-300",
      "city": "ERMESINDE",
      "lon": "-8.53704301407599",
      "lat": "41.21205805664153"
    },
    {
      "id": "pt.ine.add.PTCONT.3963665",
      "street": "R VIRGILIO FERREIRA",
      "house": "207",
      "postcode": "4445-300",
      "city": "ERMESINDE",
      "lon": "-8.53704301407599",
      "lat": "41.21205805664153"
    },
    {
      "id": "pt.ine.add.PTCONT.3963666",
      "street": "R VIRGILIO FERREIRA",
      "house": "207",
      "postcode": "4445-300",
      "city": "ERMESINDE",
      "lon": "-8.53704301407599",
      "lat": "41.21205805664153"
    },
    {
      "id": "pt.ine.add.PTCONT.3963754",
      "street": "R VIRGILIO FERREIRA",
      "house": "207",
      "postcode": "4445-300",
      "city": "ERMESINDE",
      "lon": "-8.53704301407599",
      "lat": "41.21205805664153"
    },
    {
      "id": "pt.ine.add.PTCONT.3963755",
      "street": "R VIRGILIO FERREIRA",
      "house": "207",
      "postcode": "4445-300",
      "city": "ERMESINDE",
      "lon": "-8.53704301407599",
      "lat": "41.21205805664153"
    },
    {
      "id": "pt.ine.add.PTCONT.3963756",
      "street": "R VIRGILIO FERREIRA",
      "house": "207",
      "postcode": "4445-300",
      "city": "ERMESINDE",
      "lon": "-8.53704301407599",
      "lat": "41.21205805664153"
    },
    {
      "id": "pt.ine.add.PTCONT.3963757",
      "street": "R VIRGILIO FERREIRA",
      "house": "207",
      "postcode": "4445-300",
      "city": "ERMESINDE",
      "lon": "-8.53704301407599",
      "lat": "41.21205805664153"
    },
    {
      "id": "pt.ine.add.PTCONT.3963758",
      "street": "R VIRGILIO FERREIRA",
      "house": "207",
      "postcode": "4445-300",
      "city": "ERMESINDE",
      "lon": "-8.53704301407599",
      "lat": "41.21205805664153"
    },
    {
      "id": "pt.ine.add.PTCONT.3963759",
      "street": "R VIRGILIO FERREIRA",
      "house": "207",
      "postcode": "4445-300",
      "city": "ERMESINDE",
      "lon": "-8.53704301407599",
      "lat": "41.21205805664153"
    },
    {
      "id": "pt.ine.add.PTCONT.4046700",
      "street": "R BARREIRA",
      "house": "5",
      "postcode": "4445-341",
      "city": "ERMESINDE",
      "lon": "-8.54060214571618",
      "lat": "41.211073056041876"
    },
    {
      "id": "pt.ine.add.PTCONT.4183826",
      "street": "R AMADEU VILAR",
      "house": "460",
      "postcode": "4445-642",
      "city": "ERMESINDE",
      "lon": "-8.538090461456829",
      "lat": "41.21175723681637"
    },
    {
      "id": "pt.ine.add.PTCONT.4184024",
      "street": "R AMADEU VILAR",
      "house": "460",
      "postcode": "4445-642",
      "city": "ERMESINDE",
      "lon": "-8.538090461456829",
      "lat": "41.21175723681637"
    },
    {
      "id": "pt.ine.add.PTCONT.4184025",
      "street": "R AMADEU VILAR",
      "house": "460",
      "postcode": "4445-642",
      "city": "ERMESINDE",
      "lon": "-8.538090461456829",
      "lat": "41.21175723681637"
    },
    {
      "id": "pt.ine.add.PTCONT.4184026",
      "street": "R JORGE SENA",
      "house": "65",
      "postcode": "4445-642",
      "city": "ERMESINDE",
      "lon": "-8.538090461456829",
      "lat": "41.21175723681637"
    },
    {
      "id": "pt.ine.add.PTCONT.4184027",
      "street": "R AMADEU VILAR",
      "house": "460",
      "postcode": "4445-642",
      "city": "ERMESINDE",
      "lon": "-8.538090461456829",
      "lat": "41.21175723681637"
    },
    {
      "id": "pt.ine.add.PTCONT.4184028",
      "street": "R AMADEU VILAR",
      "house": "460",
      "postcode": "4445-642",
      "city": "ERMESINDE",
      "lon": "-8.538090461456829",
      "lat": "41.21175723681637"
    },
    {
      "id": "pt.ine.add.PTCONT.4184029",
      "street": "R AMADEU VILAR",
      "house": "460",
      "postcode": "4445-642",
      "city": "ERMESINDE",
      "lon": "-8.538090461456829",
      "lat": "41.21175723681637"
    },
    {
      "id": "pt.ine.add.PTCONT.4184030",
      "street": "R AMADEU VILAR",
      "house": "460",
      "postcode": "4445-642",
      "city": "ERMESINDE",
      "lon": "-8.538090461456829",
      "lat": "41.21175723681637"
    },
    {
      "id": "pt.ine.add.PTCONT.4184031",
      "street": "R AMADEU VILAR",
      "house": "460",
      "postcode": "4445-642",
      "city": "ERMESINDE",
      "lon": "-8.538090461456829",
      "lat": "41.21175723681637"
    },
    {
      "id": "pt.ine.add.PTCONT.4269520",
      "street": "R BARREIRA A",
      "house": "A 3",
      "postcode": "4445-341",
      "city": "ERMESINDE",
      "lon": "-8.540049705515578",
      "lat": "41.21043570600771"
    },
    {
      "id": "pt.ine.add.PTCONT.4269521",
      "street": "R BARREIRA A",
      "house": "A 3",
      "postcode": "4445-341",
      "city": "ERMESINDE",
      "lon": "-8.540049705515578",
      "lat": "41.21043570600771"
    },
    {
      "id": "pt.ine.add.PTCONT.4269522",
      "street": "R BARREIRA",
      "house": "ENT 3",
      "postcode": "4445-341",
      "city": "ERMESINDE",
      "lon": "-8.540049705515578",
      "lat": "41.21043570600771"
    },
    {
      "id": "pt.ine.add.PTCONT.4269523",
      "street": "R BARREIRA A",
      "house": "A 3",
      "postcode": "4445-341",
      "city": "ERMESINDE",
      "lon": "-8.540049705515578",
      "lat": "41.21043570600771"
    },
    {
      "id": "pt.ine.add.PTCONT.4269524",
      "street": "R BARREIRA",
      "house": "ENT 3",
      "postcode": "4445-341",
      "city": "ERMESINDE",
      "lon": "-8.540049705515578",
      "lat": "41.21043570600771"
    },
    {
      "id": "pt.ine.add.PTCONT.4271768",
      "street": "R BARREIRA A",
      "house": "A 3",
      "postcode": "4445-341",
      "city": "ERMESINDE",
      "lon": "-8.540049705515578",
      "lat": "41.21043570600771"
    },
    {
      "id": "pt.ine.add.PTCONT.4289662",
      "street": "R AMADEU VILAR",
      "house": "444",
      "postcode": "4445-642",
      "city": "ERMESINDE",
      "lon": "-8.53824480139789",
      "lat": "41.21164864266061"
    },
    {
      "id": "pt.ine.add.PTCONT.4289684",
      "street": "R AMADEU VILAR",
      "house": "444",
      "postcode": "4445-642",
      "city": "ERMESINDE",
      "lon": "-8.53824480139789",
      "lat": "41.21164864266061"
    },
    {
      "id": "pt.ine.add.PTCONT.4289685",
      "street": "R AMADEU VILAR",
      "house": "444",
      "postcode": "4445-642",
      "city": "ERMESINDE",
      "lon": "-8.53824480139789",
      "lat": "41.21164864266061"
    },
    {
      "id": "pt.ine.add.PTCONT.4289686",
      "street": "R AMADEU VILAR",
      "house": "444",
      "postcode": "4445-642",
      "city": "ERMESINDE",
      "lon": "-8.53824480139789",
      "lat": "41.21164864266061"
    },
    {
      "id": "pt.ine.add.PTCONT.4289687",
      "street": "R AMADEU VILAR",
      "house": "444",
      "postcode": "4445-642",
      "city": "ERMESINDE",
      "lon": "-8.53824480139789",
      "lat": "41.21164864266061"
    },
    {
      "id": "pt.ine.add.PTCONT.4289688",
      "street": "R AMADEU VILAR",
      "house": "444",
      "postcode": "4445-642",
      "city": "ERMESINDE",
      "lon": "-8.53824480139789",
      "lat": "41.21164864266061"
    },
    {
      "id": "pt.ine.add.PTCONT.4289689",
      "street": "R AMADEU VILAR",
      "house": "444",
      "postcode": "4445-642",
      "city": "ERMESINDE",
      "lon": "-8.53824480139789",
      "lat": "41.21164864266061"
    },
    {
      "id": "pt.ine.add.PTCONT.4289690",
      "street": "R AMADEU VILAR",
      "house": "444",
      "postcode": "4445-642",
      "city": "ERMESINDE",
      "lon": "-8.53824480139789",
      "lat": "41.21164864266061"
    },
    {
      "id": "pt.ine.add.PTCONT.4289691",
      "street": "R AMADEU VILAR",
      "house": "444",
      "postcode": "4445-642",
      "city": "ERMESINDE",
      "lon": "-8.53824480139789",
      "lat": "41.21164864266061"
    },
    {
      "id": "pt.ine.add.PTCONT.4309912",
      "street": "R HUMBERTO DELGADO",
      "house": "1",
      "postcode": "4445-450",
      "city": "ERMESINDE",
      "lon": "-8.539595225435413",
      "lat": "41.21021220421314"
    },
    {
      "id": "pt.ine.add.PTCONT.4309913",
      "street": "R HUMBERTO DELGADO A",
      "house": "A1",
      "postcode": "4445-450",
      "city": "ERMESINDE",
      "lon": "-8.539595225435413",
      "lat": "41.21021220421314"
    },
    {
      "id": "pt.ine.add.PTCONT.4309934",
      "street": "R HUMBERTO DELGADO A",
      "house": "A1",
      "postcode": "4445-450",
      "city": "ERMESINDE",
      "lon": "-8.539595225435413",
      "lat": "41.21021220421314"
    },
    {
      "id": "pt.ine.add.PTCONT.4309935",
      "street": "R HUMBERTO DELGADO",
      "house": "ENT 1",
      "postcode": "4445-450",
      "city": "ERMESINDE",
      "lon": "-8.539595225435413",
      "lat": "41.21021220421314"
    },
    {
      "id": "pt.ine.add.PTCONT.4309936",
      "street": "R HUMBERTO DELGADO A",
      "house": "A1",
      "postcode": "4445-450",
      "city": "ERMESINDE",
      "lon": "-8.539595225435413",
      "lat": "41.21021220421314"
    },
    {
      "id": "pt.ine.add.PTCONT.4309937",
      "street": "R HUMBERTO DELGADO",
      "house": "ENT 1",
      "postcode": "4445-450",
      "city": "ERMESINDE",
      "lon": "-8.539595225435413",
      "lat": "41.21021220421314"
    },
    {
      "id": "pt.ine.add.PTCONT.4312524",
      "street": "R HUMBERTO DELGADO",
      "house": "1",
      "postcode": "4445-450",
      "city": "ERMESINDE",
      "lon": "-8.539595225435413",
      "lat": "41.21021220421314"
    },
    {
      "id": "pt.ine.add.PTCONT.4336193",
      "street": "R ALTO DA COSTA",
      "house": "216",
      "postcode": "4445-321",
      "city": "ERMESINDE",
      "lon": "-8.540591619000143",
      "lat": "41.2112982001447"
    },
    {
      "id": "pt.ine.add.PTCONT.4377832",
      "street": "R HUMBERTO DELGADO A",
      "house": "A 2",
      "postcode": "4445-450",
      "city": "ERMESINDE",
      "lon": "-8.53978605393166",
      "lat": "41.2102205347549"
    },
    {
      "id": "pt.ine.add.PTCONT.4378414",
      "street": "R AMADEU VILAR",
      "house": "444",
      "postcode": "4445-642",
      "city": "ERMESINDE",
      "lon": "-8.53824480139789",
      "lat": "41.21164864266061"
    },
    {
      "id": "pt.ine.add.PTCONT.4380111",
      "street": "R HUMBERTO DELGADO",
      "house": "1",
      "postcode": "4445-450",
      "city": "ERMESINDE",
      "lon": "-8.539595225435413",
      "lat": "41.21021220421314"
    },
    {
      "id": "pt.ine.add.PTCONT.4384079",
      "street": "R AMADEU VILAR",
      "house": "460",
      "postcode": "4445-642",
      "city": "ERMESINDE",
      "lon": "-8.538090461456829",
      "lat": "41.21175723681637"
    },
    {
      "id": "pt.ine.add.PTCONT.4390292",
      "street": "R BARREIRA B",
      "house": "B5",
      "postcode": "4445-341",
      "city": "ERMESINDE",
      "lon": "-8.540422177026361",
      "lat": "41.21089360723053"
    }
  ]
}