{
  "data": {
    "distrito": "Bragança",
    "concelho": "Macedo de Cavaleiros",
    "freguesia": "Talhas",
    "OBJECTID": 212,
    "BGRI2021": "04053000112",
    "DT21": "04",
    "DTMN21": "0405",
    "DTMNFR21": "040530",
    "DTMNFRSEC21": "040530001",
    "SECNUM21": "001",
    "SSNUM21": "12",
    "SECSSNUM21": "00112",
    "OBJECTID_1": 35513,
    "DT": "04",
    "CC": "05",
    "fr": "30",
    "SEC": "001",
    "SS": "12"
  },
  "addresses": [
    {
      "id": "pt.ine.add.PTCONT.855252",
      "street": "R S SEBASTIÃO",
      "house": "69",
      "postcode": "5340-440",
      "city": "TALHAS",
      "lon": "-6.695276260776204",
      "lat": "41.489730071313815"
    },
    {
      "id": "pt.ine.add.PTCONT.857502",
      "street": "R SEM NOME",
      "house": "",
      "postcode": "5340-440",
      "city": "TALHAS",
      "lon": "-6.695958636784362",
      "lat": "41.49027881202568"
    },
    {
      "id": "pt.ine.add.PTCONT.858841",
      "street": "SEM NOME",
      "house": "",
      "postcode": "5340-440",
      "city": "TALHAS",
      "lon": "-6.694082139274085",
      "lat": "41.48903987123454"
    },
    {
      "id": "pt.ine.add.PTCONT.860511",
      "street": "R S SEBASTIÃO",
      "house": "",
      "postcode": "5340-440",
      "city": "TALHAS",
      "lon": "-6.695574339883838",
      "lat": "41.489787818936136"
    },
    {
      "id": "pt.ine.add.PTCONT.865214",
      "street": "R S SEBASTIÃO",
      "house": "68",
      "postcode": "5340-440",
      "city": "TALHAS",
      "lon": "-6.695419314794505",
      "lat": "41.48975887039123"
    },
    {
      "id": "pt.ine.add.PTCONT.877487",
      "street": "R DO CEMITÉRIO",
      "house": "25",
      "postcode": "5340-440",
      "city": "TALHAS",
      "lon": "-6.695896592877271",
      "lat": "41.49037707529562"
    },
    {
      "id": "pt.ine.add.PTCONT.906388",
      "street": "R LAMEIRAO",
      "house": "8",
      "postcode": "5340-440",
      "city": "TALHAS",
      "lon": "-6.694048816801077",
      "lat": "41.48892240854463"
    },
    {
      "id": "pt.ine.add.PTCONT.909620",
      "street": "R S SEBASTIÃO",
      "house": "75",
      "postcode": "5340-440",
      "city": "TALHAS",
      "lon": "-6.694873629808444",
      "lat": "41.489526959133066"
    },
    {
      "id": "pt.ine.add.PTCONT.921729",
      "street": "R SEM NOME",
      "house": "",
      "postcode": "5340-440",
      "city": "TALHAS",
      "lon": "-6.696020083623096",
      "lat": "41.49020755180362"
    },
    {
      "id": "pt.ine.add.PTCONT.934096",
      "street": "R SEM NOME",
      "house": "24",
      "postcode": "5340-440",
      "city": "TALHAS",
      "lon": "-6.6959215298473165",
      "lat": "41.49033236937539"
    },
    {
      "id": "pt.ine.add.PTCONT.942788",
      "street": "R SEM NOME",
      "house": "",
      "postcode": "5340-440",
      "city": "TALHAS",
      "lon": "-6.695435522750346",
      "lat": "41.49065042097368"
    },
    {
      "id": "pt.ine.add.PTCONT.947714",
      "street": "R S SEBASTIÃO",
      "house": "",
      "postcode": "5340-440",
      "city": "TALHAS",
      "lon": "-6.695181488719268",
      "lat": "41.489683868752685"
    }
  ]
}