{
  "data": {
    "distrito": "Porto",
    "concelho": "Baião",
    "freguesia": "União das freguesias de Santa Cruz do Douro e São Tomé de Covelas",
    "OBJECTID": 299,
    "BGRI2021": "13022500215",
    "DT21": "13",
    "DTMN21": "1302",
    "DTMNFR21": "130225",
    "DTMNFRSEC21": "130225002",
    "SECNUM21": "002",
    "SSNUM21": "15",
    "SECSSNUM21": "00215",
    "OBJECTID_1": 126849,
    "DT": "13",
    "CC": "02",
    "fr": "25",
    "SEC": "002",
    "SS": "15"
  },
  "addresses": [
    {
      "id": "pt.ine.add.PTCONT.3623802",
      "street": "R PACO",
      "house": "208",
      "postcode": "4640-217",
      "city": "SÃO TOMÉ DE COVELAS",
      "lon": "-7.988811487490844",
      "lat": "41.138471169145305"
    },
    {
      "id": "pt.ine.add.PTCONT.3777350",
      "street": "TV PACO",
      "house": "47",
      "postcode": "4640-217",
      "city": "SÃO TOMÉ DE COVELAS",
      "lon": "-7.988728370275456",
      "lat": "41.138354007610275"
    },
    {
      "id": "pt.ine.add.PTCONT.3814043",
      "street": "R PACO",
      "house": "221",
      "postcode": "4640-217",
      "city": "SÃO TOMÉ DE COVELAS",
      "lon": "-7.989276136945826",
      "lat": "41.13840871931333"
    },
    {
      "id": "pt.ine.add.PTCONT.3854681",
      "street": "CAM COSTA",
      "house": "50",
      "postcode": "4640-217",
      "city": "SÃO TOMÉ DE COVELAS",
      "lon": "-7.988558598144906",
      "lat": "41.13973147004408"
    },
    {
      "id": "pt.ine.add.PTCONT.3863243",
      "street": "R PACO",
      "house": "203",
      "postcode": "4640-217",
      "city": "SÃO TOMÉ DE COVELAS",
      "lon": "-7.989336220557157",
      "lat": "41.138165675105014"
    },
    {
      "id": "pt.ine.add.PTCONT.3897049",
      "street": "R PACO",
      "house": "56",
      "postcode": "4640-217",
      "city": "SÃO TOMÉ DE COVELAS",
      "lon": "-7.9881323477867605",
      "lat": "41.13857836944492"
    },
    {
      "id": "pt.ine.add.PTCONT.3934348",
      "street": "R PACO",
      "house": "223",
      "postcode": "4640-217",
      "city": "SÃO TOMÉ DE COVELAS",
      "lon": "-7.989276353319563",
      "lat": "41.138309671017865"
    },
    {
      "id": "pt.ine.add.PTCONT.3943415",
      "street": "R PACO",
      "house": "249",
      "postcode": "4640-217",
      "city": "SÃO TOMÉ DE COVELAS",
      "lon": "-7.989406818867563",
      "lat": "41.13856195745411"
    },
    {
      "id": "pt.ine.add.PTCONT.4037341",
      "street": "R PACO",
      "house": "201",
      "postcode": "4640-217",
      "city": "SÃO TOMÉ DE COVELAS",
      "lon": "-7.989085981822094",
      "lat": "41.13821938902185"
    },
    {
      "id": "pt.ine.add.PTCONT.4116267",
      "street": "R ADRAO",
      "house": "447",
      "postcode": "4640-217",
      "city": "SÃO TOMÉ DE COVELAS",
      "lon": "-7.991883986801657",
      "lat": "41.13867307384334"
    },
    {
      "id": "pt.ine.add.PTCONT.4134150",
      "street": "R PACO",
      "house": "161",
      "postcode": "4640-217",
      "city": "SÃO TOMÉ DE COVELAS",
      "lon": "-7.988513604899621",
      "lat": "41.138524822127856"
    },
    {
      "id": "pt.ine.add.PTCONT.4155438",
      "street": "R CRUZ",
      "house": "1998",
      "postcode": "4640-217",
      "city": "SÃO TOMÉ DE COVELAS",
      "lon": "-7.986403749285787",
      "lat": "41.13927852537286"
    },
    {
      "id": "pt.ine.add.PTCONT.4155439",
      "street": "R CRUZ",
      "house": "1998",
      "postcode": "4640-217",
      "city": "SÃO TOMÉ DE COVELAS",
      "lon": "-7.986403749285787",
      "lat": "41.13927852537286"
    },
    {
      "id": "pt.ine.add.PTCONT.4181930",
      "street": "R PACO",
      "house": "147",
      "postcode": "4640-217",
      "city": "SÃO TOMÉ DE COVELAS",
      "lon": "-7.988621452084555",
      "lat": "41.1382278117484"
    },
    {
      "id": "pt.ine.add.PTCONT.4194470",
      "street": "R COSTA DAS RIBEIRAS",
      "house": "",
      "postcode": "4640-217",
      "city": "SÃO TOMÉ DE COVELAS",
      "lon": "-7.989143348948114",
      "lat": "41.13921895073562"
    },
    {
      "id": "pt.ine.add.PTCONT.4342869",
      "street": "R COSTA DAS RIBEIRAS",
      "house": "",
      "postcode": "4640-217",
      "city": "SÃO TOMÉ DE COVELAS",
      "lon": "-7.989346577862545",
      "lat": "41.138877036800515"
    },
    {
      "id": "pt.ine.add.PTCONT.4359141",
      "street": "R COSTA",
      "house": "223",
      "postcode": "4640-217",
      "city": "SÃO TOMÉ DE COVELAS",
      "lon": "-7.987831563380742",
      "lat": "41.13994666138481"
    }
  ]
}