{
  "data": {
    "distrito": "Setúbal",
    "concelho": "Almada",
    "freguesia": "União das freguesias de Charneca de Caparica e Sobreda",
    "OBJECTID": 1369,
    "BGRI2021": "15031401111",
    "DT21": "15",
    "DTMN21": "1503",
    "DTMNFR21": "150314",
    "DTMNFRSEC21": "150314011",
    "SECNUM21": "011",
    "SSNUM21": "11",
    "SECSSNUM21": "01111",
    "OBJECTID_1": 162112,
    "DT": "15",
    "CC": "03",
    "fr": "14",
    "SEC": "011",
    "SS": "11"
  },
  "addresses": [
    {
      "id": "pt.ine.add.PTCONT.4725094",
      "street": "R ISIDORO CALDEIRÃO",
      "house": "3",
      "postcode": "2820-227",
      "city": "CHARNECA DA CAPARICA",
      "lon": "-9.195569493024184",
      "lat": "38.62905576837592"
    },
    {
      "id": "pt.ine.add.PTCONT.4753469",
      "street": "R QUINTA BELISCOS",
      "house": "9",
      "postcode": "2820-527",
      "city": "CHARNECA DA CAPARICA",
      "lon": "-9.195583633888141",
      "lat": "38.62923579956736"
    },
    {
      "id": "pt.ine.add.PTCONT.4757820",
      "street": "R ISIDORO CALDEIRÃO",
      "house": "5",
      "postcode": "2820-227",
      "city": "CHARNECA DA CAPARICA",
      "lon": "-9.195192044685118",
      "lat": "38.62915828340721"
    },
    {
      "id": "pt.ine.add.PTCONT.4776158",
      "street": "R QUINTA DOS BELISCOS",
      "house": "",
      "postcode": "2820-527",
      "city": "CHARNECA DA CAPARICA",
      "lon": "-9.196195912274495",
      "lat": "38.629482460833245"
    },
    {
      "id": "pt.ine.add.PTCONT.4790419",
      "street": "R BLANC DE PORTUGAL",
      "house": "4",
      "postcode": "2820-523",
      "city": "CHARNECA DA CAPARICA",
      "lon": "-9.196165988117952",
      "lat": "38.62978900405784"
    },
    {
      "id": "pt.ine.add.PTCONT.4790420",
      "street": "R BLANC DE PORTUGAL",
      "house": "4",
      "postcode": "2820-523",
      "city": "CHARNECA DA CAPARICA",
      "lon": "-9.196165988117952",
      "lat": "38.62978900405784"
    },
    {
      "id": "pt.ine.add.PTCONT.4790436",
      "street": "R BLANC DE PORTUGAL",
      "house": "4",
      "postcode": "2820-523",
      "city": "CHARNECA DA CAPARICA",
      "lon": "-9.196165988117952",
      "lat": "38.62978900405784"
    },
    {
      "id": "pt.ine.add.PTCONT.4790437",
      "street": "R BLANC DE PORTUGAL",
      "house": "4",
      "postcode": "2820-523",
      "city": "CHARNECA DA CAPARICA",
      "lon": "-9.196165988117952",
      "lat": "38.62978900405784"
    },
    {
      "id": "pt.ine.add.PTCONT.4790438",
      "street": "R BLANC DE PORTUGAL",
      "house": "4",
      "postcode": "2820-523",
      "city": "CHARNECA DA CAPARICA",
      "lon": "-9.196165988117952",
      "lat": "38.62978900405784"
    },
    {
      "id": "pt.ine.add.PTCONT.4790439",
      "street": "R BLANC DE PORTUGAL",
      "house": "4",
      "postcode": "2820-523",
      "city": "CHARNECA DA CAPARICA",
      "lon": "-9.196165988117952",
      "lat": "38.62978900405784"
    },
    {
      "id": "pt.ine.add.PTCONT.4790440",
      "street": "R BLANC DE PORTUGAL",
      "house": "4",
      "postcode": "2820-523",
      "city": "CHARNECA DA CAPARICA",
      "lon": "-9.196165988117952",
      "lat": "38.62978900405784"
    },
    {
      "id": "pt.ine.add.PTCONT.4790441",
      "street": "R BLANC DE PORTUGAL",
      "house": "4",
      "postcode": "2820-523",
      "city": "CHARNECA DA CAPARICA",
      "lon": "-9.196165988117952",
      "lat": "38.62978900405784"
    },
    {
      "id": "pt.ine.add.PTCONT.4790442",
      "street": "R BLANC DE PORTUGAL",
      "house": "4",
      "postcode": "2820-523",
      "city": "CHARNECA DA CAPARICA",
      "lon": "-9.196165988117952",
      "lat": "38.62978900405784"
    },
    {
      "id": "pt.ine.add.PTCONT.4792676",
      "street": "R BLANC DE PORTUGAL",
      "house": "4",
      "postcode": "2820-523",
      "city": "CHARNECA DA CAPARICA",
      "lon": "-9.196165988117952",
      "lat": "38.62978900405784"
    },
    {
      "id": "pt.ine.add.PTCONT.4795771",
      "street": "ESTR BELA VISTA",
      "house": "",
      "postcode": "2820-172",
      "city": "CHARNECA DA CAPARICA",
      "lon": "-9.196748121962807",
      "lat": "38.62954950542293"
    },
    {
      "id": "pt.ine.add.PTCONT.4796737",
      "street": "R ISIDORO CALDEIRÃO",
      "house": "1",
      "postcode": "2820-227",
      "city": "CHARNECA DA CAPARICA",
      "lon": "-9.195982982416782",
      "lat": "38.62906102046502"
    },
    {
      "id": "pt.ine.add.PTCONT.4829311",
      "street": "R BLANC DE PORTUGAL",
      "house": "6",
      "postcode": "2820-523",
      "city": "CHARNECA DA CAPARICA",
      "lon": "-9.1958310086206",
      "lat": "38.62965692777065"
    },
    {
      "id": "pt.ine.add.PTCONT.4829312",
      "street": "R BLANC DE PORTUGAL",
      "house": "6",
      "postcode": "2820-523",
      "city": "CHARNECA DA CAPARICA",
      "lon": "-9.1958310086206",
      "lat": "38.62965692777065"
    },
    {
      "id": "pt.ine.add.PTCONT.4829313",
      "street": "R BLANC DE PORTUGAL",
      "house": "6",
      "postcode": "2820-523",
      "city": "CHARNECA DA CAPARICA",
      "lon": "-9.1958310086206",
      "lat": "38.62965692777065"
    },
    {
      "id": "pt.ine.add.PTCONT.4829314",
      "street": "R BLANC DE PORTUGAL",
      "house": "6",
      "postcode": "2820-523",
      "city": "CHARNECA DA CAPARICA",
      "lon": "-9.1958310086206",
      "lat": "38.62965692777065"
    },
    {
      "id": "pt.ine.add.PTCONT.4829315",
      "street": "R BLANC DE PORTUGAL",
      "house": "6",
      "postcode": "2820-523",
      "city": "CHARNECA DA CAPARICA",
      "lon": "-9.1958310086206",
      "lat": "38.62965692777065"
    },
    {
      "id": "pt.ine.add.PTCONT.4829316",
      "street": "R BLANC DE PORTUGAL",
      "house": "6",
      "postcode": "2820-523",
      "city": "CHARNECA DA CAPARICA",
      "lon": "-9.1958310086206",
      "lat": "38.62965692777065"
    },
    {
      "id": "pt.ine.add.PTCONT.4831745",
      "street": "R BLANC DE PORTUGAL",
      "house": "6",
      "postcode": "2820-523",
      "city": "CHARNECA DA CAPARICA",
      "lon": "-9.1958310086206",
      "lat": "38.62965692777065"
    },
    {
      "id": "pt.ine.add.PTCONT.4854085",
      "street": "R ISIDORO CALDEIRÃO BUTES",
      "house": "4",
      "postcode": "2820-227",
      "city": "CHARNECA DA CAPARICA",
      "lon": "-9.195351731391225",
      "lat": "38.62908476974834"
    },
    {
      "id": "pt.ine.add.PTCONT.4854086",
      "street": "R ISIDORO CALDEIRÃO BUTES",
      "house": "4",
      "postcode": "2820-227",
      "city": "CHARNECA DA CAPARICA",
      "lon": "-9.195351731391225",
      "lat": "38.62908476974834"
    },
    {
      "id": "pt.ine.add.PTCONT.4997768",
      "street": "R BLANC DE PORTUGAL",
      "house": "2",
      "postcode": "2820-523",
      "city": "CHARNECA DA CAPARICA",
      "lon": "-9.196419927793412",
      "lat": "38.62987677607755"
    },
    {
      "id": "pt.ine.add.PTCONT.4997769",
      "street": "R BLANC DE PORTUGAL",
      "house": "2",
      "postcode": "2820-523",
      "city": "CHARNECA DA CAPARICA",
      "lon": "-9.196419927793412",
      "lat": "38.62987677607755"
    },
    {
      "id": "pt.ine.add.PTCONT.4997770",
      "street": "R BLANC DE PORTUGAL",
      "house": "2",
      "postcode": "2820-523",
      "city": "CHARNECA DA CAPARICA",
      "lon": "-9.196419927793412",
      "lat": "38.62987677607755"
    },
    {
      "id": "pt.ine.add.PTCONT.4997771",
      "street": "R BLANC DE PORTUGAL",
      "house": "2",
      "postcode": "2820-523",
      "city": "CHARNECA DA CAPARICA",
      "lon": "-9.196419927793412",
      "lat": "38.62987677607755"
    },
    {
      "id": "pt.ine.add.PTCONT.4997772",
      "street": "R BLANC DE PORTUGAL",
      "house": "2",
      "postcode": "2820-523",
      "city": "CHARNECA DA CAPARICA",
      "lon": "-9.196419927793412",
      "lat": "38.62987677607755"
    },
    {
      "id": "pt.ine.add.PTCONT.4997773",
      "street": "R BLANC DE PORTUGAL",
      "house": "2",
      "postcode": "2820-523",
      "city": "CHARNECA DA CAPARICA",
      "lon": "-9.196419927793412",
      "lat": "38.62987677607755"
    },
    {
      "id": "pt.ine.add.PTCONT.4997774",
      "street": "R BLANC DE PORTUGAL",
      "house": "2",
      "postcode": "2820-523",
      "city": "CHARNECA DA CAPARICA",
      "lon": "-9.196419927793412",
      "lat": "38.62987677607755"
    },
    {
      "id": "pt.ine.add.PTCONT.4997775",
      "street": "R BLANC DE PORTUGAL",
      "house": "2",
      "postcode": "2820-523",
      "city": "CHARNECA DA CAPARICA",
      "lon": "-9.196419927793412",
      "lat": "38.62987677607755"
    },
    {
      "id": "pt.ine.add.PTCONT.4997776",
      "street": "R BLANC DE PORTUGAL",
      "house": "2",
      "postcode": "2820-523",
      "city": "CHARNECA DA CAPARICA",
      "lon": "-9.196419927793412",
      "lat": "38.62987677607755"
    },
    {
      "id": "pt.ine.add.PTCONT.5000258",
      "street": "R BLANC DE PORTUGAL",
      "house": "2",
      "postcode": "2820-523",
      "city": "CHARNECA DA CAPARICA",
      "lon": "-9.196419927793412",
      "lat": "38.62987677607755"
    },
    {
      "id": "pt.ine.add.PTCONT.5026238",
      "street": "R BLANC DE PORTUGAL",
      "house": "8",
      "postcode": "2820-523",
      "city": "CHARNECA DA CAPARICA",
      "lon": "-9.195519127663884",
      "lat": "38.62953364873384"
    },
    {
      "id": "pt.ine.add.PTCONT.5026239",
      "street": "R BLANC DE PORTUGAL",
      "house": "8",
      "postcode": "2820-523",
      "city": "CHARNECA DA CAPARICA",
      "lon": "-9.195519127663884",
      "lat": "38.62953364873384"
    },
    {
      "id": "pt.ine.add.PTCONT.5026240",
      "street": "R BLANC DE PORTUGAL",
      "house": "8",
      "postcode": "2820-523",
      "city": "CHARNECA DA CAPARICA",
      "lon": "-9.195519127663884",
      "lat": "38.62953364873384"
    },
    {
      "id": "pt.ine.add.PTCONT.5026241",
      "street": "R BLANC DE PORTUGAL",
      "house": "8",
      "postcode": "2820-523",
      "city": "CHARNECA DA CAPARICA",
      "lon": "-9.195519127663884",
      "lat": "38.62953364873384"
    },
    {
      "id": "pt.ine.add.PTCONT.5026242",
      "street": "R BLANC DE PORTUGAL",
      "house": "8",
      "postcode": "2820-523",
      "city": "CHARNECA DA CAPARICA",
      "lon": "-9.195519127663884",
      "lat": "38.62953364873384"
    },
    {
      "id": "pt.ine.add.PTCONT.5026243",
      "street": "R BLANC DE PORTUGAL",
      "house": "8",
      "postcode": "2820-523",
      "city": "CHARNECA DA CAPARICA",
      "lon": "-9.195519127663884",
      "lat": "38.62953364873384"
    },
    {
      "id": "pt.ine.add.PTCONT.5026244",
      "street": "R BLANC DE PORTUGAL",
      "house": "8",
      "postcode": "2820-523",
      "city": "CHARNECA DA CAPARICA",
      "lon": "-9.195519127663884",
      "lat": "38.62953364873384"
    },
    {
      "id": "pt.ine.add.PTCONT.5026245",
      "street": "R BLANC DE PORTUGAL",
      "house": "8",
      "postcode": "2820-523",
      "city": "CHARNECA DA CAPARICA",
      "lon": "-9.195519127663884",
      "lat": "38.62953364873384"
    },
    {
      "id": "pt.ine.add.PTCONT.5026246",
      "street": "R BLANC DE PORTUGAL",
      "house": "8",
      "postcode": "2820-523",
      "city": "CHARNECA DA CAPARICA",
      "lon": "-9.195519127663884",
      "lat": "38.62953364873384"
    },
    {
      "id": "pt.ine.add.PTCONT.5026247",
      "street": "R BLANC DE PORTUGAL",
      "house": "8",
      "postcode": "2820-523",
      "city": "CHARNECA DA CAPARICA",
      "lon": "-9.195519127663884",
      "lat": "38.62953364873384"
    },
    {
      "id": "pt.ine.add.PTCONT.5026248",
      "street": "R BLANC DE PORTUGAL",
      "house": "8",
      "postcode": "2820-523",
      "city": "CHARNECA DA CAPARICA",
      "lon": "-9.195519127663884",
      "lat": "38.62953364873384"
    },
    {
      "id": "pt.ine.add.PTCONT.5030256",
      "street": "R ISIDORO CALDEIRÃO",
      "house": "2",
      "postcode": "2820-227",
      "city": "CHARNECA DA CAPARICA",
      "lon": "-9.19580995277862",
      "lat": "38.62900854445675"
    },
    {
      "id": "pt.ine.add.PTCONT.5056811",
      "street": "R QUINTA DOS BELISCOS",
      "house": "",
      "postcode": "2820-527",
      "city": "CHARNECA DA CAPARICA",
      "lon": "-9.195837437945622",
      "lat": "38.62931456612503"
    },
    {
      "id": "pt.ine.add.PTCONT.5078156",
      "street": "R QUINTA DOS BELISCOS",
      "house": "7",
      "postcode": "2820-527",
      "city": "CHARNECA DA CAPARICA",
      "lon": "-9.195973096122062",
      "lat": "38.629169206049504"
    }
  ]
}