{
  "data": {
    "distrito": "Leiria",
    "concelho": "Pombal",
    "freguesia": "União das freguesias de Santiago e São Simão de Litém e Albergaria dos Doze",
    "OBJECTID": 2228,
    "BGRI2021": "10151900646",
    "DT21": "10",
    "DTMN21": "1015",
    "DTMNFR21": "101519",
    "DTMNFRSEC21": "101519006",
    "SECNUM21": "006",
    "SSNUM21": "46",
    "SECSSNUM21": "00646",
    "OBJECTID_1": 97222,
    "DT": "10",
    "CC": "15",
    "fr": "19",
    "SEC": "006",
    "SS": "46"
  },
  "addresses": [
    {
      "id": "pt.ine.add.PTCONT.2025366",
      "street": "R JOÃO DE BARROS",
      "house": "",
      "postcode": "3100-722",
      "city": "SÃO SIMÃO DE LITÉM",
      "lon": "-8.595297291016813",
      "lat": "39.838498808575984"
    },
    {
      "id": "pt.ine.add.PTCONT.2034027",
      "street": "R JOÃO DE BARROS",
      "house": "",
      "postcode": "3100-722",
      "city": "SÃO SIMÃO DE LITÉM",
      "lon": "-8.595075744288746",
      "lat": "39.83856273577258"
    },
    {
      "id": "pt.ine.add.PTCONT.2045212",
      "street": "R JOÃO DE BARROS",
      "house": "2",
      "postcode": "3100-722",
      "city": "SÃO SIMÃO DE LITÉM",
      "lon": "-8.595623074260171",
      "lat": "39.83829936947615"
    },
    {
      "id": "pt.ine.add.PTCONT.2058688",
      "street": "R JOÃO DE BARROS",
      "house": "",
      "postcode": "3100-722",
      "city": "SÃO SIMÃO DE LITÉM",
      "lon": "-8.596314038958768",
      "lat": "39.83854879185416"
    },
    {
      "id": "pt.ine.add.PTCONT.2073715",
      "street": "R APEADGIRO",
      "house": "81",
      "postcode": "3100-722",
      "city": "SÃO SIMÃO DE LITÉM",
      "lon": "-8.594681188891254",
      "lat": "39.838960587704904"
    },
    {
      "id": "pt.ine.add.PTCONT.2099579",
      "street": "R JOÃO DE BARROS",
      "house": "",
      "postcode": "3100-722",
      "city": "SÃO SIMÃO DE LITÉM",
      "lon": "-8.59547470411253",
      "lat": "39.83882233193749"
    },
    {
      "id": "pt.ine.add.PTCONT.2131837",
      "street": "R APEADEIRO",
      "house": "",
      "postcode": "3100-722",
      "city": "SÃO SIMÃO DE LITÉM",
      "lon": "-8.594979387556807",
      "lat": "39.83813081233418"
    },
    {
      "id": "pt.ine.add.PTCONT.2178601",
      "street": "R APIADEIRO",
      "house": "79",
      "postcode": "3100-722",
      "city": "SÃO SIMÃO DE LITÉM",
      "lon": "-8.594841187617467",
      "lat": "39.83842857358101"
    },
    {
      "id": "pt.ine.add.PTCONT.2205483",
      "street": "R APEADEIRO",
      "house": "",
      "postcode": "3100-722",
      "city": "SÃO SIMÃO DE LITÉM",
      "lon": "-8.594664502002885",
      "lat": "39.83821312310502"
    }
  ]
}