{
  "data": {
    "distrito": "Viseu",
    "concelho": "Sernancelhe",
    "freguesia": "Chosendo",
    "OBJECTID": 97,
    "BGRI2021": "18180300115",
    "DT21": "18",
    "DTMN21": "1818",
    "DTMNFR21": "181803",
    "DTMNFRSEC21": "181803001",
    "SECNUM21": "001",
    "SSNUM21": "15",
    "SECSSNUM21": "00115",
    "OBJECTID_1": 197800,
    "DT": "18",
    "CC": "18",
    "fr": "03",
    "SEC": "001",
    "SS": "15"
  },
  "addresses": [
    {
      "id": "pt.ine.add.PTCONT.5518150",
      "street": "SOUTO",
      "house": "",
      "postcode": "3640-042",
      "city": "CHOSENDO",
      "lon": "-7.458354231211187",
      "lat": "40.97056108516351"
    },
    {
      "id": "pt.ine.add.PTCONT.5531130",
      "street": "PÃ‰ REDONDO",
      "house": "",
      "postcode": "3640-042",
      "city": "CHOSENDO",
      "lon": "-7.458116264784319",
      "lat": "40.97292789962203"
    },
    {
      "id": "pt.ine.add.PTCONT.5569951",
      "street": "R SANTO",
      "house": "",
      "postcode": "3640-042",
      "city": "CHOSENDO",
      "lon": "-7.460370945121332",
      "lat": "40.967340221068426"
    },
    {
      "id": "pt.ine.add.PTCONT.5584709",
      "street": "R ESTRADA NOVA",
      "house": "",
      "postcode": "3640-042",
      "city": "CHOSENDO",
      "lon": "-7.458354965078302",
      "lat": "40.970489052713454"
    },
    {
      "id": "pt.ine.add.PTCONT.5605672",
      "street": "R ESTRADA NOVA",
      "house": "",
      "postcode": "3640-042",
      "city": "CHOSENDO",
      "lon": "-7.459383133599326",
      "lat": "40.968685142279355"
    },
    {
      "id": "pt.ine.add.PTCONT.5612598",
      "street": "R ESTRADA NOVA",
      "house": "",
      "postcode": "3640-042",
      "city": "CHOSENDO",
      "lon": "-7.4592508136103195",
      "lat": "40.96884645167075"
    },
    {
      "id": "pt.ine.add.PTCONT.5615239",
      "street": "R SANTO",
      "house": "",
      "postcode": "3640-042",
      "city": "CHOSENDO",
      "lon": "-7.4595021335974305",
      "lat": "40.96749723080684"
    },
    {
      "id": "pt.ine.add.PTCONT.5666305",
      "street": "R ESTRADA NOVA",
      "house": "",
      "postcode": "3640-042",
      "city": "CHOSENDO",
      "lon": "-7.4579957345211545",
      "lat": "40.97076609200964"
    }
  ]
}