{
  "data": {
    "distrito": "Lisboa",
    "concelho": "Mafra",
    "freguesia": "Mafra",
    "OBJECTID": 1236,
    "BGRI2021": "11090901406",
    "DT21": "11",
    "DTMN21": "1109",
    "DTMNFR21": "110909",
    "DTMNFRSEC21": "110909014",
    "SECNUM21": "014",
    "SSNUM21": "06",
    "SECSSNUM21": "01406",
    "OBJECTID_1": 108094,
    "DT": "11",
    "CC": "09",
    "fr": "09",
    "SEC": "014",
    "SS": "06"
  },
  "addresses": [
    {
      "id": "pt.ine.add.PTCONT.2293131",
      "street": "R LUIS CARACOL",
      "house": "",
      "postcode": "2640-431",
      "city": "MAFRA",
      "lon": "-9.351935848945804",
      "lat": "38.94030358733096"
    },
    {
      "id": "pt.ine.add.PTCONT.2316873",
      "street": "R LUIS CARACOL",
      "house": "",
      "postcode": "2640-431",
      "city": "MAFRA",
      "lon": "-9.351554383750978",
      "lat": "38.94025352595034"
    },
    {
      "id": "pt.ine.add.PTCONT.2369774",
      "street": "R NORTE",
      "house": "",
      "postcode": "2640-431",
      "city": "MAFRA",
      "lon": "-9.351915715659693",
      "lat": "38.94047493841854"
    },
    {
      "id": "pt.ine.add.PTCONT.2389933",
      "street": "R SERRADOS",
      "house": "",
      "postcode": "2640-431",
      "city": "MAFRA",
      "lon": "-9.351989034572252",
      "lat": "38.9400418169266"
    },
    {
      "id": "pt.ine.add.PTCONT.2453949",
      "street": "R CARACOIS",
      "house": "7",
      "postcode": "2640-431",
      "city": "MAFRA",
      "lon": "-9.352076848921682",
      "lat": "38.94045524076122"
    },
    {
      "id": "pt.ine.add.PTCONT.2811991",
      "street": "R GINGEIRA",
      "house": "",
      "postcode": "2640-431",
      "city": "MAFRA",
      "lon": "-9.351742588218404",
      "lat": "38.94046773885554"
    },
    {
      "id": "pt.ine.add.PTCONT.3012075",
      "street": "R LUIS CARACOL",
      "house": "3",
      "postcode": "2640-431",
      "city": "MAFRA",
      "lon": "-9.351761334319711",
      "lat": "38.940215335566606"
    },
    {
      "id": "pt.ine.add.PTCONT.3087096",
      "street": "R PRINCIPAL",
      "house": "",
      "postcode": "2640-431",
      "city": "MAFRA",
      "lon": "-9.352197989288594",
      "lat": "38.940120701204414"
    },
    {
      "id": "pt.ine.add.PTCONT.3141458",
      "street": "R GINGEIRA",
      "house": "",
      "postcode": "2640-431",
      "city": "MAFRA",
      "lon": "-9.351851581936069",
      "lat": "38.940097296828306"
    },
    {
      "id": "pt.ine.add.PTCONT.3168745",
      "street": "R GINGEIRA",
      "house": "",
      "postcode": "2640-431",
      "city": "MAFRA",
      "lon": "-9.351786093327094",
      "lat": "38.94031415857593"
    },
    {
      "id": "pt.ine.add.PTCONT.3216160",
      "street": "R CARACOIS",
      "house": "3",
      "postcode": "2640-431",
      "city": "MAFRA",
      "lon": "-9.352108513333512",
      "lat": "38.94028376920911"
    },
    {
      "id": "pt.ine.add.PTCONT.3371735",
      "street": "R GINGEIRA",
      "house": "",
      "postcode": "2640-431",
      "city": "MAFRA",
      "lon": "-9.351360814004124",
      "lat": "38.940399665248876"
    },
    {
      "id": "pt.ine.add.PTCONT.3418783",
      "street": "R SERRADOS",
      "house": "",
      "postcode": "2640-431",
      "city": "MAFRA",
      "lon": "-9.352371578676044",
      "lat": "38.94015491750754"
    }
  ]
}