{
  "data": {
    "distrito": "Braga",
    "concelho": "Braga",
    "freguesia": "União das freguesias de Morreira e Trandeiras",
    "OBJECTID": 1301,
    "BGRI2021": "03037600110",
    "DT21": "03",
    "DTMN21": "0303",
    "DTMNFR21": "030376",
    "DTMNFRSEC21": "030376001",
    "SECNUM21": "001",
    "SSNUM21": "10",
    "SECSSNUM21": "00110",
    "OBJECTID_1": 22248,
    "DT": "03",
    "CC": "03",
    "fr": "76",
    "SEC": "001",
    "SS": "10"
  },
  "addresses": [
    {
      "id": "pt.ine.add.PTCONT.470190",
      "street": "R ROCADAS",
      "house": "61",
      "postcode": "4705-533",
      "city": "MORREIRA",
      "lon": "-8.400399198374467",
      "lat": "41.49642655196801"
    },
    {
      "id": "pt.ine.add.PTCONT.568130",
      "street": "R ROÇADAS",
      "house": "",
      "postcode": "4705-533",
      "city": "MORREIRA",
      "lon": "-8.40063841813942",
      "lat": "41.49635396503792"
    },
    {
      "id": "pt.ine.add.PTCONT.568131",
      "street": "R ROÇADAS",
      "house": "",
      "postcode": "4705-533",
      "city": "MORREIRA",
      "lon": "-8.40063841813942",
      "lat": "41.49635396503792"
    },
    {
      "id": "pt.ine.add.PTCONT.676563",
      "street": "ROSSADAS",
      "house": "",
      "postcode": "4705-487",
      "city": "MORREIRA",
      "lon": "-8.399918687999083",
      "lat": "41.49606751381987"
    },
    {
      "id": "pt.ine.add.PTCONT.680449",
      "street": "R ROCADAS",
      "house": "54",
      "postcode": "4705-533",
      "city": "MORREIRA",
      "lon": "-8.400567711626145",
      "lat": "41.496633248661624"
    },
    {
      "id": "pt.ine.add.PTCONT.722717",
      "street": "R LOUREIRA",
      "house": "110",
      "postcode": "4705-534",
      "city": "MORREIRA",
      "lon": "-8.398329697287348",
      "lat": "41.4969985848678"
    },
    {
      "id": "pt.ine.add.PTCONT.749305",
      "street": "R ROCADAS",
      "house": "50",
      "postcode": "4705-533",
      "city": "MORREIRA",
      "lon": "-8.400472756491672",
      "lat": "41.49684055784597"
    },
    {
      "id": "pt.ine.add.PTCONT.805331",
      "street": "R ROCADAS",
      "house": "60",
      "postcode": "4705-533",
      "city": "MORREIRA",
      "lon": "-8.40065054214201",
      "lat": "41.49638995221634"
    },
    {
      "id": "pt.ine.add.PTCONT.805332",
      "street": "R ROCADAS",
      "house": "60",
      "postcode": "4705-533",
      "city": "MORREIRA",
      "lon": "-8.40065054214201",
      "lat": "41.49638995221634"
    },
    {
      "id": "pt.ine.add.PTCONT.812535",
      "street": "R TORNADOURO",
      "house": "66",
      "postcode": "4705-539",
      "city": "MORREIRA",
      "lon": "-8.399750436768084",
      "lat": "41.49592384246477"
    },
    {
      "id": "pt.ine.add.PTCONT.833264",
      "street": "R LOUREIRA",
      "house": "46",
      "postcode": "4705-534",
      "city": "MORREIRA",
      "lon": "-8.398175185099962",
      "lat": "41.49728706405824"
    },
    {
      "id": "pt.ine.add.PTCONT.835228",
      "street": "R LOUREIRA",
      "house": "46",
      "postcode": "4705-534",
      "city": "MORREIRA",
      "lon": "-8.398175185099962",
      "lat": "41.49728706405824"
    }
  ]
}