{
  "data": {
    "distrito": "Porto",
    "concelho": "Amarante",
    "freguesia": "União das freguesias de Amarante (São Gonçalo), Madalena, Cepelos e Gatão",
    "OBJECTID": 636,
    "BGRI2021": "13014200916",
    "DT21": "13",
    "DTMN21": "1301",
    "DTMNFR21": "130142",
    "DTMNFRSEC21": "130142009",
    "SECNUM21": "009",
    "SSNUM21": "16",
    "SECSSNUM21": "00916",
    "OBJECTID_1": 125911,
    "DT": "13",
    "CC": "01",
    "fr": "42",
    "SEC": "009",
    "SS": "16"
  },
  "addresses": [
    {
      "id": "pt.ine.add.PTCONT.3543055",
      "street": "R ANTÓNIO CARNEIRO",
      "house": "107",
      "postcode": "4600-012",
      "city": "AMARANTE",
      "lon": "-8.073032499155458",
      "lat": "41.26751470590919"
    },
    {
      "id": "pt.ine.add.PTCONT.3856041",
      "street": "LG CONS ANTÓNIO CÂNDIDO",
      "house": "",
      "postcode": "4600-029",
      "city": "AMARANTE",
      "lon": "-8.074547354058987",
      "lat": "41.268370886816406"
    },
    {
      "id": "pt.ine.add.PTCONT.3861392",
      "street": "LG CONS ANTÓNIO CÂNDIDO",
      "house": "",
      "postcode": "4600-029",
      "city": "AMARANTE",
      "lon": "-8.074547354058987",
      "lat": "41.268370886816406"
    },
    {
      "id": "pt.ine.add.PTCONT.3869317",
      "street": "AV 1 DE MAIO",
      "house": "181",
      "postcode": "4600-012",
      "city": "AMARANTE",
      "lon": "-8.074356350910103",
      "lat": "41.268433819006006"
    },
    {
      "id": "pt.ine.add.PTCONT.3869318",
      "street": "AV 1 DE MAIO",
      "house": "181",
      "postcode": "4600-012",
      "city": "AMARANTE",
      "lon": "-8.074356350910103",
      "lat": "41.268433819006006"
    },
    {
      "id": "pt.ine.add.PTCONT.3869319",
      "street": "TV OLIVENCA",
      "house": "181",
      "postcode": "4600-110",
      "city": "AMARANTE",
      "lon": "-8.074356350910103",
      "lat": "41.268433819006006"
    },
    {
      "id": "pt.ine.add.PTCONT.3911141",
      "street": "LG CONS ANTÓNIO CÂNDIDO",
      "house": "150",
      "postcode": "4600-029",
      "city": "AMARANTE",
      "lon": "-8.074285085270194",
      "lat": "41.268055605606335"
    },
    {
      "id": "pt.ine.add.PTCONT.3945305",
      "street": "TV OLIVENCA",
      "house": "7",
      "postcode": "4600-110",
      "city": "AMARANTE",
      "lon": "-8.074356431626924",
      "lat": "41.268343776904025"
    },
    {
      "id": "pt.ine.add.PTCONT.3945306",
      "street": "TV OLIVENCA",
      "house": "7",
      "postcode": "4600-110",
      "city": "AMARANTE",
      "lon": "-8.074356431626924",
      "lat": "41.268343776904025"
    },
    {
      "id": "pt.ine.add.PTCONT.3945307",
      "street": "TV OLIVENCA",
      "house": "7",
      "postcode": "4600-110",
      "city": "AMARANTE",
      "lon": "-8.074356431626924",
      "lat": "41.268343776904025"
    },
    {
      "id": "pt.ine.add.PTCONT.3945969",
      "street": "TV OLIVENCA",
      "house": "7",
      "postcode": "4600-110",
      "city": "AMARANTE",
      "lon": "-8.074356431626924",
      "lat": "41.268343776904025"
    },
    {
      "id": "pt.ine.add.PTCONT.3997846",
      "street": "AV 1 DE MAIO",
      "house": "",
      "postcode": "4600-012",
      "city": "AMARANTE",
      "lon": "-8.074487489943277",
      "lat": "41.268586957491785"
    },
    {
      "id": "pt.ine.add.PTCONT.4011160",
      "street": "AV 1 DE MAIO",
      "house": "153",
      "postcode": "4600-012",
      "city": "AMARANTE",
      "lon": "-8.074225155861715",
      "lat": "41.268343709839264"
    },
    {
      "id": "pt.ine.add.PTCONT.4011161",
      "street": "AV 1 DE MAIO",
      "house": "153",
      "postcode": "4600-012",
      "city": "AMARANTE",
      "lon": "-8.074225155861715",
      "lat": "41.268343709839264"
    },
    {
      "id": "pt.ine.add.PTCONT.4011162",
      "street": "AV 1 DE MAIO",
      "house": "153",
      "postcode": "4600-012",
      "city": "AMARANTE",
      "lon": "-8.074225155861715",
      "lat": "41.268343709839264"
    },
    {
      "id": "pt.ine.add.PTCONT.4020328",
      "street": "LG CONS ANTÓNIO CÂNDIDO",
      "house": "",
      "postcode": "4600-029",
      "city": "AMARANTE",
      "lon": "-8.07405845079389",
      "lat": "41.2679294305825"
    },
    {
      "id": "pt.ine.add.PTCONT.4083145",
      "street": "LG CONS ANTÓNIO CÂNDIDO",
      "house": "143",
      "postcode": "4600-029",
      "city": "AMARANTE",
      "lon": "-8.074177743067297",
      "lat": "41.26798351699405"
    },
    {
      "id": "pt.ine.add.PTCONT.4345947",
      "street": "R OLIVENCA",
      "house": "19",
      "postcode": "4600-095",
      "city": "AMARANTE",
      "lon": "-8.074678517495345",
      "lat": "41.26849701245634"
    },
    {
      "id": "pt.ine.add.PTCONT.4345948",
      "street": "R OLIVENCA",
      "house": "35",
      "postcode": "4600-095",
      "city": "AMARANTE",
      "lon": "-8.074678517495345",
      "lat": "41.26849701245634"
    },
    {
      "id": "pt.ine.add.PTCONT.4351266",
      "street": "R OLIVENCA",
      "house": "19",
      "postcode": "4600-095",
      "city": "AMARANTE",
      "lon": "-8.074678517495345",
      "lat": "41.26849701245634"
    }
  ]
}