{
  "data": {
    "distrito": "Coimbra",
    "concelho": "Figueira da Foz",
    "freguesia": "Paião",
    "OBJECTID": 1026,
    "BGRI2021": "06052300224",
    "DT21": "06",
    "DTMN21": "0605",
    "DTMNFR21": "060523",
    "DTMNFRSEC21": "060523002",
    "SECNUM21": "002",
    "SSNUM21": "24",
    "SECSSNUM21": "00224",
    "OBJECTID_1": 50792,
    "DT": "06",
    "CC": "05",
    "fr": "23",
    "SEC": "002",
    "SS": "24"
  },
  "addresses": [
    {
      "id": "pt.ine.add.PTCONT.1263492",
      "street": "R ASSEICO DE CIMA",
      "house": "9",
      "postcode": "3090-501",
      "city": "PAIÃO",
      "lon": "-8.768194514585455",
      "lat": "40.06903174088426"
    },
    {
      "id": "pt.ine.add.PTCONT.1277402",
      "street": "R ASSEICO DE BAIXO",
      "house": "12",
      "postcode": "3090-501",
      "city": "PAIÃO",
      "lon": "-8.766492806245987",
      "lat": "40.068815907342135"
    },
    {
      "id": "pt.ine.add.PTCONT.1280307",
      "street": "R VENDEIRO",
      "house": "8",
      "postcode": "3090-498",
      "city": "PAIÃO",
      "lon": "-8.777319908791828",
      "lat": "40.06713512675349"
    },
    {
      "id": "pt.ine.add.PTCONT.1286991",
      "street": "R PRINCIPAL",
      "house": "8",
      "postcode": "3090-501",
      "city": "PAIÃO",
      "lon": "-8.769094313167074",
      "lat": "40.06999044604322"
    },
    {
      "id": "pt.ine.add.PTCONT.1361205",
      "street": "R VENDEIRO",
      "house": "10",
      "postcode": "3090-498",
      "city": "PAIÃO",
      "lon": "-8.777451302561447",
      "lat": "40.067395569891936"
    }
  ]
}