{
  "data": {
    "distrito": "Santarém",
    "concelho": "Sardoal",
    "freguesia": "Sardoal",
    "OBJECTID": 8,
    "BGRI2021": "14170300128",
    "DT21": "14",
    "DTMN21": "1417",
    "DTMNFR21": "141703",
    "DTMNFRSEC21": "141703001",
    "SECNUM21": "001",
    "SSNUM21": "28",
    "SECSSNUM21": "00128",
    "OBJECTID_1": 155409,
    "DT": "14",
    "CC": "17",
    "fr": "03",
    "SEC": "001",
    "SS": "28"
  },
  "addresses": [
    {
      "id": "pt.ine.add.PTCONT.4455109",
      "street": "R MISERICÓRDIA",
      "house": "4",
      "postcode": "2230-129",
      "city": "SARDOAL",
      "lon": "-8.161035901402185",
      "lat": "39.53326979768781"
    },
    {
      "id": "pt.ine.add.PTCONT.4466230",
      "street": "R DR GIRALDO COSTA",
      "house": "10",
      "postcode": "2230-212",
      "city": "SARDOAL",
      "lon": "-8.160989428889252",
      "lat": "39.53340491272108"
    },
    {
      "id": "pt.ine.add.PTCONT.4473251",
      "street": "R DR GIRALDO COSTA",
      "house": "12",
      "postcode": "2230-212",
      "city": "SARDOAL",
      "lon": "-8.160931288558762",
      "lat": "39.53344996127666"
    },
    {
      "id": "pt.ine.add.PTCONT.4479301",
      "street": "R GIL VICENTE",
      "house": "5",
      "postcode": "2230-137",
      "city": "SARDOAL",
      "lon": "-8.160721864993093",
      "lat": "39.53331490733692"
    },
    {
      "id": "pt.ine.add.PTCONT.4530518",
      "street": "R GIL VICENTE",
      "house": "3",
      "postcode": "2230-137",
      "city": "SARDOAL",
      "lon": "-8.160617155291929",
      "lat": "39.53325188368649"
    },
    {
      "id": "pt.ine.add.PTCONT.4551447",
      "street": "R GIL VICENTE",
      "house": "12",
      "postcode": "2230-137",
      "city": "SARDOAL",
      "lon": "-8.160768409450254",
      "lat": "39.53335993089693"
    },
    {
      "id": "pt.ine.add.PTCONT.4557786",
      "street": "R DR GIRALDO COSTA",
      "house": "8",
      "postcode": "2230-212",
      "city": "SARDOAL",
      "lon": "-8.160966140367494",
      "lat": "39.533341869828696"
    },
    {
      "id": "pt.ine.add.PTCONT.4574739",
      "street": "LG MISERICÓRDIA",
      "house": "3",
      "postcode": "2230-204",
      "city": "SARDOAL",
      "lon": "-8.160768341539105",
      "lat": "39.5331887993329"
    },
    {
      "id": "pt.ine.add.PTCONT.4599415",
      "street": "R GIL VICENTE",
      "house": "11",
      "postcode": "2230-137",
      "city": "SARDOAL",
      "lon": "-8.160826582047202",
      "lat": "39.533395944740725"
    },
    {
      "id": "pt.ine.add.PTCONT.4599416",
      "street": "R DR GIRALDO COSTA",
      "house": "6",
      "postcode": "2230-212",
      "city": "SARDOAL",
      "lon": "-8.161059189962915",
      "lat": "39.533332840567"
    }
  ]
}