{
  "data": {
    "distrito": "Beja",
    "concelho": "Odemira",
    "freguesia": "Longueira/Almograve",
    "OBJECTID": 767,
    "BGRI2021": "02111700205",
    "DT21": "02",
    "DTMN21": "0211",
    "DTMNFR21": "021117",
    "DTMNFRSEC21": "021117002",
    "SECNUM21": "002",
    "SSNUM21": "05",
    "SECSSNUM21": "00205",
    "OBJECTID_1": 17888,
    "DT": "02",
    "CC": "11",
    "fr": "17",
    "SEC": "002",
    "SS": "05"
  },
  "addresses": [
    {
      "id": "pt.ine.add.PTCONT.455907",
      "street": "LOTEAM VALE BRAVO",
      "house": "11",
      "postcode": "7630-084",
      "city": "LONGUEIRA-ALMOGRAVE",
      "lon": "-8.775853488749862",
      "lat": "37.65552357055624"
    },
    {
      "id": "pt.ine.add.PTCONT.392605",
      "street": "CM 1023 - VEREDA DO VALE BRAVO",
      "house": "",
      "postcode": "7630-084",
      "city": "LONGUEIRA-ALMOGRAVE",
      "lon": "-8.775556165864748",
      "lat": "37.65615104750783"
    },
    {
      "id": "pt.ine.add.PTCONT.398333",
      "street": "LOTEAM VALE BRAVO",
      "house": "",
      "postcode": "7630-084",
      "city": "LONGUEIRA-ALMOGRAVE",
      "lon": "-8.776075852422867",
      "lat": "37.65534625105029"
    },
    {
      "id": "pt.ine.add.PTCONT.413759",
      "street": "VR VALE BRAVO",
      "house": "",
      "postcode": "7630-084",
      "city": "LONGUEIRA-ALMOGRAVE",
      "lon": "-8.776212647980419",
      "lat": "37.65602381063143"
    },
    {
      "id": "pt.ine.add.PTCONT.416804",
      "street": "LONGUEIRA",
      "house": "",
      "postcode": "7630-230",
      "city": "LONGUEIRA-ALMOGRAVE",
      "lon": "-8.77609843826224",
      "lat": "37.65533711826094"
    },
    {
      "id": "pt.ine.add.PTCONT.437330",
      "street": "LOTEAM VALE BRAVO",
      "house": "10",
      "postcode": "7630-084",
      "city": "LONGUEIRA-ALMOGRAVE",
      "lon": "-8.77591674274843",
      "lat": "37.655563703658785"
    },
    {
      "id": "pt.ine.add.PTCONT.447846",
      "street": "VR VALE BRAVO",
      "house": "",
      "postcode": "7630-084",
      "city": "LONGUEIRA-ALMOGRAVE",
      "lon": "-8.776183656476181",
      "lat": "37.65610319167847"
    },
    {
      "id": "pt.ine.add.PTCONT.455841",
      "street": "CM 1023 - VEREDA DO VALE BRAVO",
      "house": "",
      "postcode": "7630-084",
      "city": "LONGUEIRA-ALMOGRAVE",
      "lon": "-8.77577534868222",
      "lat": "37.65615462057838"
    }
  ]
}