{
  "data": {
    "distrito": "Lisboa",
    "concelho": "Vila Franca de Xira",
    "freguesia": "União das freguesias de Alhandra, São João dos Montes e Calhandriz",
    "OBJECTID": 451,
    "BGRI2021": "11141200516",
    "DT21": "11",
    "DTMN21": "1114",
    "DTMNFR21": "111412",
    "DTMNFRSEC21": "111412005",
    "SECNUM21": "005",
    "SSNUM21": "16",
    "SECSSNUM21": "00516",
    "OBJECTID_1": 118190,
    "DT": "11",
    "CC": "14",
    "fr": "12",
    "SEC": "005",
    "SS": "16"
  },
  "addresses": [
    {
      "id": "pt.ine.add.PTCONT.2384447",
      "street": "R D MARIA ANNES",
      "house": "2",
      "postcode": "2600-458",
      "city": "ALHANDRA",
      "lon": "-9.009685866113287",
      "lat": "38.92639649407326"
    },
    {
      "id": "pt.ine.add.PTCONT.2384448",
      "street": "R D MARIA ANNES",
      "house": "2",
      "postcode": "2600-458",
      "city": "ALHANDRA",
      "lon": "-9.009685866113287",
      "lat": "38.92639649407326"
    },
    {
      "id": "pt.ine.add.PTCONT.2384449",
      "street": "R D MARIA ANNES",
      "house": "2",
      "postcode": "2600-458",
      "city": "ALHANDRA",
      "lon": "-9.009685866113287",
      "lat": "38.92639649407326"
    },
    {
      "id": "pt.ine.add.PTCONT.2384450",
      "street": "R D MARIA ANNES",
      "house": "2",
      "postcode": "2600-458",
      "city": "ALHANDRA",
      "lon": "-9.009685866113287",
      "lat": "38.92639649407326"
    },
    {
      "id": "pt.ine.add.PTCONT.2384451",
      "street": "R D MARIA ANNES",
      "house": "2",
      "postcode": "2600-458",
      "city": "ALHANDRA",
      "lon": "-9.009685866113287",
      "lat": "38.92639649407326"
    },
    {
      "id": "pt.ine.add.PTCONT.2384452",
      "street": "R D MARIA ANNES",
      "house": "2",
      "postcode": "2600-458",
      "city": "ALHANDRA",
      "lon": "-9.009685866113287",
      "lat": "38.92639649407326"
    },
    {
      "id": "pt.ine.add.PTCONT.2484235",
      "street": "R DQ DE TERCEIRA",
      "house": "69",
      "postcode": "2600-430",
      "city": "ALHANDRA",
      "lon": "-9.009052683621512",
      "lat": "38.926482315960556"
    },
    {
      "id": "pt.ine.add.PTCONT.2537151",
      "street": "R DQ DE TERCEIRA",
      "house": "79",
      "postcode": "2600-430",
      "city": "ALHANDRA",
      "lon": "-9.009030287123963",
      "lat": "38.92653652987586"
    },
    {
      "id": "pt.ine.add.PTCONT.2537152",
      "street": "R DQ DE TERCEIRA",
      "house": "47",
      "postcode": "2600-430",
      "city": "ALHANDRA",
      "lon": "-9.009279527468061",
      "lat": "38.926174353660485"
    },
    {
      "id": "pt.ine.add.PTCONT.2537153",
      "street": "R DQ DE TERCEIRA",
      "house": "47",
      "postcode": "2600-430",
      "city": "ALHANDRA",
      "lon": "-9.009279527468061",
      "lat": "38.926174353660485"
    },
    {
      "id": "pt.ine.add.PTCONT.2537154",
      "street": "R DQ DE TERCEIRA",
      "house": "47",
      "postcode": "2600-430",
      "city": "ALHANDRA",
      "lon": "-9.009279527468061",
      "lat": "38.926174353660485"
    },
    {
      "id": "pt.ine.add.PTCONT.2537155",
      "street": "R 1 DEZEMBRO",
      "house": "12",
      "postcode": "2600-481",
      "city": "ALHANDRA",
      "lon": "-9.009279527468061",
      "lat": "38.926174353660485"
    },
    {
      "id": "pt.ine.add.PTCONT.2743432",
      "street": "R DQ DE TERCEIRA",
      "house": "53",
      "postcode": "2600-430",
      "city": "ALHANDRA",
      "lon": "-9.00918894526344",
      "lat": "38.9263101481683"
    },
    {
      "id": "pt.ine.add.PTCONT.2743898",
      "street": "R DQ DE TERCEIRA",
      "house": "53",
      "postcode": "2600-430",
      "city": "ALHANDRA",
      "lon": "-9.00918894526344",
      "lat": "38.9263101481683"
    },
    {
      "id": "pt.ine.add.PTCONT.2797534",
      "street": "R 1 DE DEZEMBRO DE 1640",
      "house": "18",
      "postcode": "2600-481",
      "city": "ALHANDRA",
      "lon": "-9.009591959283972",
      "lat": "38.92626208458348"
    },
    {
      "id": "pt.ine.add.PTCONT.2797535",
      "street": "R 1 DE DEZEMBRO DE 1640",
      "house": "18",
      "postcode": "2600-481",
      "city": "ALHANDRA",
      "lon": "-9.009591959283972",
      "lat": "38.92626208458348"
    },
    {
      "id": "pt.ine.add.PTCONT.2797536",
      "street": "R 1 DE DEZEMBRO DE 1640",
      "house": "18",
      "postcode": "2600-481",
      "city": "ALHANDRA",
      "lon": "-9.009591959283972",
      "lat": "38.92626208458348"
    },
    {
      "id": "pt.ine.add.PTCONT.2797537",
      "street": "R 1 DE DEZEMBRO DE 1640",
      "house": "18",
      "postcode": "2600-481",
      "city": "ALHANDRA",
      "lon": "-9.009591959283972",
      "lat": "38.92626208458348"
    },
    {
      "id": "pt.ine.add.PTCONT.2797538",
      "street": "R 1 DE DEZEMBRO DE 1640",
      "house": "18",
      "postcode": "2600-481",
      "city": "ALHANDRA",
      "lon": "-9.009591959283972",
      "lat": "38.92626208458348"
    },
    {
      "id": "pt.ine.add.PTCONT.2797551",
      "street": "R 1 DE DEZEMBRO DE 1640",
      "house": "18",
      "postcode": "2600-481",
      "city": "ALHANDRA",
      "lon": "-9.009591959283972",
      "lat": "38.92626208458348"
    },
    {
      "id": "pt.ine.add.PTCONT.2915686",
      "street": "R MARIA ANNES",
      "house": "14",
      "postcode": "2600-458",
      "city": "ALHANDRA",
      "lon": "-9.009458358418941",
      "lat": "38.92665041627951"
    },
    {
      "id": "pt.ine.add.PTCONT.2915687",
      "street": "R MARIA ANNES",
      "house": "14",
      "postcode": "2600-458",
      "city": "ALHANDRA",
      "lon": "-9.009458358418941",
      "lat": "38.92665041627951"
    },
    {
      "id": "pt.ine.add.PTCONT.2915688",
      "street": "R MARIA ANNES",
      "house": "14",
      "postcode": "2600-458",
      "city": "ALHANDRA",
      "lon": "-9.009458358418941",
      "lat": "38.92665041627951"
    },
    {
      "id": "pt.ine.add.PTCONT.2915689",
      "street": "R MARIA ANNES",
      "house": "14",
      "postcode": "2600-458",
      "city": "ALHANDRA",
      "lon": "-9.009458358418941",
      "lat": "38.92665041627951"
    },
    {
      "id": "pt.ine.add.PTCONT.2915690",
      "street": "R MARIA ANNES",
      "house": "14",
      "postcode": "2600-458",
      "city": "ALHANDRA",
      "lon": "-9.009458358418941",
      "lat": "38.92665041627951"
    },
    {
      "id": "pt.ine.add.PTCONT.2915691",
      "street": "R MARIA ANNES",
      "house": "14",
      "postcode": "2600-458",
      "city": "ALHANDRA",
      "lon": "-9.009458358418941",
      "lat": "38.92665041627951"
    },
    {
      "id": "pt.ine.add.PTCONT.2938725",
      "street": "R D MARIA ANNES",
      "house": "4",
      "postcode": "2600-458",
      "city": "ALHANDRA",
      "lon": "-9.009560471079402",
      "lat": "38.92651453499672"
    },
    {
      "id": "pt.ine.add.PTCONT.2938726",
      "street": "R D MARIA ANNES",
      "house": "4",
      "postcode": "2600-458",
      "city": "ALHANDRA",
      "lon": "-9.009560471079402",
      "lat": "38.92651453499672"
    },
    {
      "id": "pt.ine.add.PTCONT.2938727",
      "street": "R D MARIA ANNES",
      "house": "4",
      "postcode": "2600-458",
      "city": "ALHANDRA",
      "lon": "-9.009560471079402",
      "lat": "38.92651453499672"
    },
    {
      "id": "pt.ine.add.PTCONT.3014103",
      "street": "R DQ DE TERCEIRA",
      "house": "65",
      "postcode": "2600-430",
      "city": "ALHANDRA",
      "lon": "-9.009120537579605",
      "lat": "38.92637371505592"
    },
    {
      "id": "pt.ine.add.PTCONT.3291934",
      "street": "R D MARIA ANNES",
      "house": "8",
      "postcode": "2600-458",
      "city": "ALHANDRA",
      "lon": "-9.009515124665283",
      "lat": "38.926577928958814"
    },
    {
      "id": "pt.ine.add.PTCONT.3291935",
      "street": "R D MARIA ANNES",
      "house": "8",
      "postcode": "2600-458",
      "city": "ALHANDRA",
      "lon": "-9.009515124665283",
      "lat": "38.926577928958814"
    },
    {
      "id": "pt.ine.add.PTCONT.3291936",
      "street": "R D MARIA ANNES",
      "house": "8",
      "postcode": "2600-458",
      "city": "ALHANDRA",
      "lon": "-9.009515124665283",
      "lat": "38.926577928958814"
    },
    {
      "id": "pt.ine.add.PTCONT.3331352",
      "street": "R DQ DE TERCEIRA",
      "house": "67",
      "postcode": "2600-430",
      "city": "ALHANDRA",
      "lon": "-9.009109560930296",
      "lat": "38.92641883564308"
    },
    {
      "id": "pt.ine.add.PTCONT.3331353",
      "street": "R DQ DE TERCEIRA",
      "house": "67",
      "postcode": "2600-430",
      "city": "ALHANDRA",
      "lon": "-9.009109560930296",
      "lat": "38.92641883564308"
    }
  ]
}