{
  "data": {
    "distrito": "Bragança",
    "concelho": "Torre de Moncorvo",
    "freguesia": "União das freguesias de Adeganha e Cardanha",
    "OBJECTID": 461,
    "BGRI2021": "04091800142",
    "DT21": "04",
    "DTMN21": "0409",
    "DTMNFR21": "040918",
    "DTMNFRSEC21": "040918001",
    "SECNUM21": "001",
    "SSNUM21": "42",
    "SECSSNUM21": "00142",
    "OBJECTID_1": 38659,
    "DT": "04",
    "CC": "09",
    "fr": "18",
    "SEC": "001",
    "SS": "42"
  },
  "addresses": [
    {
      "id": "pt.ine.add.PTCONT.876603",
      "street": "R DA LAGARETA",
      "house": "",
      "postcode": "5160-021",
      "city": "ADEGANHA",
      "lon": "-7.052322102797123",
      "lat": "41.27490082945204"
    },
    {
      "id": "pt.ine.add.PTCONT.885844",
      "street": "R BERNARDO MAGALHÃES",
      "house": "4",
      "postcode": "5160-021",
      "city": "ADEGANHA",
      "lon": "-7.053151221741488",
      "lat": "41.273837135462635"
    },
    {
      "id": "pt.ine.add.PTCONT.891954",
      "street": "R DA LAGARETA",
      "house": "1",
      "postcode": "5160-021",
      "city": "ADEGANHA",
      "lon": "-7.053716511697962",
      "lat": "41.27502196067402"
    },
    {
      "id": "pt.ine.add.PTCONT.891955",
      "street": "R DA LAGARETA",
      "house": "1",
      "postcode": "5160-021",
      "city": "ADEGANHA",
      "lon": "-7.053716511697962",
      "lat": "41.27502196067402"
    },
    {
      "id": "pt.ine.add.PTCONT.909026",
      "street": "R DAS CORTINHAS",
      "house": "",
      "postcode": "5160-021",
      "city": "ADEGANHA",
      "lon": "-7.053077100672303",
      "lat": "41.27398950799598"
    },
    {
      "id": "pt.ine.add.PTCONT.921237",
      "street": "R DA LAMEIRA",
      "house": "",
      "postcode": "5160-021",
      "city": "ADEGANHA",
      "lon": "-7.052227379549571",
      "lat": "41.274854920112865"
    }
  ]
}