{
  "data": {
    "distrito": "Viseu",
    "concelho": "São Pedro do Sul",
    "freguesia": "União das freguesias de São Pedro do Sul, Várzea e Baiões",
    "OBJECTID": 504,
    "BGRI2021": "18162300405",
    "DT21": "18",
    "DTMN21": "1816",
    "DTMNFR21": "181623",
    "DTMNFRSEC21": "181623004",
    "SECNUM21": "004",
    "SSNUM21": "05",
    "SECSSNUM21": "00405",
    "OBJECTID_1": 196542,
    "DT": "18",
    "CC": "16",
    "fr": "23",
    "SEC": "004",
    "SS": "05"
  },
  "addresses": [
    {
      "id": "pt.ine.add.PTCONT.5442566",
      "street": "R STO ANTÓNIO",
      "house": "386",
      "postcode": "3660-421",
      "city": "SÃO PEDRO DO SUL",
      "lon": "-8.07082588714559",
      "lat": "40.76135526603868"
    },
    {
      "id": "pt.ine.add.PTCONT.5451726",
      "street": "R NOVAIS",
      "house": "1",
      "postcode": "3660-421",
      "city": "SÃO PEDRO DO SUL",
      "lon": "-8.071452934514316",
      "lat": "40.762039983360204"
    },
    {
      "id": "pt.ine.add.PTCONT.5496114",
      "street": "R NOVAIS",
      "house": "28",
      "postcode": "3660-421",
      "city": "SÃO PEDRO DO SUL",
      "lon": "-8.071264137093623",
      "lat": "40.76129246664894"
    },
    {
      "id": "pt.ine.add.PTCONT.5496115",
      "street": "R NOVAIS",
      "house": "28",
      "postcode": "3660-421",
      "city": "SÃO PEDRO DO SUL",
      "lon": "-8.071264137093623",
      "lat": "40.76129246664894"
    },
    {
      "id": "pt.ine.add.PTCONT.5513496",
      "street": "R NOVAIS",
      "house": "",
      "postcode": "3660-421",
      "city": "SÃO PEDRO DO SUL",
      "lon": "-8.071666301678695",
      "lat": "40.76183298196581"
    },
    {
      "id": "pt.ine.add.PTCONT.5517276",
      "street": "QTA OUTEIRO",
      "house": "4",
      "postcode": "3660-421",
      "city": "SÃO PEDRO DO SUL",
      "lon": "-8.071132810188457",
      "lat": "40.76242702721987"
    },
    {
      "id": "pt.ine.add.PTCONT.5556944",
      "street": "QTA SANTO ANTÓNIO",
      "house": "5",
      "postcode": "3660-421",
      "city": "SÃO PEDRO DO SUL",
      "lon": "-8.071346713045063",
      "lat": "40.76164370620791"
    },
    {
      "id": "pt.ine.add.PTCONT.5560567",
      "street": "R NOVAIS",
      "house": "78",
      "postcode": "3660-421",
      "city": "SÃO PEDRO DO SUL",
      "lon": "-8.071560037738237",
      "lat": "40.76148173001642"
    },
    {
      "id": "pt.ine.add.PTCONT.5587503",
      "street": "R PEDREGAL",
      "house": "9",
      "postcode": "3660-410",
      "city": "SÃO PEDRO DO SUL",
      "lon": "-8.070695074911772",
      "lat": "40.76193151590906"
    },
    {
      "id": "pt.ine.add.PTCONT.5600305",
      "street": "R NOVAIS",
      "house": "16",
      "postcode": "3660-421",
      "city": "SÃO PEDRO DO SUL",
      "lon": "-8.071749402113754",
      "lat": "40.761616905977185"
    },
    {
      "id": "pt.ine.add.PTCONT.5619933",
      "street": "R NOVAIS",
      "house": "",
      "postcode": "3660-421",
      "city": "SÃO PEDRO DO SUL",
      "lon": "-8.071595168368706",
      "lat": "40.76191398914683"
    },
    {
      "id": "pt.ine.add.PTCONT.5627025",
      "street": "R NOVAIS",
      "house": "5",
      "postcode": "3660-421",
      "city": "SÃO PEDRO DO SUL",
      "lon": "-8.070966862753181",
      "lat": "40.76258002310685"
    },
    {
      "id": "pt.ine.add.PTCONT.5627126",
      "street": "QTA SANTO ANTÓNIO",
      "house": "7",
      "postcode": "3660-421",
      "city": "SÃO PEDRO DO SUL",
      "lon": "-8.071168774490838",
      "lat": "40.761958786133896"
    },
    {
      "id": "pt.ine.add.PTCONT.5633155",
      "street": "R NOVAIS",
      "house": "11",
      "postcode": "3660-421",
      "city": "SÃO PEDRO DO SUL",
      "lon": "-8.071406144878358",
      "lat": "40.76140960777337"
    },
    {
      "id": "pt.ine.add.PTCONT.5650289",
      "street": "R ALTO SANTO ANTONIO",
      "house": "3",
      "postcode": "3660-410",
      "city": "SÃO PEDRO DO SUL",
      "lon": "-8.070778271145457",
      "lat": "40.76161638558365"
    }
  ]
}