{
  "data": {
    "distrito": "Beja",
    "concelho": "Moura",
    "freguesia": "União das freguesias de Moura (Santo Agostinho e São João Baptista) e Santo Amador",
    "OBJECTID": 217,
    "BGRI2021": "02100900723",
    "DT21": "02",
    "DTMN21": "0210",
    "DTMNFR21": "021009",
    "DTMNFRSEC21": "021009007",
    "SECNUM21": "007",
    "SSNUM21": "23",
    "SECSSNUM21": "00723",
    "OBJECTID_1": 16678,
    "DT": "02",
    "CC": "10",
    "fr": "09",
    "SEC": "007",
    "SS": "23"
  },
  "addresses": [
    {
      "id": "pt.ine.add.PTCONT.456737",
      "street": "ESTR BARCA OLIVEIRA DAS ALMAS",
      "house": "",
      "postcode": "7860-195",
      "city": "MOURA",
      "lon": "-7.469972382815619",
      "lat": "38.15168270651176"
    },
    {
      "id": "pt.ine.add.PTCONT.457790",
      "street": "MTE HERDADE DOS BOTAS",
      "house": "",
      "postcode": "7860-195",
      "city": "MOURA",
      "lon": "-7.4771747472855585",
      "lat": "38.15384024670195"
    },
    {
      "id": "pt.ine.add.PTCONT.359258",
      "street": "MTE TORREJAIS",
      "house": "",
      "postcode": "7860-195",
      "city": "MOURA",
      "lon": "-7.475202952119242",
      "lat": "38.15235175548774"
    },
    {
      "id": "pt.ine.add.PTCONT.360811",
      "street": "ESTR BARCA",
      "house": "",
      "postcode": "7860-195",
      "city": "MOURA",
      "lon": "-7.46416458011524",
      "lat": "38.14552370628371"
    },
    {
      "id": "pt.ine.add.PTCONT.360812",
      "street": "MTE TORREJAIS",
      "house": "",
      "postcode": "7860-195",
      "city": "MOURA",
      "lon": "-7.467544248831184",
      "lat": "38.143939316671464"
    },
    {
      "id": "pt.ine.add.PTCONT.364843",
      "street": "ESTR BARCA",
      "house": "",
      "postcode": "7860-195",
      "city": "MOURA",
      "lon": "-7.461833402301027",
      "lat": "38.14596085268987"
    },
    {
      "id": "pt.ine.add.PTCONT.367484",
      "street": "MTE TOI ORGANISTA",
      "house": "",
      "postcode": "7860-195",
      "city": "MOURA",
      "lon": "-7.466061697766554",
      "lat": "38.14765159250548"
    },
    {
      "id": "pt.ine.add.PTCONT.372181",
      "street": "ESTR PEDROGÃO",
      "house": "",
      "postcode": "7860-195",
      "city": "MOURA",
      "lon": "-7.467183304797849",
      "lat": "38.13846884906627"
    },
    {
      "id": "pt.ine.add.PTCONT.377062",
      "street": "ESTR BARCA",
      "house": "",
      "postcode": "7860-195",
      "city": "MOURA",
      "lon": "-7.482794597922662",
      "lat": "38.162087627296366"
    },
    {
      "id": "pt.ine.add.PTCONT.377063",
      "street": "ESTR BARCA",
      "house": "",
      "postcode": "7860-195",
      "city": "MOURA",
      "lon": "-7.482794597922662",
      "lat": "38.162087627296366"
    },
    {
      "id": "pt.ine.add.PTCONT.377064",
      "street": "MTE TORREJAIS",
      "house": "",
      "postcode": "7860-195",
      "city": "MOURA",
      "lon": "-7.470704113973406",
      "lat": "38.142677911045126"
    },
    {
      "id": "pt.ine.add.PTCONT.386441",
      "street": "ESTR PEDROGÃO",
      "house": "",
      "postcode": "7860-195",
      "city": "MOURA",
      "lon": "-7.473630171129061",
      "lat": "38.13696469190977"
    },
    {
      "id": "pt.ine.add.PTCONT.391578",
      "street": "MTE QUINTA DE NODAR",
      "house": "",
      "postcode": "7860-195",
      "city": "MOURA",
      "lon": "-7.462683431439749",
      "lat": "38.14033512811911"
    },
    {
      "id": "pt.ine.add.PTCONT.394795",
      "street": "ESTR BARCA",
      "house": "",
      "postcode": "7860-195",
      "city": "MOURA",
      "lon": "-7.473338034482971",
      "lat": "38.147872869250165"
    },
    {
      "id": "pt.ine.add.PTCONT.409320",
      "street": "MTE TORREJAIS DE CIMA",
      "house": "",
      "postcode": "7860-195",
      "city": "MOURA",
      "lon": "-7.471001257698953",
      "lat": "38.14261652386581"
    },
    {
      "id": "pt.ine.add.PTCONT.414172",
      "street": "MTE HORTA DO PRETO",
      "house": "",
      "postcode": "7860-195",
      "city": "MOURA",
      "lon": "-7.47187982654433",
      "lat": "38.147648454915704"
    },
    {
      "id": "pt.ine.add.PTCONT.417341",
      "street": "ESTR BARCA",
      "house": "",
      "postcode": "7860-195",
      "city": "MOURA",
      "lon": "-7.472538405677687",
      "lat": "38.149255749011374"
    },
    {
      "id": "pt.ine.add.PTCONT.423813",
      "street": "HORTA NOVA TORJAIS DE BAIXO",
      "house": "",
      "postcode": "7860-195",
      "city": "MOURA",
      "lon": "-7.470968006560595",
      "lat": "38.1412469786611"
    },
    {
      "id": "pt.ine.add.PTCONT.427756",
      "street": "ESTR BARCA OLIVEIRA DAS ALHAS",
      "house": "",
      "postcode": "7860-195",
      "city": "MOURA",
      "lon": "-7.469100984383021",
      "lat": "38.150903016378344"
    },
    {
      "id": "pt.ine.add.PTCONT.427757",
      "street": "MTE QUINTA DE NODAR",
      "house": "",
      "postcode": "7860-195",
      "city": "MOURA",
      "lon": "-7.46144188865998",
      "lat": "38.141382080157356"
    },
    {
      "id": "pt.ine.add.PTCONT.436878",
      "street": "HORTA DOS TORREJAIS",
      "house": "",
      "postcode": "7860-195",
      "city": "MOURA",
      "lon": "-7.469619663226172",
      "lat": "38.14276187967621"
    },
    {
      "id": "pt.ine.add.PTCONT.441747",
      "street": "ESTR BARCA",
      "house": "",
      "postcode": "7860-195",
      "city": "MOURA",
      "lon": "-7.471700653866626",
      "lat": "38.153593333177405"
    },
    {
      "id": "pt.ine.add.PTCONT.442561",
      "street": "MTE TORREJAIS",
      "house": "",
      "postcode": "7860-195",
      "city": "MOURA",
      "lon": "-7.46585677036017",
      "lat": "38.143848662303135"
    },
    {
      "id": "pt.ine.add.PTCONT.447411",
      "street": "MTE TORREJAIS",
      "house": "",
      "postcode": "7860-195",
      "city": "MOURA",
      "lon": "-7.471227493928282",
      "lat": "38.14030250300436"
    },
    {
      "id": "pt.ine.add.PTCONT.450687",
      "street": "MTE TORREJAIS",
      "house": "",
      "postcode": "7860-195",
      "city": "MOURA",
      "lon": "-7.470750555175598",
      "lat": "38.14258808362212"
    },
    {
      "id": "pt.ine.add.PTCONT.451882",
      "street": "MTE OLIVEIRA DAS ALMAS",
      "house": "",
      "postcode": "7860-195",
      "city": "MOURA",
      "lon": "-7.471004241430536",
      "lat": "38.15112096607642"
    },
    {
      "id": "pt.ine.add.PTCONT.453057",
      "street": "ESTR PEDROGÃO",
      "house": "",
      "postcode": "7860-195",
      "city": "MOURA",
      "lon": "-7.472729518802627",
      "lat": "38.13691458727751"
    },
    {
      "id": "pt.ine.add.PTCONT.455708",
      "street": "ESTR BARCA",
      "house": "",
      "postcode": "7860-000",
      "city": "",
      "lon": "-7.473635278343459",
      "lat": "38.1478024671644"
    }
  ]
}