{
  "data": {
    "distrito": "Portalegre",
    "concelho": "Avis",
    "freguesia": "Aldeia Velha",
    "OBJECTID": 291,
    "BGRI2021": "12030200118",
    "DT21": "12",
    "DTMN21": "1203",
    "DTMNFR21": "120302",
    "DTMNFRSEC21": "120302001",
    "SECNUM21": "001",
    "SSNUM21": "18",
    "SECSSNUM21": "00118",
    "OBJECTID_1": 120951,
    "DT": "12",
    "CC": "03",
    "fr": "02",
    "SEC": "001",
    "SS": "18"
  },
  "addresses": [
    {
      "id": "pt.ine.add.PTCONT.3462639",
      "street": "MTE SESMARIAS",
      "house": "",
      "postcode": "7480-051",
      "city": "ALDEIA VELHA AVS",
      "lon": "-8.094579799009313",
      "lat": "39.076318457044025"
    },
    {
      "id": "pt.ine.add.PTCONT.3478781",
      "street": "MTE MORENOS",
      "house": "",
      "postcode": "7480-051",
      "city": "ALDEIA VELHA AVS",
      "lon": "-8.076137425268325",
      "lat": "39.08894860156477"
    },
    {
      "id": "pt.ine.add.PTCONT.3488071",
      "street": "MTE MORENOS",
      "house": "",
      "postcode": "7480-051",
      "city": "ALDEIA VELHA AVS",
      "lon": "-8.076056364745291",
      "lat": "39.08913772182223"
    },
    {
      "id": "pt.ine.add.PTCONT.3490988",
      "street": "MTE LAPEIRA",
      "house": "",
      "postcode": "7480-051",
      "city": "ALDEIA VELHA AVS",
      "lon": "-8.072301916899415",
      "lat": "39.086793844350154"
    },
    {
      "id": "pt.ine.add.PTCONT.3502836",
      "street": "MTE SESMARIAS",
      "house": "",
      "postcode": "7480-051",
      "city": "ALDEIA VELHA AVS",
      "lon": "-8.094498890556775",
      "lat": "39.07634545318607"
    },
    {
      "id": "pt.ine.add.PTCONT.3502837",
      "street": "MTE LAPEIRA",
      "house": "",
      "postcode": "7480-051",
      "city": "ALDEIA VELHA AVS",
      "lon": "-8.072267281734815",
      "lat": "39.086748788197085"
    },
    {
      "id": "pt.ine.add.PTCONT.3523463",
      "street": "MTE VAL COLMEIAS",
      "house": "",
      "postcode": "7480-051",
      "city": "ALDEIA VELHA AVS",
      "lon": "-8.07338308802986",
      "lat": "39.07934509889335"
    },
    {
      "id": "pt.ine.add.PTCONT.3526664",
      "street": "MTE MORENOS",
      "house": "",
      "postcode": "7480-051",
      "city": "ALDEIA VELHA AVS",
      "lon": "-8.076121078780394",
      "lat": "39.08900408588351"
    }
  ]
}