{
  "data": {
    "distrito": "Lisboa",
    "concelho": "Loures",
    "freguesia": "Loures",
    "OBJECTID": 577,
    "BGRI2021": "11070702103",
    "DT21": "11",
    "DTMN21": "1107",
    "DTMNFR21": "110707",
    "DTMNFRSEC21": "110707021",
    "SECNUM21": "021",
    "SSNUM21": "03",
    "SECSSNUM21": "02103",
    "OBJECTID_1": 105418,
    "DT": "11",
    "CC": "07",
    "fr": "07",
    "SEC": "021",
    "SS": "03"
  },
  "addresses": [
    {
      "id": "pt.ine.add.PTCONT.2979149",
      "street": "R S FRANCISCO XAVIER",
      "house": "30",
      "postcode": "2670-519",
      "city": "LOURES",
      "lon": "-9.195407232583081",
      "lat": "38.83238196521637"
    },
    {
      "id": "pt.ine.add.PTCONT.3203720",
      "street": "R MANUEL ALFREDO TITO MORAIS",
      "house": "1",
      "postcode": "2670-572",
      "city": "LOURES",
      "lon": "-9.195625744374953",
      "lat": "38.83236196242716"
    },
    {
      "id": "pt.ine.add.PTCONT.3203721",
      "street": "R MANUEL ALFREDO TITO MORAIS",
      "house": "1",
      "postcode": "2670-572",
      "city": "LOURES",
      "lon": "-9.195625744374953",
      "lat": "38.83236196242716"
    },
    {
      "id": "pt.ine.add.PTCONT.3203722",
      "street": "R MANUEL ALFREDO TITO MORAIS",
      "house": "1",
      "postcode": "2670-572",
      "city": "LOURES",
      "lon": "-9.195625744374953",
      "lat": "38.83236196242716"
    },
    {
      "id": "pt.ine.add.PTCONT.3203723",
      "street": "R MANUEL ALFREDO TITO MORAIS",
      "house": "1",
      "postcode": "2670-572",
      "city": "LOURES",
      "lon": "-9.195625744374953",
      "lat": "38.83236196242716"
    },
    {
      "id": "pt.ine.add.PTCONT.3203724",
      "street": "R MANUEL ALFREDO TITO MORAIS",
      "house": "1",
      "postcode": "2670-572",
      "city": "LOURES",
      "lon": "-9.195625744374953",
      "lat": "38.83236196242716"
    },
    {
      "id": "pt.ine.add.PTCONT.3203725",
      "street": "R MANUEL ALFREDO TITO MORAIS",
      "house": "1",
      "postcode": "2670-572",
      "city": "LOURES",
      "lon": "-9.195625744374953",
      "lat": "38.83236196242716"
    },
    {
      "id": "pt.ine.add.PTCONT.2344802",
      "street": "URB CASAL COVAO",
      "house": "13",
      "postcode": "2670-572",
      "city": "LOURES",
      "lon": "-9.195412320182754",
      "lat": "38.832724210686145"
    },
    {
      "id": "pt.ine.add.PTCONT.2344803",
      "street": "URB CASAL COVAO",
      "house": "13",
      "postcode": "2670-572",
      "city": "LOURES",
      "lon": "-9.195412320182754",
      "lat": "38.832724210686145"
    },
    {
      "id": "pt.ine.add.PTCONT.2344804",
      "street": "URB CASAL DO COVAO",
      "house": "",
      "postcode": "2670-572",
      "city": "LOURES",
      "lon": "-9.195412320182754",
      "lat": "38.832724210686145"
    },
    {
      "id": "pt.ine.add.PTCONT.2344805",
      "street": "URB CASAL COVAO",
      "house": "13",
      "postcode": "2670-572",
      "city": "LOURES",
      "lon": "-9.195412320182754",
      "lat": "38.832724210686145"
    },
    {
      "id": "pt.ine.add.PTCONT.2344806",
      "street": "URB CASAL COVAO",
      "house": "17",
      "postcode": "2670-572",
      "city": "LOURES",
      "lon": "-9.195412320182754",
      "lat": "38.832724210686145"
    },
    {
      "id": "pt.ine.add.PTCONT.2344807",
      "street": "URB CASAL COVAO",
      "house": "13",
      "postcode": "2670-572",
      "city": "LOURES",
      "lon": "-9.195412320182754",
      "lat": "38.832724210686145"
    },
    {
      "id": "pt.ine.add.PTCONT.2486384",
      "street": "R MÁRIO SOTTO MAYOR CARDIA",
      "house": "8",
      "postcode": "2670-572",
      "city": "LOURES",
      "lon": "-9.195666984331394",
      "lat": "38.83281197114668"
    },
    {
      "id": "pt.ine.add.PTCONT.2486385",
      "street": "R MÁRIO SOTTO MAYOR CARDIA",
      "house": "8",
      "postcode": "2670-572",
      "city": "LOURES",
      "lon": "-9.195666984331394",
      "lat": "38.83281197114668"
    },
    {
      "id": "pt.ine.add.PTCONT.2486386",
      "street": "R MÁRIO SOTTO MAYOR CARDIA",
      "house": "8",
      "postcode": "2670-572",
      "city": "LOURES",
      "lon": "-9.195666984331394",
      "lat": "38.83281197114668"
    },
    {
      "id": "pt.ine.add.PTCONT.2486387",
      "street": "R MÁRIO SOTTO MAYOR CARDIA",
      "house": "8",
      "postcode": "2670-572",
      "city": "LOURES",
      "lon": "-9.195666984331394",
      "lat": "38.83281197114668"
    },
    {
      "id": "pt.ine.add.PTCONT.2486388",
      "street": "R MÁRIO SOTTO MAYOR CARDIA",
      "house": "8",
      "postcode": "2670-572",
      "city": "LOURES",
      "lon": "-9.195666984331394",
      "lat": "38.83281197114668"
    },
    {
      "id": "pt.ine.add.PTCONT.2486389",
      "street": "R MÁRIO SOTTO MAYOR CARDIA",
      "house": "8",
      "postcode": "2670-572",
      "city": "LOURES",
      "lon": "-9.195666984331394",
      "lat": "38.83281197114668"
    },
    {
      "id": "pt.ine.add.PTCONT.2765631",
      "street": "URB CASAL DO COVÃO",
      "house": "",
      "postcode": "2670-572",
      "city": "LOURES",
      "lon": "-9.195868624864474",
      "lat": "38.83243181429055"
    },
    {
      "id": "pt.ine.add.PTCONT.2765632",
      "street": "URB CASAL DO COVÃO",
      "house": "",
      "postcode": "2670-572",
      "city": "LOURES",
      "lon": "-9.195868624864474",
      "lat": "38.83243181429055"
    },
    {
      "id": "pt.ine.add.PTCONT.2765633",
      "street": "URB CASAL DO COVÃO",
      "house": "",
      "postcode": "2670-572",
      "city": "LOURES",
      "lon": "-9.195868624864474",
      "lat": "38.83243181429055"
    },
    {
      "id": "pt.ine.add.PTCONT.2765634",
      "street": "URB CASAL DO COVÃO",
      "house": "",
      "postcode": "2670-572",
      "city": "LOURES",
      "lon": "-9.195868624864474",
      "lat": "38.83243181429055"
    },
    {
      "id": "pt.ine.add.PTCONT.2770898",
      "street": "URB CASAL DO COVÃO",
      "house": "",
      "postcode": "2670-572",
      "city": "LOURES",
      "lon": "-9.195868624864474",
      "lat": "38.83243181429055"
    }
  ]
}