{
  "data": {
    "distrito": "Viseu",
    "concelho": "Tarouca",
    "freguesia": "Mondim da Beira",
    "OBJECTID": 315,
    "BGRI2021": "18200400117",
    "DT21": "18",
    "DTMN21": "1820",
    "DTMNFR21": "182004",
    "DTMNFRSEC21": "182004001",
    "SECNUM21": "001",
    "SSNUM21": "17",
    "SECSSNUM21": "00117",
    "OBJECTID_1": 198551,
    "DT": "18",
    "CC": "20",
    "fr": "04",
    "SEC": "001",
    "SS": "17"
  },
  "addresses": [
    {
      "id": "pt.ine.add.PTCONT.5433217",
      "street": "R ARIEIRO DE CIMA",
      "house": "",
      "postcode": "3610-050",
      "city": "MONDIM DA BEIRA",
      "lon": "-7.743320190338886",
      "lat": "41.03011852836811"
    },
    {
      "id": "pt.ine.add.PTCONT.5489552",
      "street": "R TAPADA",
      "house": "4",
      "postcode": "3610-050",
      "city": "MONDIM DA BEIRA",
      "lon": "-7.743731744113802",
      "lat": "41.02888629469131"
    },
    {
      "id": "pt.ine.add.PTCONT.5491428",
      "street": "R TAPADA",
      "house": "",
      "postcode": "3610-050",
      "city": "MONDIM DA BEIRA",
      "lon": "-7.743923265409638",
      "lat": "41.02867083207382"
    },
    {
      "id": "pt.ine.add.PTCONT.5539180",
      "street": "R FONTE VELHA",
      "house": "4",
      "postcode": "3610-050",
      "city": "MONDIM DA BEIRA",
      "lon": "-7.7450214698918405",
      "lat": "41.0299711918675"
    },
    {
      "id": "pt.ine.add.PTCONT.5559575",
      "street": "R TAPADA",
      "house": "",
      "postcode": "3610-050",
      "city": "MONDIM DA BEIRA",
      "lon": "-7.743117898302713",
      "lat": "41.028127836091016"
    },
    {
      "id": "pt.ine.add.PTCONT.5569847",
      "street": "R TAPADA",
      "house": "10",
      "postcode": "3610-050",
      "city": "MONDIM DA BEIRA",
      "lon": "-7.744608786956163",
      "lat": "41.02937550058562"
    },
    {
      "id": "pt.ine.add.PTCONT.5572610",
      "street": "R ARIEIRO DE CIMA",
      "house": "",
      "postcode": "3610-050",
      "city": "MONDIM DA BEIRA",
      "lon": "-7.743129406679141",
      "lat": "41.03020792859041"
    },
    {
      "id": "pt.ine.add.PTCONT.5573490",
      "street": "R ARIEIRO DE BAIXO",
      "house": "",
      "postcode": "3610-050",
      "city": "MONDIM DA BEIRA",
      "lon": "-7.745104916574467",
      "lat": "41.02993545457463"
    },
    {
      "id": "pt.ine.add.PTCONT.5601326",
      "street": "R FONTE VELHA",
      "house": "1",
      "postcode": "3610-050",
      "city": "MONDIM DA BEIRA",
      "lon": "-7.744640542560958",
      "lat": "41.03004194507869"
    },
    {
      "id": "pt.ine.add.PTCONT.5637875",
      "street": "ALMODAFA",
      "house": "",
      "postcode": "3610-051",
      "city": "MONDIM DA BEIRA",
      "lon": "-7.7433126054191215",
      "lat": "41.027372111442965"
    },
    {
      "id": "pt.ine.add.PTCONT.5638988",
      "street": "R FONTE VELHA",
      "house": "3",
      "postcode": "3610-050",
      "city": "MONDIM DA BEIRA",
      "lon": "-7.744771499648452",
      "lat": "41.030015372709485"
    },
    {
      "id": "pt.ine.add.PTCONT.5649626",
      "street": "R FONTE VELHA",
      "house": "5",
      "postcode": "3610-050",
      "city": "MONDIM DA BEIRA",
      "lon": "-7.744890565880258",
      "lat": "41.029988760140085"
    }
  ]
}