{
  "data": {
    "distrito": "Lisboa",
    "concelho": "Sintra",
    "freguesia": "União das freguesias de São João das Lampas e Terrugem",
    "OBJECTID": 3052,
    "BGRI2021": "11112700422",
    "DT21": "11",
    "DTMN21": "1111",
    "DTMNFR21": "111127",
    "DTMNFRSEC21": "111127004",
    "SECNUM21": "004",
    "SSNUM21": "22",
    "SECSSNUM21": "00422",
    "OBJECTID_1": 113885,
    "DT": "11",
    "CC": "11",
    "fr": "27",
    "SEC": "004",
    "SS": "22"
  },
  "addresses": [
    {
      "id": "pt.ine.add.PTCONT.2545655",
      "street": "R JOÃO LIMA",
      "house": "12",
      "postcode": "2705-834",
      "city": "TERRUGEM SNT",
      "lon": "-9.350242338547334",
      "lat": "38.88912290699634"
    },
    {
      "id": "pt.ine.add.PTCONT.2582035",
      "street": "R JOÃO LIMA",
      "house": "12",
      "postcode": "2705-834",
      "city": "TERRUGEM SNT",
      "lon": "-9.35025555257495",
      "lat": "38.88922185162335"
    },
    {
      "id": "pt.ine.add.PTCONT.2597607",
      "street": "R TOMADILHA",
      "house": "10",
      "postcode": "2705-834",
      "city": "TERRUGEM SNT",
      "lon": "-9.349541728655097",
      "lat": "38.887914197333664"
    },
    {
      "id": "pt.ine.add.PTCONT.2730091",
      "street": "R CARRASCAL",
      "house": "3",
      "postcode": "2705-834",
      "city": "TERRUGEM SNT",
      "lon": "-9.350529651083482",
      "lat": "38.88907487404086"
    },
    {
      "id": "pt.ine.add.PTCONT.2735241",
      "street": "R CARRASCAL",
      "house": "3",
      "postcode": "2705-834",
      "city": "TERRUGEM SNT",
      "lon": "-9.350529651083482",
      "lat": "38.88907487404086"
    },
    {
      "id": "pt.ine.add.PTCONT.2783215",
      "street": "R CARRASCAL",
      "house": "13",
      "postcode": "2705-834",
      "city": "TERRUGEM SNT",
      "lon": "-9.350639655840784",
      "lat": "38.888767472314505"
    },
    {
      "id": "pt.ine.add.PTCONT.2867350",
      "street": "R TOMADILHA",
      "house": "12",
      "postcode": "2705-834",
      "city": "TERRUGEM SNT",
      "lon": "-9.349515610408462",
      "lat": "38.887734319614175"
    },
    {
      "id": "pt.ine.add.PTCONT.2921443",
      "street": "R LAGEAL",
      "house": "10",
      "postcode": "2705-834",
      "city": "TERRUGEM SNT",
      "lon": "-9.349876514020124",
      "lat": "38.8892978623439"
    },
    {
      "id": "pt.ine.add.PTCONT.3104660",
      "street": "R LAGEAL",
      "house": "",
      "postcode": "2705-834",
      "city": "TERRUGEM SNT",
      "lon": "-9.35004936045042",
      "lat": "38.88862049915752"
    },
    {
      "id": "pt.ine.add.PTCONT.3134007",
      "street": "R LAGEAL",
      "house": "16",
      "postcode": "2705-834",
      "city": "TERRUGEM SNT",
      "lon": "-9.349665407771068",
      "lat": "38.88908388247196"
    },
    {
      "id": "pt.ine.add.PTCONT.3201492",
      "street": "R PRINCIPAL",
      "house": "1",
      "postcode": "2705-834",
      "city": "TERRUGEM SNT",
      "lon": "-9.350717252008852",
      "lat": "38.88926207500439"
    },
    {
      "id": "pt.ine.add.PTCONT.3254168",
      "street": "R LAGEAL",
      "house": "10",
      "postcode": "2705-834",
      "city": "TERRUGEM SNT",
      "lon": "-9.34970289661646",
      "lat": "38.88925463414128"
    },
    {
      "id": "pt.ine.add.PTCONT.3355806",
      "street": "R LAGEAL",
      "house": "18",
      "postcode": "2705-834",
      "city": "TERRUGEM SNT",
      "lon": "-9.350136477606888",
      "lat": "38.88899790566906"
    }
  ]
}