{
  "data": {
    "distrito": "Viana do Castelo",
    "concelho": "Caminha",
    "freguesia": "Vilar de Mouros",
    "OBJECTID": 188,
    "BGRI2021": "16021800105",
    "DT21": "16",
    "DTMN21": "1602",
    "DTMNFR21": "160218",
    "DTMNFRSEC21": "160218001",
    "SECNUM21": "001",
    "SSNUM21": "05",
    "SECSSNUM21": "00105",
    "OBJECTID_1": 172406,
    "DT": "16",
    "CC": "02",
    "fr": "18",
    "SEC": "001",
    "SS": "05"
  },
  "addresses": [
    {
      "id": "pt.ine.add.PTCONT.5149243",
      "street": "CAM VALCASEIRAS",
      "house": "38",
      "postcode": "4910-585",
      "city": "VILAR DE MOUROS",
      "lon": "-8.805000047332591",
      "lat": "41.878098036102"
    },
    {
      "id": "pt.ine.add.PTCONT.5161249",
      "street": "CAM VALCAJEIRAS",
      "house": "",
      "postcode": "4910-585",
      "city": "VILAR DE MOUROS",
      "lon": "-8.805287738567616",
      "lat": "41.87796130474204"
    },
    {
      "id": "pt.ine.add.PTCONT.5165725",
      "street": "CAM VALCAJEIRAS",
      "house": "",
      "postcode": "4910-585",
      "city": "VILAR DE MOUROS",
      "lon": "-8.803926831807686",
      "lat": "41.881453495233835"
    },
    {
      "id": "pt.ine.add.PTCONT.5166850",
      "street": "CAM CUBAL",
      "house": "",
      "postcode": "4910-585",
      "city": "VILAR DE MOUROS",
      "lon": "-8.80452252210775",
      "lat": "41.87736256743513"
    },
    {
      "id": "pt.ine.add.PTCONT.5173620",
      "street": "CAM SENHORA DA LAPA",
      "house": "",
      "postcode": "4910-585",
      "city": "VILAR DE MOUROS",
      "lon": "-8.804958156937525",
      "lat": "41.87754908666598"
    },
    {
      "id": "pt.ine.add.PTCONT.5173621",
      "street": "CAM VALCAJEIRAS",
      "house": "",
      "postcode": "4910-585",
      "city": "VILAR DE MOUROS",
      "lon": "-8.805085528196102",
      "lat": "41.87935798217782"
    },
    {
      "id": "pt.ine.add.PTCONT.5182731",
      "street": "ESTR MARINHAS",
      "house": "1421",
      "postcode": "4910-585",
      "city": "VILAR DE MOUROS",
      "lon": "-8.804512110202142",
      "lat": "41.87982049853443"
    },
    {
      "id": "pt.ine.add.PTCONT.5195242",
      "street": "CAM ALDEIA",
      "house": "128",
      "postcode": "4910-585",
      "city": "VILAR DE MOUROS",
      "lon": "-8.806061898544913",
      "lat": "41.87826287926828"
    },
    {
      "id": "pt.ine.add.PTCONT.5201147",
      "street": "LG ALDEIA",
      "house": "33",
      "postcode": "4910-585",
      "city": "VILAR DE MOUROS",
      "lon": "-8.804971428799316",
      "lat": "41.877666050479526"
    },
    {
      "id": "pt.ine.add.PTCONT.5211810",
      "street": "ESTR MARINHAS",
      "house": "",
      "postcode": "4910-585",
      "city": "VILAR DE MOUROS",
      "lon": "-8.804592913018697",
      "lat": "41.87718209208288"
    },
    {
      "id": "pt.ine.add.PTCONT.5225203",
      "street": "ESTR MARINHAS",
      "house": "1479",
      "postcode": "4910-585",
      "city": "VILAR DE MOUROS",
      "lon": "-8.8041946750228",
      "lat": "41.88056961832686"
    },
    {
      "id": "pt.ine.add.PTCONT.5225754",
      "street": "CAM RANHADA",
      "house": "",
      "postcode": "4910-585",
      "city": "VILAR DE MOUROS",
      "lon": "-8.804026313532411",
      "lat": "41.8817500191242"
    },
    {
      "id": "pt.ine.add.PTCONT.5227989",
      "street": "CAM VALCAJEIRAS",
      "house": "",
      "postcode": "4910-585",
      "city": "VILAR DE MOUROS",
      "lon": "-8.803736531640688",
      "lat": "41.88168868944939"
    },
    {
      "id": "pt.ine.add.PTCONT.5232684",
      "street": "CAM VALCAJEIRAS",
      "house": "",
      "postcode": "4910-585",
      "city": "VILAR DE MOUROS",
      "lon": "-8.805059077641705",
      "lat": "41.87913305728457"
    },
    {
      "id": "pt.ine.add.PTCONT.5244463",
      "street": "CAM VALCAJEIRAS",
      "house": "175",
      "postcode": "4910-585",
      "city": "VILAR DE MOUROS",
      "lon": "-8.80545660532311",
      "lat": "41.8791307305969"
    },
    {
      "id": "pt.ine.add.PTCONT.5249305",
      "street": "CAM CRUZEIRO",
      "house": "",
      "postcode": "4910-585",
      "city": "VILAR DE MOUROS",
      "lon": "-8.805454307536763",
      "lat": "41.877762259522555"
    },
    {
      "id": "pt.ine.add.PTCONT.5251467",
      "street": "CAM LAURA",
      "house": "203",
      "postcode": "4910-585",
      "city": "VILAR DE MOUROS",
      "lon": "-8.805533790931015",
      "lat": "41.879598444362486"
    },
    {
      "id": "pt.ine.add.PTCONT.5251470",
      "street": "CAM ALDEIA",
      "house": "",
      "postcode": "4910-585",
      "city": "VILAR DE MOUROS",
      "lon": "-8.805313057220419",
      "lat": "41.87807819799468"
    },
    {
      "id": "pt.ine.add.PTCONT.5260183",
      "street": "TV FARRUCA",
      "house": "",
      "postcode": "4910-585",
      "city": "VILAR DE MOUROS",
      "lon": "-8.805209736333792",
      "lat": "41.87856497486952"
    },
    {
      "id": "pt.ine.add.PTCONT.5274547",
      "street": "CAM MORADA",
      "house": "94",
      "postcode": "4910-585",
      "city": "VILAR DE MOUROS",
      "lon": "-8.804437962147304",
      "lat": "41.880793275990584"
    },
    {
      "id": "pt.ine.add.PTCONT.5277025",
      "street": "CAM DEPOSITO",
      "house": "219",
      "postcode": "4910-585",
      "city": "VILAR DE MOUROS",
      "lon": "-8.80542826625999",
      "lat": "41.878725753095935"
    },
    {
      "id": "pt.ine.add.PTCONT.5280274",
      "street": "ESTR MARINHAS",
      "house": "",
      "postcode": "4910-585",
      "city": "VILAR DE MOUROS",
      "lon": "-8.80427135824646",
      "lat": "41.878687504298185"
    },
    {
      "id": "pt.ine.add.PTCONT.5284461",
      "street": "CAM VALCAJEIRAS",
      "house": "",
      "postcode": "4910-585",
      "city": "VILAR DE MOUROS",
      "lon": "-8.805382251648451",
      "lat": "41.87893309577653"
    },
    {
      "id": "pt.ine.add.PTCONT.5285343",
      "street": "CAM VALCAJEIRAS",
      "house": "482",
      "postcode": "4910-585",
      "city": "VILAR DE MOUROS",
      "lon": "-8.805357467410087",
      "lat": "41.88116603079221"
    },
    {
      "id": "pt.ine.add.PTCONT.5285421",
      "street": "CAM VALCAJEIRAS",
      "house": "544",
      "postcode": "4910-585",
      "city": "VILAR DE MOUROS",
      "lon": "-8.8044681808204",
      "lat": "41.88137830628052"
    }
  ]
}