{
  "data": {
    "distrito": "Santarém",
    "concelho": "Abrantes",
    "freguesia": "União das freguesias de Abrantes (São Vicente e São João) e Alferrarede",
    "OBJECTID": 1040,
    "BGRI2021": "14012000714",
    "DT21": "14",
    "DTMN21": "1401",
    "DTMNFR21": "140120",
    "DTMNFRSEC21": "140120007",
    "SECNUM21": "007",
    "SSNUM21": "14",
    "SECSSNUM21": "00714",
    "OBJECTID_1": 147598,
    "DT": "14",
    "CC": "01",
    "fr": "20",
    "SEC": "007",
    "SS": "14"
  },
  "addresses": [
    {
      "id": "pt.ine.add.PTCONT.4392554",
      "street": "R D JOÃO IV",
      "house": "16",
      "postcode": "2200-406",
      "city": "ABRANTES",
      "lon": "-8.198725550324596",
      "lat": "39.462414739751296"
    },
    {
      "id": "pt.ine.add.PTCONT.4395481",
      "street": "R D MIGUEL ALMEIDA",
      "house": "56",
      "postcode": "2200-407",
      "city": "ABRANTES",
      "lon": "-8.198632591689242",
      "lat": "39.4624147921625"
    },
    {
      "id": "pt.ine.add.PTCONT.4401636",
      "street": "R D JOÃO IV",
      "house": "14",
      "postcode": "2200-406",
      "city": "ABRANTES",
      "lon": "-8.198713879757165",
      "lat": "39.46236070412859"
    },
    {
      "id": "pt.ine.add.PTCONT.4484533",
      "street": "R D JOÃO IV",
      "house": "24",
      "postcode": "2200-406",
      "city": "ABRANTES",
      "lon": "-8.19883019655982",
      "lat": "39.46248673693653"
    },
    {
      "id": "pt.ine.add.PTCONT.4487976",
      "street": "R PISCO",
      "house": "1",
      "postcode": "2200-403",
      "city": "ABRANTES",
      "lon": "-8.198528224034975",
      "lat": "39.462640026774004"
    },
    {
      "id": "pt.ine.add.PTCONT.4498916",
      "street": "TV PISCO",
      "house": "5",
      "postcode": "2200-447",
      "city": "ABRANTES",
      "lon": "-8.198702403669374",
      "lat": "39.46251383018641"
    },
    {
      "id": "pt.ine.add.PTCONT.4533120",
      "street": "R D MIGUEL DE ALMEIDA",
      "house": "46",
      "postcode": "2200-407",
      "city": "ABRANTES",
      "lon": "-8.19855135410794",
      "lat": "39.462522922316474"
    },
    {
      "id": "pt.ine.add.PTCONT.4552468",
      "street": "R D MIGUEL DE ALMEIDA",
      "house": "56",
      "postcode": "2200-407",
      "city": "ABRANTES",
      "lon": "-8.198644262202915",
      "lat": "39.46246882779287"
    },
    {
      "id": "pt.ine.add.PTCONT.4575260",
      "street": "R D MIGUEL DE ALMEIDA",
      "house": "48",
      "postcode": "2200-407",
      "city": "ABRANTES",
      "lon": "-8.198574551610742",
      "lat": "39.46247787408913"
    },
    {
      "id": "pt.ine.add.PTCONT.4612813",
      "street": "R D JOÃO IV",
      "house": "20",
      "postcode": "2200-406",
      "city": "ABRANTES",
      "lon": "-8.19879528623463",
      "lat": "39.46243271445339"
    },
    {
      "id": "pt.ine.add.PTCONT.4614859",
      "street": "TV PISCO",
      "house": "1",
      "postcode": "2200-447",
      "city": "ABRANTES",
      "lon": "-8.198621132303458",
      "lat": "39.46258593226982"
    }
  ]
}