{
  "data": {
    "distrito": "Porto",
    "concelho": "Vila Nova de Gaia",
    "freguesia": "Arcozelo",
    "OBJECTID": 1712,
    "BGRI2021": "13170100505",
    "DT21": "13",
    "DTMN21": "1317",
    "DTMNFR21": "131701",
    "DTMNFRSEC21": "131701005",
    "SECNUM21": "005",
    "SSNUM21": "05",
    "SECSSNUM21": "00505",
    "OBJECTID_1": 145620,
    "DT": "13",
    "CC": "17",
    "fr": "01",
    "SEC": "005",
    "SS": "05"
  },
  "addresses": [
    {
      "id": "pt.ine.add.PTCONT.3569836",
      "street": "R D JOÃO DE CASTRO",
      "house": "371",
      "postcode": "4410-430",
      "city": "ARCOZELO VNG",
      "lon": "-8.64982119127621",
      "lat": "41.06663692897098"
    },
    {
      "id": "pt.ine.add.PTCONT.3892303",
      "street": "R LUIS DE CAMÕES",
      "house": "3T",
      "postcode": "4410-393",
      "city": "ARCOZELO VNG",
      "lon": "-8.648346367428195",
      "lat": "41.066697559482165"
    },
    {
      "id": "pt.ine.add.PTCONT.3970252",
      "street": "R LUIS DE CAMÕES",
      "house": "39",
      "postcode": "4410-393",
      "city": "ARCOZELO VNG",
      "lon": "-8.648419999802059",
      "lat": "41.06698537360998"
    },
    {
      "id": "pt.ine.add.PTCONT.4019865",
      "street": "R INF D HENRIQUE",
      "house": "48",
      "postcode": "4410-409",
      "city": "ARCOZELO VNG",
      "lon": "-8.648776142150112",
      "lat": "41.06688473117379"
    },
    {
      "id": "pt.ine.add.PTCONT.4047801",
      "street": "R INF D HENRIQUE",
      "house": "66",
      "postcode": "4410-409",
      "city": "ARCOZELO VNG",
      "lon": "-8.648373254457566",
      "lat": "41.0670936363989"
    },
    {
      "id": "pt.ine.add.PTCONT.4087241",
      "street": "R INF D HENRIQUE",
      "house": "38",
      "postcode": "4410-409",
      "city": "ARCOZELO VNG",
      "lon": "-8.64896832676354",
      "lat": "41.06711798748798"
    },
    {
      "id": "pt.ine.add.PTCONT.4137456",
      "street": "R JOSE TEIXEIRA LOPES",
      "house": "315",
      "postcode": "4410-399",
      "city": "ARCOZELO VNG",
      "lon": "-8.649337211235403",
      "lat": "41.06712534003725"
    },
    {
      "id": "pt.ine.add.PTCONT.4191871",
      "street": "R JOSE TEIXEIRA LOPES",
      "house": "321",
      "postcode": "4410-399",
      "city": "ARCOZELO VNG",
      "lon": "-8.64959697746893",
      "lat": "41.066872050609774"
    }
  ]
}