{
  "data": {
    "distrito": "Aveiro",
    "concelho": "Ovar",
    "freguesia": "Cortegaça",
    "OBJECTID": 642,
    "BGRI2021": "01150200202",
    "DT21": "01",
    "DTMN21": "0115",
    "DTMNFR21": "011502",
    "DTMNFRSEC21": "011502002",
    "SECNUM21": "002",
    "SSNUM21": "02",
    "SECSSNUM21": "00202",
    "OBJECTID_1": 10386,
    "DT": "01",
    "CC": "15",
    "fr": "02",
    "SEC": "002",
    "SS": "02"
  },
  "addresses": [
    {
      "id": "pt.ine.add.PTCONT.341937",
      "street": "R JULIO DINIS",
      "house": "113",
      "postcode": "3885-315",
      "city": "CORTEGAÇA OVR",
      "lon": "-8.65613960369451",
      "lat": "40.94045429575988"
    },
    {
      "id": "pt.ine.add.PTCONT.342557",
      "street": "R JULIO DINIS",
      "house": "113",
      "postcode": "3885-315",
      "city": "CORTEGAÇA OVR",
      "lon": "-8.65613960369451",
      "lat": "40.94045429575988"
    },
    {
      "id": "pt.ine.add.PTCONT.9739",
      "street": "R CAP MANUEL TAVARES",
      "house": "77",
      "postcode": "3885-232",
      "city": "CORTEGAÇA OVR",
      "lon": "-8.655964469188172",
      "lat": "40.94083328640234"
    },
    {
      "id": "pt.ine.add.PTCONT.18430",
      "street": "R CAP MANUEL TAVARES",
      "house": "31",
      "postcode": "3885-232",
      "city": "CORTEGAÇA OVR",
      "lon": "-8.655275533907766",
      "lat": "40.940809394332256"
    },
    {
      "id": "pt.ine.add.PTCONT.18431",
      "street": "R CAP MANUEL TAVARES",
      "house": "31",
      "postcode": "3885-232",
      "city": "CORTEGAÇA OVR",
      "lon": "-8.655275533907766",
      "lat": "40.940809394332256"
    },
    {
      "id": "pt.ine.add.PTCONT.18432",
      "street": "R CAP MANUEL TAVARES",
      "house": "31",
      "postcode": "3885-232",
      "city": "CORTEGAÇA OVR",
      "lon": "-8.655275533907766",
      "lat": "40.940809394332256"
    },
    {
      "id": "pt.ine.add.PTCONT.18433",
      "street": "R CAP MANUEL TAVARES",
      "house": "31",
      "postcode": "3885-232",
      "city": "CORTEGAÇA OVR",
      "lon": "-8.655275533907766",
      "lat": "40.940809394332256"
    },
    {
      "id": "pt.ine.add.PTCONT.18434",
      "street": "R CAP MANUEL TAVARES",
      "house": "31",
      "postcode": "3885-232",
      "city": "CORTEGAÇA OVR",
      "lon": "-8.655275533907766",
      "lat": "40.940809394332256"
    },
    {
      "id": "pt.ine.add.PTCONT.18435",
      "street": "R CAP MANUEL TAVARES",
      "house": "31",
      "postcode": "3885-232",
      "city": "CORTEGAÇA OVR",
      "lon": "-8.655275533907766",
      "lat": "40.940809394332256"
    },
    {
      "id": "pt.ine.add.PTCONT.18436",
      "street": "R CAP MANUEL TAVARES",
      "house": "31",
      "postcode": "3885-232",
      "city": "CORTEGAÇA OVR",
      "lon": "-8.655275533907766",
      "lat": "40.940809394332256"
    },
    {
      "id": "pt.ine.add.PTCONT.18437",
      "street": "R CAP MANUEL TAVARES",
      "house": "31",
      "postcode": "3885-232",
      "city": "CORTEGAÇA OVR",
      "lon": "-8.655275533907766",
      "lat": "40.940809394332256"
    },
    {
      "id": "pt.ine.add.PTCONT.18438",
      "street": "R CAP MANUEL TAVARES",
      "house": "31",
      "postcode": "3885-232",
      "city": "CORTEGAÇA OVR",
      "lon": "-8.655275533907766",
      "lat": "40.940809394332256"
    },
    {
      "id": "pt.ine.add.PTCONT.18439",
      "street": "R CAP MANUEL TAVARES",
      "house": "31",
      "postcode": "3885-232",
      "city": "CORTEGAÇA OVR",
      "lon": "-8.655275533907766",
      "lat": "40.940809394332256"
    },
    {
      "id": "pt.ine.add.PTCONT.18447",
      "street": "R CAP MANUEL TAVARES",
      "house": "31",
      "postcode": "3885-232",
      "city": "CORTEGAÇA OVR",
      "lon": "-8.655275533907766",
      "lat": "40.940809394332256"
    },
    {
      "id": "pt.ine.add.PTCONT.89724",
      "street": "R JULIO DINIS",
      "house": "109",
      "postcode": "3885-315",
      "city": "CORTEGAÇA OVR",
      "lon": "-8.65604581536454",
      "lat": "40.94060780063094"
    },
    {
      "id": "pt.ine.add.PTCONT.116977",
      "street": "R SEXTANTE",
      "house": "90",
      "postcode": "3885-298",
      "city": "CORTEGAÇA OVR",
      "lon": "-8.65521460133774",
      "lat": "40.94061156740057"
    },
    {
      "id": "pt.ine.add.PTCONT.116980",
      "street": "R SEXTANTE",
      "house": "90",
      "postcode": "3885-298",
      "city": "CORTEGAÇA OVR",
      "lon": "-8.65521460133774",
      "lat": "40.94061156740057"
    },
    {
      "id": "pt.ine.add.PTCONT.116981",
      "street": "R SEXTANTE",
      "house": "90",
      "postcode": "3885-298",
      "city": "CORTEGAÇA OVR",
      "lon": "-8.65521460133774",
      "lat": "40.94061156740057"
    },
    {
      "id": "pt.ine.add.PTCONT.116982",
      "street": "R SEXTANTE",
      "house": "90",
      "postcode": "3885-298",
      "city": "CORTEGAÇA OVR",
      "lon": "-8.65521460133774",
      "lat": "40.94061156740057"
    },
    {
      "id": "pt.ine.add.PTCONT.116983",
      "street": "R SEXTANTE",
      "house": "90",
      "postcode": "3885-298",
      "city": "CORTEGAÇA OVR",
      "lon": "-8.65521460133774",
      "lat": "40.94061156740057"
    },
    {
      "id": "pt.ine.add.PTCONT.116984",
      "street": "R SEXTANTE",
      "house": "90",
      "postcode": "3885-298",
      "city": "CORTEGAÇA OVR",
      "lon": "-8.65521460133774",
      "lat": "40.94061156740057"
    },
    {
      "id": "pt.ine.add.PTCONT.116985",
      "street": "R SEXTANTE",
      "house": "90",
      "postcode": "3885-298",
      "city": "CORTEGAÇA OVR",
      "lon": "-8.65521460133774",
      "lat": "40.94061156740057"
    },
    {
      "id": "pt.ine.add.PTCONT.116986",
      "street": "R SEXTANTE",
      "house": "90",
      "postcode": "3885-298",
      "city": "CORTEGAÇA OVR",
      "lon": "-8.65521460133774",
      "lat": "40.94061156740057"
    },
    {
      "id": "pt.ine.add.PTCONT.116987",
      "street": "R SEXTANTE",
      "house": "90",
      "postcode": "3885-298",
      "city": "CORTEGAÇA OVR",
      "lon": "-8.65521460133774",
      "lat": "40.94061156740057"
    },
    {
      "id": "pt.ine.add.PTCONT.116988",
      "street": "R SEXTANTE",
      "house": "90",
      "postcode": "3885-298",
      "city": "CORTEGAÇA OVR",
      "lon": "-8.65521460133774",
      "lat": "40.94061156740057"
    },
    {
      "id": "pt.ine.add.PTCONT.116989",
      "street": "R SEXTANTE",
      "house": "90",
      "postcode": "3885-298",
      "city": "CORTEGAÇA OVR",
      "lon": "-8.65521460133774",
      "lat": "40.94061156740057"
    },
    {
      "id": "pt.ine.add.PTCONT.116990",
      "street": "R SEXTANTE",
      "house": "90",
      "postcode": "3885-298",
      "city": "CORTEGAÇA OVR",
      "lon": "-8.65521460133774",
      "lat": "40.94061156740057"
    },
    {
      "id": "pt.ine.add.PTCONT.116991",
      "street": "R SEXTANTE",
      "house": "3",
      "postcode": "3885-298",
      "city": "CORTEGAÇA OVR",
      "lon": "-8.65521460133774",
      "lat": "40.94061156740057"
    },
    {
      "id": "pt.ine.add.PTCONT.116992",
      "street": "R SEXTANTE",
      "house": "90",
      "postcode": "3885-298",
      "city": "CORTEGAÇA OVR",
      "lon": "-8.65521460133774",
      "lat": "40.94061156740057"
    },
    {
      "id": "pt.ine.add.PTCONT.116993",
      "street": "R SEXTANTE",
      "house": "90",
      "postcode": "3885-298",
      "city": "CORTEGAÇA OVR",
      "lon": "-8.65521460133774",
      "lat": "40.94061156740057"
    },
    {
      "id": "pt.ine.add.PTCONT.116994",
      "street": "R SEXTANTE",
      "house": "90",
      "postcode": "3885-298",
      "city": "CORTEGAÇA OVR",
      "lon": "-8.65521460133774",
      "lat": "40.94061156740057"
    },
    {
      "id": "pt.ine.add.PTCONT.116995",
      "street": "R SEXTANTE",
      "house": "90",
      "postcode": "3885-298",
      "city": "CORTEGAÇA OVR",
      "lon": "-8.65521460133774",
      "lat": "40.94061156740057"
    },
    {
      "id": "pt.ine.add.PTCONT.116997",
      "street": "R SEXTANTE",
      "house": "90",
      "postcode": "3885-298",
      "city": "CORTEGAÇA OVR",
      "lon": "-8.65521460133774",
      "lat": "40.94061156740057"
    },
    {
      "id": "pt.ine.add.PTCONT.130959",
      "street": "R JULIO DINIS",
      "house": "87",
      "postcode": "3885-315",
      "city": "CORTEGAÇA OVR",
      "lon": "-8.656130712542156",
      "lat": "40.9408325324433"
    },
    {
      "id": "pt.ine.add.PTCONT.192305",
      "street": "R BARTOLOMEU GUSMAO",
      "house": "8",
      "postcode": "3885-231",
      "city": "CORTEGAÇA OVR",
      "lon": "-8.655308178847298",
      "lat": "40.94043105013096"
    },
    {
      "id": "pt.ine.add.PTCONT.192306",
      "street": "R BARTOLOMEU GUSMAO",
      "house": "8",
      "postcode": "3885-231",
      "city": "CORTEGAÇA OVR",
      "lon": "-8.655308178847298",
      "lat": "40.94043105013096"
    },
    {
      "id": "pt.ine.add.PTCONT.192307",
      "street": "R BARTOLOMEU GUSMAO",
      "house": "8",
      "postcode": "3885-231",
      "city": "CORTEGAÇA OVR",
      "lon": "-8.655308178847298",
      "lat": "40.94043105013096"
    },
    {
      "id": "pt.ine.add.PTCONT.192308",
      "street": "R BARTOLOMEU GUSMAO",
      "house": "8",
      "postcode": "3885-231",
      "city": "CORTEGAÇA OVR",
      "lon": "-8.655308178847298",
      "lat": "40.94043105013096"
    },
    {
      "id": "pt.ine.add.PTCONT.192309",
      "street": "R BARTOLOMEU GUSMAO",
      "house": "8",
      "postcode": "3885-231",
      "city": "CORTEGAÇA OVR",
      "lon": "-8.655308178847298",
      "lat": "40.94043105013096"
    },
    {
      "id": "pt.ine.add.PTCONT.192310",
      "street": "R BARTOLOMEU GUSMAO",
      "house": "8",
      "postcode": "3885-231",
      "city": "CORTEGAÇA OVR",
      "lon": "-8.655308178847298",
      "lat": "40.94043105013096"
    },
    {
      "id": "pt.ine.add.PTCONT.193238",
      "street": "R BARTOLOMEU GUSMAO",
      "house": "8",
      "postcode": "3885-231",
      "city": "CORTEGAÇA OVR",
      "lon": "-8.655308178847298",
      "lat": "40.94043105013096"
    },
    {
      "id": "pt.ine.add.PTCONT.193239",
      "street": "R BARTOLOMEU DE GUSMAO",
      "house": "",
      "postcode": "3885-231",
      "city": "CORTEGAÇA OVR",
      "lon": "-8.655308178847298",
      "lat": "40.94043105013096"
    },
    {
      "id": "pt.ine.add.PTCONT.194511",
      "street": "R BARTOLOMEU DE GUSMAO",
      "house": "",
      "postcode": "3885-231",
      "city": "CORTEGAÇA OVR",
      "lon": "-8.655308178847298",
      "lat": "40.94043105013096"
    },
    {
      "id": "pt.ine.add.PTCONT.194661",
      "street": "R BARTOLOMEU GUSMAO",
      "house": "8",
      "postcode": "3885-231",
      "city": "CORTEGAÇA OVR",
      "lon": "-8.655308178847298",
      "lat": "40.94043105013096"
    },
    {
      "id": "pt.ine.add.PTCONT.256380",
      "street": "R BARTOLOMEU DE GUSMÃO",
      "house": "",
      "postcode": "3885-231",
      "city": "CORTEGAÇA OVR",
      "lon": "-8.655973361289119",
      "lat": "40.94045504972604"
    },
    {
      "id": "pt.ine.add.PTCONT.286548",
      "street": "R JULIO DINIS",
      "house": "93",
      "postcode": "3885-315",
      "city": "CORTEGAÇA OVR",
      "lon": "-8.656046383522806",
      "lat": "40.94067983545489"
    }
  ]
}