{
  "data": {
    "distrito": "Aveiro",
    "concelho": "Ovar",
    "freguesia": "Cortegaça",
    "OBJECTID": 654,
    "BGRI2021": "01150200217",
    "DT21": "01",
    "DTMN21": "0115",
    "DTMNFR21": "011502",
    "DTMNFRSEC21": "011502002",
    "SECNUM21": "002",
    "SSNUM21": "17",
    "SECSSNUM21": "00217",
    "OBJECTID_1": 10303,
    "DT": "01",
    "CC": "15",
    "fr": "02",
    "SEC": "002",
    "SS": "17"
  },
  "addresses": [
    {
      "id": "pt.ine.add.PTCONT.301884",
      "street": "R SACADURA CABRAL",
      "house": "25",
      "postcode": "3885-323",
      "city": "CORTEGAÇA OVR",
      "lon": "-8.65741052483999",
      "lat": "40.94210505328893"
    },
    {
      "id": "pt.ine.add.PTCONT.301885",
      "street": "R SACADURA CABRAL",
      "house": "25",
      "postcode": "3885-323",
      "city": "CORTEGAÇA OVR",
      "lon": "-8.65741052483999",
      "lat": "40.94210505328893"
    },
    {
      "id": "pt.ine.add.PTCONT.336423",
      "street": "AV SENHORA DA NAZARE",
      "house": "",
      "postcode": "3885-204",
      "city": "CORTEGAÇA OVR",
      "lon": "-8.658144772524421",
      "lat": "40.94188336423537"
    },
    {
      "id": "pt.ine.add.PTCONT.34204",
      "street": "R PADRE JOSE MARIA FRANCISCO SANTOS",
      "house": "",
      "postcode": "3885-320",
      "city": "CORTEGAÇA OVR",
      "lon": "-8.657970936814516",
      "lat": "40.94228292758235"
    },
    {
      "id": "pt.ine.add.PTCONT.57040",
      "street": "R DIARIO DO NORTE",
      "house": "",
      "postcode": "3885-280",
      "city": "CORTEGAÇA OVR",
      "lon": "-8.658101559407218",
      "lat": "40.942282332916044"
    },
    {
      "id": "pt.ine.add.PTCONT.89809",
      "street": "AV SENHORA DA NAZARE",
      "house": "92",
      "postcode": "3885-204",
      "city": "CORTEGAÇA OVR",
      "lon": "-8.657432268059644",
      "lat": "40.941883844679545"
    },
    {
      "id": "pt.ine.add.PTCONT.145776",
      "street": "R DIARIO DO NORTE",
      "house": "",
      "postcode": "3885-280",
      "city": "CORTEGAÇA OVR",
      "lon": "-8.658146919260734",
      "lat": "40.94201198620872"
    },
    {
      "id": "pt.ine.add.PTCONT.175036",
      "street": "R SACADURA CABRAL",
      "house": "45",
      "postcode": "3885-323",
      "city": "CORTEGAÇA OVR",
      "lon": "-8.657389146696081",
      "lat": "40.94226237207638"
    },
    {
      "id": "pt.ine.add.PTCONT.277418",
      "street": "AV SENHORA DA NAZARE",
      "house": "136",
      "postcode": "3885-204",
      "city": "CORTEGAÇA OVR",
      "lon": "-8.657975971603006",
      "lat": "40.941878939749586"
    }
  ]
}