{
  "data": {
    "distrito": "Santarém",
    "concelho": "Alcanena",
    "freguesia": "Serra de Santo António",
    "OBJECTID": 233,
    "BGRI2021": "14020900144",
    "DT21": "14",
    "DTMN21": "1402",
    "DTMNFR21": "140209",
    "DTMNFRSEC21": "140209001",
    "SECNUM21": "001",
    "SSNUM21": "44",
    "SECSSNUM21": "00144",
    "OBJECTID_1": 148073,
    "DT": "14",
    "CC": "02",
    "fr": "09",
    "SEC": "001",
    "SS": "44"
  },
  "addresses": [
    {
      "id": "pt.ine.add.PTCONT.4418110",
      "street": "R PIA GRANDE",
      "house": "242",
      "postcode": "2380-604",
      "city": "SERRA DE SANTO ANTÓNIO",
      "lon": "-8.72742743443744",
      "lat": "39.51718977994418"
    },
    {
      "id": "pt.ine.add.PTCONT.4546550",
      "street": "R SEMINARIO",
      "house": "285",
      "postcode": "2380-604",
      "city": "SERRA DE SANTO ANTÓNIO",
      "lon": "-8.72792327567964",
      "lat": "39.51806090905024"
    },
    {
      "id": "pt.ine.add.PTCONT.4560815",
      "street": "R PIA GRANDE",
      "house": "380",
      "postcode": "2380-604",
      "city": "SERRA DE SANTO ANTÓNIO",
      "lon": "-8.728021017077735",
      "lat": "39.51724979184116"
    },
    {
      "id": "pt.ine.add.PTCONT.4583631",
      "street": "R PROF FRANCISCO SERRA FRAZAO",
      "house": "51",
      "postcode": "2380-604",
      "city": "SERRA DE SANTO ANTÓNIO",
      "lon": "-8.726195534745548",
      "lat": "39.518646175168335"
    },
    {
      "id": "pt.ine.add.PTCONT.4587917",
      "street": "R PROF FRANCISCO SERRA FRAZAO",
      "house": "167",
      "postcode": "2380-604",
      "city": "SERRA DE SANTO ANTÓNIO",
      "lon": "-8.727589658419737",
      "lat": "39.518485937768986"
    },
    {
      "id": "pt.ine.add.PTCONT.4603017",
      "street": "R SEMINARIO",
      "house": "303",
      "postcode": "2380-604",
      "city": "SERRA DE SANTO ANTÓNIO",
      "lon": "-8.727898405580294",
      "lat": "39.51787189232633"
    },
    {
      "id": "pt.ine.add.PTCONT.4616929",
      "street": "R ENG CARLOS CUNHA",
      "house": "646",
      "postcode": "2380-608",
      "city": "SERRA DE SANTO ANTÓNIO",
      "lon": "-8.725274965126998",
      "lat": "39.51842569666802"
    },
    {
      "id": "pt.ine.add.PTCONT.4616934",
      "street": "R ENG CARLOS CUNHA",
      "house": "646",
      "postcode": "2380-608",
      "city": "SERRA DE SANTO ANTÓNIO",
      "lon": "-8.725274965126998",
      "lat": "39.51842569666802"
    }
  ]
}