{
  "data": {
    "distrito": "Porto",
    "concelho": "Paredes",
    "freguesia": "Parada de Todeia",
    "OBJECTID": 133,
    "BGRI2021": "13101700126",
    "DT21": "13",
    "DTMN21": "1310",
    "DTMNFR21": "131017",
    "DTMNFRSEC21": "131017001",
    "SECNUM21": "001",
    "SSNUM21": "26",
    "SECSSNUM21": "00126",
    "OBJECTID_1": 135996,
    "DT": "13",
    "CC": "10",
    "fr": "17",
    "SEC": "001",
    "SS": "26"
  },
  "addresses": [
    {
      "id": "pt.ine.add.PTCONT.3574338",
      "street": "R COMBATENTES",
      "house": "20",
      "postcode": "4585-917",
      "city": "PARADA DE TODEIA",
      "lon": "-8.38165776877747",
      "lat": "41.16980875136286"
    },
    {
      "id": "pt.ine.add.PTCONT.3611728",
      "street": "R DR JOSE ALVES LEﾃグ",
      "house": "19",
      "postcode": "4585-298",
      "city": "PARADA DE TODEIA",
      "lon": "-8.380815702142046",
      "lat": "41.16770354514857"
    },
    {
      "id": "pt.ine.add.PTCONT.3628913",
      "street": "R CHﾃグS",
      "house": "386",
      "postcode": "4585-880",
      "city": "PARADA DE TODEIA",
      "lon": "-8.381888121928116",
      "lat": "41.16770123387723"
    },
    {
      "id": "pt.ine.add.PTCONT.3747284",
      "street": "R MIRADOURO",
      "house": "613",
      "postcode": "4585-917",
      "city": "PARADA DE TODEIA",
      "lon": "-8.383458022339466",
      "lat": "41.16691445294877"
    },
    {
      "id": "pt.ine.add.PTCONT.3875578",
      "street": "R DR JOSE ALVES LEﾃグ",
      "house": "244",
      "postcode": "4585-298",
      "city": "PARADA DE TODEIA",
      "lon": "-8.38108002185305",
      "lat": "41.16827925552164"
    },
    {
      "id": "pt.ine.add.PTCONT.4229154",
      "street": "R MIRADOURO",
      "house": "628",
      "postcode": "4585-917",
      "city": "PARADA DE TODEIA",
      "lon": "-8.382153201094326",
      "lat": "41.16847503606838"
    },
    {
      "id": "pt.ine.add.PTCONT.4309054",
      "street": "R MIRADOURO",
      "house": "666",
      "postcode": "4585-917",
      "city": "PARADA DE TODEIA",
      "lon": "-8.382590127990358",
      "lat": "41.16742958466488"
    },
    {
      "id": "pt.ine.add.PTCONT.4312043",
      "street": "R MIRADOURO",
      "house": "666",
      "postcode": "4585-917",
      "city": "PARADA DE TODEIA",
      "lon": "-8.382590127990358",
      "lat": "41.16742958466488"
    },
    {
      "id": "pt.ine.add.PTCONT.4312288",
      "street": "TV MIRADOURO",
      "house": "50",
      "postcode": "4585-917",
      "city": "PARADA DE TODEIA",
      "lon": "-8.383184613284461",
      "lat": "41.16708612975593"
    },
    {
      "id": "pt.ine.add.PTCONT.4348111",
      "street": "R DR JOSE ALVES LEﾃグ",
      "house": "",
      "postcode": "4585-298",
      "city": "PARADA DE TODEIA",
      "lon": "-8.381805630766527",
      "lat": "41.16794452976913"
    }
  ]
}