{
  "data": {
    "distrito": "Santarém",
    "concelho": "Mação",
    "freguesia": "Cardigos",
    "OBJECTID": 151,
    "BGRI2021": "14130300205",
    "DT21": "14",
    "DTMN21": "1413",
    "DTMNFR21": "141303",
    "DTMNFRSEC21": "141303002",
    "SECNUM21": "002",
    "SSNUM21": "05",
    "SECSSNUM21": "00205",
    "OBJECTID_1": 152014,
    "DT": "14",
    "CC": "13",
    "fr": "03",
    "SEC": "002",
    "SS": "05"
  },
  "addresses": [
    {
      "id": "pt.ine.add.PTCONT.4415510",
      "street": "TV SOBREIRO",
      "house": "40",
      "postcode": "6120-218",
      "city": "CARDIGOS",
      "lon": "-8.037136155297494",
      "lat": "39.7099917049443"
    },
    {
      "id": "pt.ine.add.PTCONT.4440909",
      "street": "R SENTIEIRA",
      "house": "11",
      "postcode": "6120-218",
      "city": "CARDIGOS",
      "lon": "-8.03761333504605",
      "lat": "39.71066759696895"
    },
    {
      "id": "pt.ine.add.PTCONT.4467867",
      "street": "R LADEIRA DA CEREJEIRA",
      "house": "97",
      "postcode": "6120-218",
      "city": "CARDIGOS",
      "lon": "-8.03696258683949",
      "lat": "39.709018843249446"
    },
    {
      "id": "pt.ine.add.PTCONT.4477031",
      "street": "R RIBEIRINHA",
      "house": "118",
      "postcode": "6120-218",
      "city": "CARDIGOS",
      "lon": "-8.037685673182073",
      "lat": "39.708947386551"
    },
    {
      "id": "pt.ine.add.PTCONT.4497422",
      "street": "R LADEIRA DA CEREJEIRA",
      "house": "63",
      "postcode": "6120-218",
      "city": "CARDIGOS",
      "lon": "-8.036846439145306",
      "lat": "39.70868550096198"
    },
    {
      "id": "pt.ine.add.PTCONT.4510000",
      "street": "LG EIRA",
      "house": "22",
      "postcode": "6120-218",
      "city": "CARDIGOS",
      "lon": "-8.036553833786266",
      "lat": "39.70945982988551"
    },
    {
      "id": "pt.ine.add.PTCONT.4512029",
      "street": "R LADEIRA DA CEREJEIRA",
      "house": "145",
      "postcode": "6120-218",
      "city": "CARDIGOS",
      "lon": "-8.036775733957498",
      "lat": "39.709216834668084"
    },
    {
      "id": "pt.ine.add.PTCONT.4534630",
      "street": "R RIBEIRINHA",
      "house": "190",
      "postcode": "6120-218",
      "city": "CARDIGOS",
      "lon": "-8.037859697498979",
      "lat": "39.709596008200506"
    },
    {
      "id": "pt.ine.add.PTCONT.4534631",
      "street": "R CIMA",
      "house": "23",
      "postcode": "6120-218",
      "city": "CARDIGOS",
      "lon": "-8.036832937875193",
      "lat": "39.71000946721713"
    },
    {
      "id": "pt.ine.add.PTCONT.4568369",
      "street": "LG EIRA",
      "house": "16",
      "postcode": "6120-218",
      "city": "CARDIGOS",
      "lon": "-8.036670570744677",
      "lat": "39.70936986041021"
    },
    {
      "id": "pt.ine.add.PTCONT.4653377",
      "street": "R SENTIEIRA",
      "house": "115",
      "postcode": "6120-218",
      "city": "CARDIGOS",
      "lon": "-8.038043556785194",
      "lat": "39.71157762131781"
    }
  ]
}