{
  "data": {
    "distrito": "Santarém",
    "concelho": "Mação",
    "freguesia": "Cardigos",
    "OBJECTID": 101,
    "BGRI2021": "14130300213",
    "DT21": "14",
    "DTMN21": "1413",
    "DTMNFR21": "141303",
    "DTMNFRSEC21": "141303002",
    "SECNUM21": "002",
    "SSNUM21": "13",
    "SECSSNUM21": "00213",
    "OBJECTID_1": 152202,
    "DT": "14",
    "CC": "13",
    "fr": "03",
    "SEC": "002",
    "SS": "13"
  },
  "addresses": [
    {
      "id": "pt.ine.add.PTCONT.4409059",
      "street": "ESTR MUNICIPAL",
      "house": "271",
      "postcode": "6120-219",
      "city": "CARDIGOS",
      "lon": "-7.9947600815507185",
      "lat": "39.721198235377095"
    },
    {
      "id": "pt.ine.add.PTCONT.4411493",
      "street": "R FLORES",
      "house": "37",
      "postcode": "6120-219",
      "city": "CARDIGOS",
      "lon": "-7.994901728915624",
      "lat": "39.72035178095015"
    },
    {
      "id": "pt.ine.add.PTCONT.4485988",
      "street": "LG VINHA VELHA",
      "house": "101",
      "postcode": "6120-219",
      "city": "CARDIGOS",
      "lon": "-7.995774451029881",
      "lat": "39.72136155899073"
    },
    {
      "id": "pt.ine.add.PTCONT.4513768",
      "street": "R MALJOGA",
      "house": "225",
      "postcode": "6120-219",
      "city": "CARDIGOS",
      "lon": "-7.9954825860000325",
      "lat": "39.72150531943236"
    },
    {
      "id": "pt.ine.add.PTCONT.4560140",
      "street": "LG SELVA MORENA",
      "house": "21",
      "postcode": "6120-219",
      "city": "CARDIGOS",
      "lon": "-7.994936286464966",
      "lat": "39.7205679811905"
    },
    {
      "id": "pt.ine.add.PTCONT.4660955",
      "street": "R FLORES",
      "house": "200",
      "postcode": "6120-219",
      "city": "CARDIGOS",
      "lon": "-7.996067152718858",
      "lat": "39.72079448724714"
    }
  ]
}