{
  "data": {
    "distrito": "Santarém",
    "concelho": "Mação",
    "freguesia": "Cardigos",
    "OBJECTID": 106,
    "BGRI2021": "14130300218",
    "DT21": "14",
    "DTMN21": "1413",
    "DTMNFR21": "141303",
    "DTMNFRSEC21": "141303002",
    "SECNUM21": "002",
    "SSNUM21": "18",
    "SECSSNUM21": "00218",
    "OBJECTID_1": 152386,
    "DT": "14",
    "CC": "13",
    "fr": "03",
    "SEC": "002",
    "SS": "18"
  },
  "addresses": [
    {
      "id": "pt.ine.add.PTCONT.4401038",
      "street": "R LADEIRA DA BICA",
      "house": "212",
      "postcode": "6120-220",
      "city": "CARDIGOS",
      "lon": "-8.00162991433276",
      "lat": "39.721071118874036"
    },
    {
      "id": "pt.ine.add.PTCONT.4415509",
      "street": "R PADRES",
      "house": "133",
      "postcode": "6120-220",
      "city": "CARDIGOS",
      "lon": "-8.001570075941403",
      "lat": "39.72187264102364"
    },
    {
      "id": "pt.ine.add.PTCONT.4429352",
      "street": "R LADEIRA DA BICA",
      "house": "201",
      "postcode": "6120-219",
      "city": "CARDIGOS",
      "lon": "-8.000580476984544",
      "lat": "39.72094383289884"
    },
    {
      "id": "pt.ine.add.PTCONT.4455304",
      "street": "R VÁRZEA TORTA",
      "house": "26",
      "postcode": "6120-220",
      "city": "CARDIGOS",
      "lon": "-8.000939745609642",
      "lat": "39.72214212399847"
    },
    {
      "id": "pt.ine.add.PTCONT.4475236",
      "street": "R BICA",
      "house": "84",
      "postcode": "6120-220",
      "city": "CARDIGOS",
      "lon": "-8.00206068179658",
      "lat": "39.721476904187156"
    },
    {
      "id": "pt.ine.add.PTCONT.4507342",
      "street": "R LADEIRA DA BICA",
      "house": "203",
      "postcode": "6120-219",
      "city": "CARDIGOS",
      "lon": "-8.000871813038554",
      "lat": "39.721070257894354"
    },
    {
      "id": "pt.ine.add.PTCONT.4507343",
      "street": "R RIO",
      "house": "204",
      "postcode": "6120-219",
      "city": "CARDIGOS",
      "lon": "-8.000871813038554",
      "lat": "39.721070257894354"
    },
    {
      "id": "pt.ine.add.PTCONT.4529213",
      "street": "R PADRES",
      "house": "65",
      "postcode": "6120-220",
      "city": "CARDIGOS",
      "lon": "-8.000951769923248",
      "lat": "39.7219529985093"
    },
    {
      "id": "pt.ine.add.PTCONT.4532155",
      "street": "R LADEIRA DA BICA",
      "house": "93",
      "postcode": "6120-219",
      "city": "CARDIGOS",
      "lon": "-7.999985279181971",
      "lat": "39.72114129780502"
    },
    {
      "id": "pt.ine.add.PTCONT.4543450",
      "street": "R NOVA",
      "house": "",
      "postcode": "6120-219",
      "city": "CARDIGOS",
      "lon": "-7.998539473963294",
      "lat": "39.72092347193973"
    },
    {
      "id": "pt.ine.add.PTCONT.4573447",
      "street": "R PADRES",
      "house": "141",
      "postcode": "6120-220",
      "city": "CARDIGOS",
      "lon": "-8.001768402145359",
      "lat": "39.721845845666785"
    },
    {
      "id": "pt.ine.add.PTCONT.4624780",
      "street": "R LADEIRA DA BICA",
      "house": "265",
      "postcode": "6120-219",
      "city": "CARDIGOS",
      "lon": "-8.001712496102462",
      "lat": "39.7205758477451"
    },
    {
      "id": "pt.ine.add.PTCONT.4632727",
      "street": "R PADRES",
      "house": "",
      "postcode": "6120-220",
      "city": "CARDIGOS",
      "lon": "-8.001126615587618",
      "lat": "39.722007237167894"
    },
    {
      "id": "pt.ine.add.PTCONT.4642829",
      "street": "R RIO",
      "house": "204",
      "postcode": "6120-219",
      "city": "CARDIGOS",
      "lon": "-7.999544339764447",
      "lat": "39.719969929522975"
    },
    {
      "id": "pt.ine.add.PTCONT.4655678",
      "street": "R VALES",
      "house": "29",
      "postcode": "6120-219",
      "city": "CARDIGOS",
      "lon": "-7.998387556117634",
      "lat": "39.72107640845055"
    }
  ]
}