{
  "data": {
    "distrito": "Lisboa",
    "concelho": "Mafra",
    "freguesia": "União das freguesias de Enxara do Bispo, Gradil e Vila Franca do Rosário",
    "OBJECTID": 1955,
    "BGRI2021": "11091900336",
    "DT21": "11",
    "DTMN21": "1109",
    "DTMNFR21": "110919",
    "DTMNFRSEC21": "110919003",
    "SECNUM21": "003",
    "SSNUM21": "36",
    "SECSSNUM21": "00336",
    "OBJECTID_1": 109717,
    "DT": "11",
    "CC": "09",
    "fr": "19",
    "SEC": "003",
    "SS": "36"
  },
  "addresses": [
    {
      "id": "pt.ine.add.PTCONT.2637918",
      "street": "R DIREITA",
      "house": "50",
      "postcode": "2665-113",
      "city": "GRADIL",
      "lon": "-9.280054461182319",
      "lat": "38.98227714203852"
    },
    {
      "id": "pt.ine.add.PTCONT.2660572",
      "street": "R FONTE NOVA",
      "house": "",
      "postcode": "2665-117",
      "city": "GRADIL",
      "lon": "-9.280050334114318",
      "lat": "38.982736559967314"
    },
    {
      "id": "pt.ine.add.PTCONT.2722136",
      "street": "R DIREITA",
      "house": "46",
      "postcode": "2665-113",
      "city": "GRADIL",
      "lon": "-9.279936459332053",
      "lat": "38.982116168761955"
    },
    {
      "id": "pt.ine.add.PTCONT.2722137",
      "street": "R DIREITA",
      "house": "46",
      "postcode": "2665-113",
      "city": "GRADIL",
      "lon": "-9.279936459332053",
      "lat": "38.982116168761955"
    },
    {
      "id": "pt.ine.add.PTCONT.2722138",
      "street": "LG PACO",
      "house": "1 A",
      "postcode": "2665-129",
      "city": "GRADIL",
      "lon": "-9.279936459332053",
      "lat": "38.982116168761955"
    },
    {
      "id": "pt.ine.add.PTCONT.2722139",
      "street": "LG PACO",
      "house": "1",
      "postcode": "2665-129",
      "city": "GRADIL",
      "lon": "-9.279936459332053",
      "lat": "38.982116168761955"
    },
    {
      "id": "pt.ine.add.PTCONT.2865706",
      "street": "R DIREITA",
      "house": "",
      "postcode": "2665-113",
      "city": "GRADIL",
      "lon": "-9.279971947018458",
      "lat": "38.98216986434161"
    },
    {
      "id": "pt.ine.add.PTCONT.3077318",
      "street": "R CORREIOS",
      "house": "7",
      "postcode": "2665-112",
      "city": "GRADIL",
      "lon": "-9.279674122253939",
      "lat": "38.9823079024144"
    },
    {
      "id": "pt.ine.add.PTCONT.3153902",
      "street": "R CORREIOS",
      "house": "6B",
      "postcode": "2665-112",
      "city": "GRADIL",
      "lon": "-9.279582684765998",
      "lat": "38.98236284532532"
    },
    {
      "id": "pt.ine.add.PTCONT.3153903",
      "street": "R CORREIOS",
      "house": "6B",
      "postcode": "2665-112",
      "city": "GRADIL",
      "lon": "-9.279582684765998",
      "lat": "38.98236284532532"
    },
    {
      "id": "pt.ine.add.PTCONT.3155094",
      "street": "R CORREIOS",
      "house": "6B",
      "postcode": "2665-112",
      "city": "GRADIL",
      "lon": "-9.279582684765998",
      "lat": "38.98236284532532"
    },
    {
      "id": "pt.ine.add.PTCONT.3244119",
      "street": "TV MORENA",
      "house": "1",
      "postcode": "2665-127",
      "city": "GRADIL",
      "lon": "-9.279483339813739",
      "lat": "38.98264305084662"
    },
    {
      "id": "pt.ine.add.PTCONT.3400627",
      "street": "LG PACO",
      "house": "3",
      "postcode": "2665-129",
      "city": "GRADIL",
      "lon": "-9.279753439829797",
      "lat": "38.982217048942964"
    },
    {
      "id": "pt.ine.add.PTCONT.3410687",
      "street": "R CORREIOS",
      "house": "8",
      "postcode": "2665-112",
      "city": "GRADIL",
      "lon": "-9.279696473126544",
      "lat": "38.98226264577339"
    }
  ]
}