{
  "data": {
    "distrito": "Porto",
    "concelho": "Penafiel",
    "freguesia": "Galegos",
    "OBJECTID": 893,
    "BGRI2021": "13111300121",
    "DT21": "13",
    "DTMN21": "1311",
    "DTMNFR21": "131113",
    "DTMNFRSEC21": "131113001",
    "SECNUM21": "001",
    "SSNUM21": "21",
    "SECSSNUM21": "00121",
    "OBJECTID_1": 136883,
    "DT": "13",
    "CC": "11",
    "fr": "13",
    "SEC": "001",
    "SS": "21"
  },
  "addresses": [
    {
      "id": "pt.ine.add.PTCONT.3725952",
      "street": "LG PADRE AMÉRICO",
      "house": "106",
      "postcode": "4560-121",
      "city": "GALEGOS PNF",
      "lon": "-8.31359407222711",
      "lat": "41.161840585330914"
    },
    {
      "id": "pt.ine.add.PTCONT.3908493",
      "street": "AV LIBERDADE",
      "house": "53",
      "postcode": "4560-126",
      "city": "GALEGOS PNF",
      "lon": "-8.312544442992493",
      "lat": "41.161428023884426"
    },
    {
      "id": "pt.ine.add.PTCONT.4013286",
      "street": "R BAIRRO",
      "house": "151",
      "postcode": "4560-121",
      "city": "GALEGOS PNF",
      "lon": "-8.315948866376374",
      "lat": "41.160279114322314"
    },
    {
      "id": "pt.ine.add.PTCONT.4078742",
      "street": "LG PADRE AMÉRICO",
      "house": "106",
      "postcode": "4560-121",
      "city": "GALEGOS PNF",
      "lon": "-8.31339144716897",
      "lat": "41.16181388951531"
    },
    {
      "id": "pt.ine.add.PTCONT.4131039",
      "street": "AV PADRE AMÉRICO",
      "house": "212",
      "postcode": "4560-121",
      "city": "GALEGOS PNF",
      "lon": "-8.313282118168264",
      "lat": "41.16104868855773"
    },
    {
      "id": "pt.ine.add.PTCONT.4164320",
      "street": "AV LIBERDADE",
      "house": "24",
      "postcode": "4560-126",
      "city": "GALEGOS PNF",
      "lon": "-8.312865598410333",
      "lat": "41.16122942685789"
    },
    {
      "id": "pt.ine.add.PTCONT.4293677",
      "street": "AV PADRE AMÉRICO",
      "house": "196",
      "postcode": "4560-121",
      "city": "GALEGOS PNF",
      "lon": "-8.313377780578124",
      "lat": "41.161174600166056"
    }
  ]
}