{
  "data": {
    "ilha": "Ilha Terceira (Açores)",
    "concelho": "Angra do Heroísmo",
    "freguesia": "Terra Chã",
    "OBJECTID": 211,
    "BGRI2021": "43011800204",
    "DT21": "43",
    "DTMN21": "4301",
    "DTMNFR21": "430118",
    "DTMNFRSEC21": "430118002",
    "SECNUM21": "002",
    "SSNUM21": "04",
    "SECSSNUM21": "00204",
    "OBJECTID_1": 208217,
    "DT": "43",
    "CC": "01",
    "fr": "18",
    "SEC": "002",
    "SS": "04",
    "BGRI2021_1": "43011800204"
  },
  "addresses": [
    {
      "id": "pt.ine.add.AC26.7500",
      "street": "POLO UNIVERSITARIO DA TERRA CHA",
      "house": "3",
      "postcode": "9700-715",
      "city": "TERRA CHÃ",
      "lon": "-27.25076414146816",
      "lat": "38.67535312533422"
    },
    {
      "id": "pt.ine.add.AC26.7501",
      "street": "POLO UNIVERSITARIO DA TERRA CHA",
      "house": "4",
      "postcode": "9700-715",
      "city": "TERRA CHÃ",
      "lon": "-27.250844424648744",
      "lat": "38.67529888213701"
    },
    {
      "id": "pt.ine.add.AC26.7502",
      "street": "R CANADA DA ROLO",
      "house": "13",
      "postcode": "9700-713",
      "city": "TERRA CHÃ",
      "lon": "-27.25226685744734",
      "lat": "38.67442167424686"
    },
    {
      "id": "pt.ine.add.AC26.7503",
      "street": "R CANADA DO ROLO",
      "house": "15",
      "postcode": "9700-713",
      "city": "TERRA CHÃ",
      "lon": "-27.252496805787437",
      "lat": "38.67443018990203"
    },
    {
      "id": "pt.ine.add.AC26.46669",
      "street": "BR UNIVERSITÁRIO",
      "house": "2",
      "postcode": "9700-715",
      "city": "TERRA CHÃ",
      "lon": "-27.25060357474321",
      "lat": "38.675461611563"
    },
    {
      "id": "pt.ine.add.AC26.69525",
      "street": "POLO UNIVERSITARIO DA TERRA CHA",
      "house": "6",
      "postcode": "9700-715",
      "city": "TERRA CHÃ",
      "lon": "-27.251096737929277",
      "lat": "38.67512711576169"
    },
    {
      "id": "pt.ine.add.AC26.79279",
      "street": "POLO UNIVERSITARIO DA TERRA CHA",
      "house": "1",
      "postcode": "9700-715",
      "city": "TERRA CHÃ",
      "lon": "-27.250557810647262",
      "lat": "38.67552479249091"
    },
    {
      "id": "pt.ine.add.AC26.90247",
      "street": "R CANADA DA ROLO",
      "house": "21",
      "postcode": "9700-713",
      "city": "TERRA CHÃ",
      "lon": "-27.251724754245366",
      "lat": "38.67390916721953"
    },
    {
      "id": "pt.ine.add.AC26.92860",
      "street": "R CANADA DA ROLO",
      "house": "19",
      "postcode": "9700-713",
      "city": "TERRA CHÃ",
      "lon": "-27.253358643976995",
      "lat": "38.674329195934355"
    },
    {
      "id": "pt.ine.add.AC26.95666",
      "street": "POLO UNIVERSITÁRIO DA TERRA CHÃ",
      "house": "5",
      "postcode": "9700-715",
      "city": "TERRA CHÃ",
      "lon": "-27.251016455131218",
      "lat": "38.67518135913238"
    },
    {
      "id": "pt.ine.add.AC26.103477",
      "street": "R CANADA DA ROLO",
      "house": "17",
      "postcode": "9700-713",
      "city": "TERRA CHÃ",
      "lon": "-27.252956448898793",
      "lat": "38.67437512567236"
    }
  ]
}