{
  "data": {
    "distrito": "Leiria",
    "concelho": "Pombal",
    "freguesia": "Carriço",
    "OBJECTID": 2637,
    "BGRI2021": "10150500109",
    "DT21": "10",
    "DTMN21": "1015",
    "DTMNFR21": "101505",
    "DTMNFRSEC21": "101505001",
    "SECNUM21": "001",
    "SSNUM21": "09",
    "SECSSNUM21": "00109",
    "OBJECTID_1": 95133,
    "DT": "10",
    "CC": "15",
    "fr": "05",
    "SEC": "001",
    "SS": "09"
  },
  "addresses": [
    {
      "id": "pt.ine.add.PTCONT.1983418",
      "street": "R VALE",
      "house": "2",
      "postcode": "3105-065",
      "city": "CARRIÇO",
      "lon": "-8.8196738443243",
      "lat": "40.01019892962974"
    },
    {
      "id": "pt.ine.add.PTCONT.1990163",
      "street": "R OLARIAS",
      "house": "9",
      "postcode": "3105-066",
      "city": "CARRIÇO",
      "lon": "-8.82488752167667",
      "lat": "40.00689872098605"
    },
    {
      "id": "pt.ine.add.PTCONT.2003332",
      "street": "R JALE",
      "house": "6",
      "postcode": "3105-065",
      "city": "CARRIÇO",
      "lon": "-8.819917074717115",
      "lat": "40.009927306293925"
    },
    {
      "id": "pt.ine.add.PTCONT.2051660",
      "street": "R CASAS VELHAS",
      "house": "34",
      "postcode": "3105-066",
      "city": "CARRIÇO",
      "lon": "-8.824225906409342",
      "lat": "40.00632627973461"
    },
    {
      "id": "pt.ine.add.PTCONT.2102429",
      "street": "R CASAS VELHAS",
      "house": "32",
      "postcode": "3105-066",
      "city": "CARRIÇO",
      "lon": "-8.82409654423772",
      "lat": "40.00627301467167"
    },
    {
      "id": "pt.ine.add.PTCONT.2264795",
      "street": "R CASAS VELHAS",
      "house": "36",
      "postcode": "3105-066",
      "city": "CARRIÇO",
      "lon": "-8.825011248626994",
      "lat": "40.0063936422584"
    }
  ]
}