{
  "data": {
    "distrito": "Viseu",
    "concelho": "Tabuaço",
    "freguesia": "União das freguesias de Paradela e Granjinha",
    "OBJECTID": 192,
    "BGRI2021": "18191900117",
    "DT21": "18",
    "DTMN21": "1819",
    "DTMNFR21": "181919",
    "DTMNFRSEC21": "181919001",
    "SECNUM21": "001",
    "SSNUM21": "17",
    "SECSSNUM21": "00117",
    "OBJECTID_1": 198232,
    "DT": "18",
    "CC": "19",
    "fr": "19",
    "SEC": "001",
    "SS": "17"
  },
  "addresses": [
    {
      "id": "pt.ine.add.PTCONT.5442903",
      "street": "R RIBEIRO",
      "house": "4",
      "postcode": "5120-202",
      "city": "GRANJINHA",
      "lon": "-7.519101467708562",
      "lat": "41.06619560840286"
    },
    {
      "id": "pt.ine.add.PTCONT.5449758",
      "street": "R RIBEIRO",
      "house": "2",
      "postcode": "5120-202",
      "city": "GRANJINHA",
      "lon": "-7.518906593951827",
      "lat": "41.06540217733979"
    },
    {
      "id": "pt.ine.add.PTCONT.5464104",
      "street": "R CANTINHO",
      "house": "2",
      "postcode": "5120-202",
      "city": "GRANJINHA",
      "lon": "-7.5195967003324204",
      "lat": "41.06667548247519"
    },
    {
      "id": "pt.ine.add.PTCONT.5469807",
      "street": "R RIBEIRO",
      "house": "1",
      "postcode": "5120-202",
      "city": "GRANJINHA",
      "lon": "-7.518873249786936",
      "lat": "41.06514987468669"
    },
    {
      "id": "pt.ine.add.PTCONT.5477007",
      "street": "R RIBEIRO",
      "house": "2",
      "postcode": "5120-202",
      "city": "GRANJINHA",
      "lon": "-7.519045920308012",
      "lat": "41.065772102770644"
    },
    {
      "id": "pt.ine.add.PTCONT.5545029",
      "street": "R AMENDOEIRAS",
      "house": "",
      "postcode": "5120-202",
      "city": "GRANJINHA",
      "lon": "-7.518979064388925",
      "lat": "41.06656413898876"
    },
    {
      "id": "pt.ine.add.PTCONT.5562895",
      "street": "R AMENDOEIRAS",
      "house": "",
      "postcode": "5120-202",
      "city": "GRANJINHA",
      "lon": "-7.519040726932299",
      "lat": "41.066330351641575"
    },
    {
      "id": "pt.ine.add.PTCONT.5563585",
      "street": "R AMENDOEIRAS",
      "house": "",
      "postcode": "5120-202",
      "city": "GRANJINHA",
      "lon": "-7.519049943359613",
      "lat": "41.066618543466454"
    },
    {
      "id": "pt.ine.add.PTCONT.5588820",
      "street": "ESTR NACIONAL",
      "house": "",
      "postcode": "5120-202",
      "city": "GRANJINHA",
      "lon": "-7.518259734648972",
      "lat": "41.07992290559213"
    },
    {
      "id": "pt.ine.add.PTCONT.5594041",
      "street": "R AMENDOEIRA",
      "house": "2",
      "postcode": "5120-202",
      "city": "GRANJINHA",
      "lon": "-7.519044747623026",
      "lat": "41.06589815897212"
    },
    {
      "id": "pt.ine.add.PTCONT.5603045",
      "street": "RAM RAMAL DE S PEDRO DAS AGUIAS",
      "house": "3",
      "postcode": "5120-202",
      "city": "GRANJINHA",
      "lon": "-7.519798111821208",
      "lat": "41.06676659921691"
    },
    {
      "id": "pt.ine.add.PTCONT.5603046",
      "street": "R CAPELA",
      "house": "",
      "postcode": "5120-202",
      "city": "GRANJINHA",
      "lon": "-7.519463406350432",
      "lat": "41.06693590205682"
    },
    {
      "id": "pt.ine.add.PTCONT.5625602",
      "street": "R CANTINHO",
      "house": "3",
      "postcode": "5120-202",
      "city": "GRANJINHA",
      "lon": "-7.5194646619875956",
      "lat": "41.06680084185467"
    },
    {
      "id": "pt.ine.add.PTCONT.5625685",
      "street": "R AMENDOEIRA",
      "house": "5",
      "postcode": "5120-202",
      "city": "GRANJINHA",
      "lon": "-7.518995484990092",
      "lat": "41.066077985660435"
    },
    {
      "id": "pt.ine.add.PTCONT.5631375",
      "street": "R HORTAS",
      "house": "",
      "postcode": "5120-202",
      "city": "GRANJINHA",
      "lon": "-7.518833872996892",
      "lat": "41.065545861094684"
    },
    {
      "id": "pt.ine.add.PTCONT.5637810",
      "street": "ESTR NACIONAL",
      "house": "",
      "postcode": "5120-202",
      "city": "GRANJINHA",
      "lon": "-7.513541344465353",
      "lat": "41.080563960128345"
    },
    {
      "id": "pt.ine.add.PTCONT.5641184",
      "street": "R HORTAS",
      "house": "1",
      "postcode": "5120-202",
      "city": "GRANJINHA",
      "lon": "-7.518987441639241",
      "lat": "41.06566373760403"
    },
    {
      "id": "pt.ine.add.PTCONT.5655718",
      "street": "R RIBEIRO",
      "house": "1",
      "postcode": "5120-202",
      "city": "GRANJINHA",
      "lon": "-7.518903577816192",
      "lat": "41.06572632186458"
    },
    {
      "id": "pt.ine.add.PTCONT.5665242",
      "street": "RAM RAMAL DE S PEDRO DAS AGUIAS",
      "house": "3",
      "postcode": "5120-202",
      "city": "GRANJINHA",
      "lon": "-7.520219487856253",
      "lat": "41.068794844183635"
    },
    {
      "id": "pt.ine.add.PTCONT.5668256",
      "street": "R FONTE",
      "house": "",
      "postcode": "5120-202",
      "city": "GRANJINHA",
      "lon": "-7.519550702776748",
      "lat": "41.06650415283908"
    }
  ]
}