{
  "data": {
    "distrito": "Lisboa",
    "concelho": "Cascais",
    "freguesia": "União das freguesias de Cascais e Estoril",
    "OBJECTID": 159,
    "BGRI2021": "11050804102",
    "DT21": "11",
    "DTMN21": "1105",
    "DTMNFR21": "110508",
    "DTMNFRSEC21": "110508041",
    "SECNUM21": "041",
    "SSNUM21": "02",
    "SECSSNUM21": "04102",
    "OBJECTID_1": 101478,
    "DT": "11",
    "CC": "05",
    "fr": "08",
    "SEC": "041",
    "SS": "02"
  },
  "addresses": [
    {
      "id": "pt.ine.add.PTCONT.2972868",
      "street": "AV BOMBEIROS VOLUNTARIOS",
      "house": "",
      "postcode": "2765-201",
      "city": "ESTORIL",
      "lon": "-9.394073959180941",
      "lat": "38.70434436393515"
    },
    {
      "id": "pt.ine.add.PTCONT.2980572",
      "street": "AV BOMBEIROS VOLUNTARIOS",
      "house": "62",
      "postcode": "2765-201",
      "city": "ESTORIL",
      "lon": "-9.394104009714566",
      "lat": "38.70409182340935"
    },
    {
      "id": "pt.ine.add.PTCONT.2980573",
      "street": "AV BOMBEIROS VOLUNTARIOS",
      "house": "62",
      "postcode": "2765-201",
      "city": "ESTORIL",
      "lon": "-9.394104009714566",
      "lat": "38.70409182340935"
    },
    {
      "id": "pt.ine.add.PTCONT.2980574",
      "street": "AV BOMBEIROS VOLUNTARIOS",
      "house": "62",
      "postcode": "2765-201",
      "city": "ESTORIL",
      "lon": "-9.394104009714566",
      "lat": "38.70409182340935"
    },
    {
      "id": "pt.ine.add.PTCONT.3045573",
      "street": "R DR ANTÓNIO MARTINS",
      "house": "35",
      "postcode": "2765-194",
      "city": "ESTORIL",
      "lon": "-9.393331744838651",
      "lat": "38.703974041837775"
    },
    {
      "id": "pt.ine.add.PTCONT.3045574",
      "street": "R DR ANTÓNIO MARTINS",
      "house": "35",
      "postcode": "2765-194",
      "city": "ESTORIL",
      "lon": "-9.393331744838651",
      "lat": "38.703974041837775"
    },
    {
      "id": "pt.ine.add.PTCONT.3259187",
      "street": "R DR ANTÓNIO MARTINS JULIA",
      "house": "51",
      "postcode": "2765-194",
      "city": "ESTORIL",
      "lon": "-9.39335931636583",
      "lat": "38.704234968818426"
    },
    {
      "id": "pt.ine.add.PTCONT.3444730",
      "street": "R DR MÁRIO QUINA",
      "house": "12",
      "postcode": "2765-251",
      "city": "ESTORIL",
      "lon": "-9.393863441150149",
      "lat": "38.70413945644349"
    },
    {
      "id": "pt.ine.add.PTCONT.3456916",
      "street": "R PALMEIRAS",
      "house": "3",
      "postcode": "2765-264",
      "city": "ESTORIL",
      "lon": "-9.39357974531729",
      "lat": "38.70434969307846"
    },
    {
      "id": "pt.ine.add.PTCONT.2530709",
      "street": "R PALMEIRAS",
      "house": "5",
      "postcode": "2765-264",
      "city": "ESTORIL",
      "lon": "-9.393821896400208",
      "lat": "38.70439212085379"
    },
    {
      "id": "pt.ine.add.PTCONT.2530712",
      "street": "R PALMEIRAS",
      "house": "5",
      "postcode": "2765-264",
      "city": "ESTORIL",
      "lon": "-9.393821896400208",
      "lat": "38.70439212085379"
    },
    {
      "id": "pt.ine.add.PTCONT.2530713",
      "street": "R PALMEIRAS",
      "house": "5",
      "postcode": "2765-264",
      "city": "ESTORIL",
      "lon": "-9.393821896400208",
      "lat": "38.70439212085379"
    },
    {
      "id": "pt.ine.add.PTCONT.2609371",
      "street": "R PALMEIRAS",
      "house": "3",
      "postcode": "2765-264",
      "city": "ESTORIL",
      "lon": "-9.39357974531729",
      "lat": "38.70434969307846"
    },
    {
      "id": "pt.ine.add.PTCONT.2609515",
      "street": "R PALMEIRAS",
      "house": "3",
      "postcode": "2765-264",
      "city": "ESTORIL",
      "lon": "-9.39357974531729",
      "lat": "38.70434969307846"
    },
    {
      "id": "pt.ine.add.PTCONT.2609516",
      "street": "R PALMEIRAS",
      "house": "3",
      "postcode": "2765-264",
      "city": "ESTORIL",
      "lon": "-9.39357974531729",
      "lat": "38.70434969307846"
    },
    {
      "id": "pt.ine.add.PTCONT.2609517",
      "street": "R PALMEIRAS",
      "house": "3",
      "postcode": "2765-264",
      "city": "ESTORIL",
      "lon": "-9.39357974531729",
      "lat": "38.70434969307846"
    },
    {
      "id": "pt.ine.add.PTCONT.2609518",
      "street": "R PALMEIRAS",
      "house": "3",
      "postcode": "2765-264",
      "city": "ESTORIL",
      "lon": "-9.39357974531729",
      "lat": "38.70434969307846"
    },
    {
      "id": "pt.ine.add.PTCONT.2609519",
      "street": "R PALMEIRAS",
      "house": "3",
      "postcode": "2765-264",
      "city": "ESTORIL",
      "lon": "-9.39357974531729",
      "lat": "38.70434969307846"
    },
    {
      "id": "pt.ine.add.PTCONT.2609520",
      "street": "R PALMEIRAS",
      "house": "3",
      "postcode": "2765-264",
      "city": "ESTORIL",
      "lon": "-9.39357974531729",
      "lat": "38.70434969307846"
    },
    {
      "id": "pt.ine.add.PTCONT.2664334",
      "street": "R DR MÁRIO QUINA VILLA SANTO ANTÓNIO",
      "house": "10",
      "postcode": "2765-251",
      "city": "ESTORIL",
      "lon": "-9.393596722971974",
      "lat": "38.70400721631025"
    },
    {
      "id": "pt.ine.add.PTCONT.2664335",
      "street": "R DR MÁRIO QUINA VILLA SANTO ANTÓNIO",
      "house": "10",
      "postcode": "2765-251",
      "city": "ESTORIL",
      "lon": "-9.393596722971974",
      "lat": "38.70400721631025"
    }
  ]
}