{
  "data": {
    "distrito": "Leiria",
    "concelho": "Pombal",
    "freguesia": "Abiul",
    "OBJECTID": 2709,
    "BGRI2021": "10150100247",
    "DT21": "10",
    "DTMN21": "1015",
    "DTMNFR21": "101501",
    "DTMNFRSEC21": "101501002",
    "SECNUM21": "002",
    "SSNUM21": "47",
    "SECSSNUM21": "00247",
    "OBJECTID_1": 95805,
    "DT": "10",
    "CC": "15",
    "fr": "01",
    "SEC": "002",
    "SS": "47"
  },
  "addresses": [
    {
      "id": "pt.ine.add.PTCONT.1985850",
      "street": "R PRINCIPAL",
      "house": "",
      "postcode": "3100-077",
      "city": "",
      "lon": "-8.545744635530353",
      "lat": "39.89416484803893"
    },
    {
      "id": "pt.ine.add.PTCONT.2058474",
      "street": "R PRINCIPAL",
      "house": "",
      "postcode": "3100-077",
      "city": "",
      "lon": "-8.545872384339512",
      "lat": "39.894020292283436"
    },
    {
      "id": "pt.ine.add.PTCONT.2091041",
      "street": "R NSA SRA DOS REMEDIOS RUI MANUEL VALENTE",
      "house": "",
      "postcode": "3100-021",
      "city": "ABIUL",
      "lon": "-8.547499048208678",
      "lat": "39.894257662085074"
    },
    {
      "id": "pt.ine.add.PTCONT.2097405",
      "street": "R NSA SRA DOS REMEDIOS",
      "house": "",
      "postcode": "3100-021",
      "city": "ABIUL",
      "lon": "-8.547384838121477",
      "lat": "39.89470838617635"
    },
    {
      "id": "pt.ine.add.PTCONT.2101937",
      "street": "R ESTRADA",
      "house": "51",
      "postcode": "3100-021",
      "city": "ABIUL",
      "lon": "-8.547122678582882",
      "lat": "39.893889747100154"
    },
    {
      "id": "pt.ine.add.PTCONT.2115212",
      "street": "",
      "house": "",
      "postcode": "3100-077",
      "city": "",
      "lon": "-8.546787236467178",
      "lat": "39.89449436766289"
    },
    {
      "id": "pt.ine.add.PTCONT.2219943",
      "street": "",
      "house": "",
      "postcode": "3100-077",
      "city": "",
      "lon": "-8.546587928500319",
      "lat": "39.89440501521111"
    },
    {
      "id": "pt.ine.add.PTCONT.2235730",
      "street": "R NSA SRA DOS REMEDIOS",
      "house": "",
      "postcode": "3100-021",
      "city": "ABIUL",
      "lon": "-8.547337147636961",
      "lat": "39.89455544906873"
    },
    {
      "id": "pt.ine.add.PTCONT.2260333",
      "street": "",
      "house": "",
      "postcode": "3100-077",
      "city": "",
      "lon": "-8.547138922601881",
      "lat": "39.89464622012048"
    }
  ]
}