{
  "data": {
    "distrito": "Viseu",
    "concelho": "Viseu",
    "freguesia": "São Cipriano e Vil de Souto",
    "OBJECTID": 952,
    "BGRI2021": "18234000108",
    "DT21": "18",
    "DTMN21": "1823",
    "DTMNFR21": "182340",
    "DTMNFRSEC21": "182340001",
    "SECNUM21": "001",
    "SSNUM21": "08",
    "SECSSNUM21": "00108",
    "OBJECTID_1": 201257,
    "DT": "18",
    "CC": "23",
    "fr": "40",
    "SEC": "001",
    "SS": "08"
  },
  "addresses": [
    {
      "id": "pt.ine.add.PTCONT.5433978",
      "street": "ESTR PRINCIPAL",
      "house": "",
      "postcode": "3510-732",
      "city": "SÃO CIPRIANO VIS",
      "lon": "-7.982356617874719",
      "lat": "40.64149679545421"
    },
    {
      "id": "pt.ine.add.PTCONT.5437691",
      "street": "R ALTO DAS CORGAS",
      "house": "2",
      "postcode": "3510-732",
      "city": "SÃO CIPRIANO VIS",
      "lon": "-7.984631765326359",
      "lat": "40.63907734572946"
    },
    {
      "id": "pt.ine.add.PTCONT.5446839",
      "street": "R STA BARBARA",
      "house": "",
      "postcode": "3510-732",
      "city": "SÃO CIPRIANO VIS",
      "lon": "-7.984062778570356",
      "lat": "40.639779018056906"
    },
    {
      "id": "pt.ine.add.PTCONT.5456059",
      "street": "STA BARBARA",
      "house": "",
      "postcode": "3510-732",
      "city": "SÃO CIPRIANO VIS",
      "lon": "-7.984026633024995",
      "lat": "40.64008514803065"
    },
    {
      "id": "pt.ine.add.PTCONT.5477714",
      "street": "R DE STA BARBARA",
      "house": "",
      "postcode": "3510-732",
      "city": "SÃO CIPRIANO VIS",
      "lon": "-7.982948997898429",
      "lat": "40.64092123488632"
    },
    {
      "id": "pt.ine.add.PTCONT.5497347",
      "street": "R PROF JOSE MIGUEL",
      "house": "",
      "postcode": "3510-735",
      "city": "SÃO CIPRIANO VIS",
      "lon": "-7.97983759224635",
      "lat": "40.64192572883275"
    },
    {
      "id": "pt.ine.add.PTCONT.5515997",
      "street": "R DO ALTO DAS CORGAS",
      "house": "1",
      "postcode": "3510-732",
      "city": "SÃO CIPRIANO VIS",
      "lon": "-7.984254322385438",
      "lat": "40.63869864157841"
    },
    {
      "id": "pt.ine.add.PTCONT.5550234",
      "street": "",
      "house": "",
      "postcode": "3510-735",
      "city": "SÃO CIPRIANO VIS",
      "lon": "-7.980774077006627",
      "lat": "40.64080131889437"
    },
    {
      "id": "pt.ine.add.PTCONT.5622520",
      "street": "ESTR PRINCIPAL",
      "house": "",
      "postcode": "3510-735",
      "city": "SÃO CIPRIANO VIS",
      "lon": "-7.9808319778895385",
      "lat": "40.641332701645226"
    },
    {
      "id": "pt.ine.add.PTCONT.5661993",
      "street": "R ALTO CORVAS",
      "house": "12",
      "postcode": "3510-732",
      "city": "SÃO CIPRIANO VIS",
      "lon": "-7.984893169318809",
      "lat": "40.63847433332953"
    }
  ]
}