{
  "data": {
    "distrito": "Viseu",
    "concelho": "Viseu",
    "freguesia": "São Cipriano e Vil de Souto",
    "OBJECTID": 121,
    "BGRI2021": "18234000117",
    "DT21": "18",
    "DTMN21": "1823",
    "DTMNFR21": "182340",
    "DTMNFRSEC21": "182340001",
    "SECNUM21": "001",
    "SSNUM21": "17",
    "SECSSNUM21": "00117",
    "OBJECTID_1": 200739,
    "DT": "18",
    "CC": "23",
    "fr": "40",
    "SEC": "001",
    "SS": "17"
  },
  "addresses": [
    {
      "id": "pt.ine.add.PTCONT.5497894",
      "street": "TV ESCOLA",
      "house": "",
      "postcode": "3510-737",
      "city": "SÃO CIPRIANO VIS",
      "lon": "-7.967250372266896",
      "lat": "40.64545638083564"
    },
    {
      "id": "pt.ine.add.PTCONT.5506829",
      "street": "TV JOAO ANDRE",
      "house": "",
      "postcode": "3510-736",
      "city": "SÃO CIPRIANO VIS",
      "lon": "-7.967973584315443",
      "lat": "40.64462894017835"
    },
    {
      "id": "pt.ine.add.PTCONT.5508592",
      "street": "R ESCOLA",
      "house": "",
      "postcode": "3510-737",
      "city": "SÃO CIPRIANO VIS",
      "lon": "-7.967112050119467",
      "lat": "40.644024357457816"
    },
    {
      "id": "pt.ine.add.PTCONT.5511251",
      "street": "R FONTE",
      "house": "",
      "postcode": "3510-737",
      "city": "SÃO CIPRIANO VIS",
      "lon": "-7.967949651115403",
      "lat": "40.64474597337623"
    },
    {
      "id": "pt.ine.add.PTCONT.5564935",
      "street": "R PRINCIPAL",
      "house": "5",
      "postcode": "3510-737",
      "city": "SÃO CIPRIANO VIS",
      "lon": "-7.9675135823319865",
      "lat": "40.64419603249704"
    },
    {
      "id": "pt.ine.add.PTCONT.5600145",
      "street": "R PRINCIPAL",
      "house": "1",
      "postcode": "3510-737",
      "city": "SÃO CIPRIANO VIS",
      "lon": "-7.967785093867284",
      "lat": "40.64435851488319"
    },
    {
      "id": "pt.ine.add.PTCONT.5613202",
      "street": "R PRINCIPAL",
      "house": "",
      "postcode": "3510-737",
      "city": "SÃO CIPRIANO VIS",
      "lon": "-7.966366982124692",
      "lat": "40.644131346313664"
    },
    {
      "id": "pt.ine.add.PTCONT.5614454",
      "street": "R PRINCIPAL",
      "house": "19",
      "postcode": "3510-737",
      "city": "SÃO CIPRIANO VIS",
      "lon": "-7.966863046427741",
      "lat": "40.6443211704404"
    },
    {
      "id": "pt.ine.add.PTCONT.5656311",
      "street": "R FONTE",
      "house": "",
      "postcode": "3510-737",
      "city": "SÃO CIPRIANO VIS",
      "lon": "-7.966555130431359",
      "lat": "40.64453685123847"
    }
  ]
}