{
  "data": {
    "distrito": "Viseu",
    "concelho": "Mangualde",
    "freguesia": "União das freguesias de Mangualde, Mesquitela e Cunha Alta",
    "OBJECTID": 635,
    "BGRI2021": "18061900206",
    "DT21": "18",
    "DTMN21": "1806",
    "DTMNFR21": "180619",
    "DTMNFRSEC21": "180619002",
    "SECNUM21": "002",
    "SSNUM21": "06",
    "SECSSNUM21": "00206",
    "OBJECTID_1": 191753,
    "DT": "18",
    "CC": "06",
    "fr": "19",
    "SEC": "002",
    "SS": "06"
  },
  "addresses": [
    {
      "id": "pt.ine.add.PTCONT.5431150",
      "street": "QTA MELO",
      "house": "",
      "postcode": "3530-138",
      "city": "",
      "lon": "-7.7830800295690326",
      "lat": "40.60236036081263"
    },
    {
      "id": "pt.ine.add.PTCONT.5434716",
      "street": "R ESTRADA ANTIGA",
      "house": "37",
      "postcode": "3530-138",
      "city": "",
      "lon": "-7.7832142458246585",
      "lat": "40.60381060970128"
    },
    {
      "id": "pt.ine.add.PTCONT.5434727",
      "street": "BC FORNO",
      "house": "6",
      "postcode": "3530-101",
      "city": "MANGUALDE",
      "lon": "-7.782879743803538",
      "lat": "40.60225169089977"
    },
    {
      "id": "pt.ine.add.PTCONT.5439337",
      "street": "R QUINTA DO MELO",
      "house": "",
      "postcode": "3530-101",
      "city": "MANGUALDE",
      "lon": "-7.784000966629253",
      "lat": "40.602480215988635"
    },
    {
      "id": "pt.ine.add.PTCONT.5490458",
      "street": "R ESTRADA ANTIGA",
      "house": "39",
      "postcode": "3530-138",
      "city": "",
      "lon": "-7.783497663833803",
      "lat": "40.60383848359682"
    },
    {
      "id": "pt.ine.add.PTCONT.5498498",
      "street": "R ESTRADA ANTIGA",
      "house": "35",
      "postcode": "3530-138",
      "city": "",
      "lon": "-7.782846713212831",
      "lat": "40.6040526369643"
    },
    {
      "id": "pt.ine.add.PTCONT.5562955",
      "street": "R QUINTA DO MELO",
      "house": "14",
      "postcode": "3530-101",
      "city": "MANGUALDE",
      "lon": "-7.784270832494527",
      "lat": "40.602841240612705"
    },
    {
      "id": "pt.ine.add.PTCONT.5582516",
      "street": "BC FORNO",
      "house": "2",
      "postcode": "3530-101",
      "city": "MANGUALDE",
      "lon": "-7.7829037961297365",
      "lat": "40.60217071673428"
    },
    {
      "id": "pt.ine.add.PTCONT.5584338",
      "street": "R ESTRADA ANTIGA",
      "house": "",
      "postcode": "3530-138",
      "city": "",
      "lon": "-7.78433732134072",
      "lat": "40.603687933126885"
    },
    {
      "id": "pt.ine.add.PTCONT.5655378",
      "street": "QTA CABRAL",
      "house": "",
      "postcode": "3530-101",
      "city": "MANGUALDE",
      "lon": "-7.783028025651661",
      "lat": "40.60326973160565"
    },
    {
      "id": "pt.ine.add.PTCONT.5660933",
      "street": "R QUINTA DO MELO",
      "house": "12",
      "postcode": "3530-101",
      "city": "MANGUALDE",
      "lon": "-7.784153668151557",
      "lat": "40.602651776832396"
    },
    {
      "id": "pt.ine.add.PTCONT.5667200",
      "street": "R CALÇADA",
      "house": "18",
      "postcode": "3530-101",
      "city": "MANGUALDE",
      "lon": "-7.782785555509958",
      "lat": "40.602188368640206"
    }
  ]
}