{
  "data": {
    "distrito": "Lisboa",
    "concelho": "Sobral de Monte Agraço",
    "freguesia": "Sapataria",
    "OBJECTID": 209,
    "BGRI2021": "11120200230",
    "DT21": "11",
    "DTMN21": "1112",
    "DTMNFR21": "111202",
    "DTMNFRSEC21": "111202002",
    "SECNUM21": "002",
    "SSNUM21": "30",
    "SECSSNUM21": "00230",
    "OBJECTID_1": 114737,
    "DT": "11",
    "CC": "12",
    "fr": "02",
    "SEC": "002",
    "SS": "30"
  },
  "addresses": [
    {
      "id": "pt.ine.add.PTCONT.2374028",
      "street": "AV 25 DE ABRLL",
      "house": "",
      "postcode": "2590-423",
      "city": "SOBRAL DE MONTE AGRAÇO",
      "lon": "-9.204482631080305",
      "lat": "38.96052192557227"
    },
    {
      "id": "pt.ine.add.PTCONT.2482213",
      "street": "R MOINHO",
      "house": "1",
      "postcode": "2590-423",
      "city": "SOBRAL DE MONTE AGRAÇO",
      "lon": "-9.204315831735666",
      "lat": "38.96170343665784"
    },
    {
      "id": "pt.ine.add.PTCONT.2840247",
      "street": "R BICA",
      "house": "2",
      "postcode": "2590-423",
      "city": "SOBRAL DE MONTE AGRAÇO",
      "lon": "-9.204240387794371",
      "lat": "38.960524149317855"
    },
    {
      "id": "pt.ine.add.PTCONT.2913181",
      "street": "R MOINHO",
      "house": "3",
      "postcode": "2590-423",
      "city": "SOBRAL DE MONTE AGRAÇO",
      "lon": "-9.204358583210954",
      "lat": "38.96147785723809"
    },
    {
      "id": "pt.ine.add.PTCONT.3061885",
      "street": "CSL TRAVASSOS",
      "house": "",
      "postcode": "2590-423",
      "city": "SOBRAL DE MONTE AGRAÇO",
      "lon": "-9.20017176700651",
      "lat": "38.960786610367165"
    },
    {
      "id": "pt.ine.add.PTCONT.3069360",
      "street": "R MOINHO",
      "house": "7",
      "postcode": "2590-423",
      "city": "SOBRAL DE MONTE AGRAÇO",
      "lon": "-9.204497964600995",
      "lat": "38.96077399424581"
    },
    {
      "id": "pt.ine.add.PTCONT.3078795",
      "street": "CSL TRAVASSOS",
      "house": "10",
      "postcode": "2590-423",
      "city": "SOBRAL DE MONTE AGRAÇO",
      "lon": "-9.200262918890555",
      "lat": "38.961479352978834"
    },
    {
      "id": "pt.ine.add.PTCONT.3328003",
      "street": "AV 25 DE ABRLL",
      "house": "",
      "postcode": "2590-423",
      "city": "SOBRAL DE MONTE AGRAÇO",
      "lon": "-9.204518865059654",
      "lat": "38.96062968267333"
    },
    {
      "id": "pt.ine.add.PTCONT.3410967",
      "street": "R BARREIRO",
      "house": "8",
      "postcode": "2590-423",
      "city": "SOBRAL DE MONTE AGRAÇO",
      "lon": "-9.204066668942563",
      "lat": "38.96124634213212"
    }
  ]
}