{
  "data": {
    "distrito": "Castelo Branco",
    "concelho": "Idanha-A-Nova",
    "freguesia": "União das freguesias de Monfortinho e Salvaterra do Extremo",
    "OBJECTID": 587,
    "BGRI2021": "05051900134",
    "DT21": "05",
    "DTMN21": "0505",
    "DTMNFR21": "050519",
    "DTMNFRSEC21": "050519001",
    "SECNUM21": "001",
    "SSNUM21": "34",
    "SECSSNUM21": "00134",
    "OBJECTID_1": 44411,
    "DT": "05",
    "CC": "05",
    "fr": "19",
    "SEC": "001",
    "SS": "34"
  },
  "addresses": [
    {
      "id": "pt.ine.add.PTCONT.1003764",
      "street": "R DO RIBEIRO",
      "house": "1",
      "postcode": "6060-071",
      "city": "MONFORTINHO",
      "lon": "-6.938582155837323",
      "lat": "39.962019425729146"
    },
    {
      "id": "pt.ine.add.PTCONT.1006330",
      "street": "R DE STO ANTÓNIO",
      "house": "",
      "postcode": "6060-073",
      "city": "MONFORTINHO",
      "lon": "-6.9418313804613625",
      "lat": "39.9629444506402"
    },
    {
      "id": "pt.ine.add.PTCONT.1038179",
      "street": "R PRINCIPAL",
      "house": "",
      "postcode": "6060-071",
      "city": "MONFORTINHO",
      "lon": "-6.9368408432326305",
      "lat": "39.9618753846783"
    },
    {
      "id": "pt.ine.add.PTCONT.1044924",
      "street": "",
      "house": "",
      "postcode": "6060-073",
      "city": "MONFORTINHO",
      "lon": "-6.958180203914742",
      "lat": "39.947972351566456"
    },
    {
      "id": "pt.ine.add.PTCONT.1073425",
      "street": "BC DA BARROCA DO MILHO",
      "house": "2",
      "postcode": "6060-073",
      "city": "MONFORTINHO",
      "lon": "-6.941775039947248",
      "lat": "39.96349323218286"
    },
    {
      "id": "pt.ine.add.PTCONT.1089774",
      "street": "R DO RIBEIRO",
      "house": "",
      "postcode": "6060-072",
      "city": "MONFORTINHO",
      "lon": "-6.935423016928736",
      "lat": "39.961302376766824"
    }
  ]
}