{
  "data": {
    "distrito": "Lisboa",
    "concelho": "Mafra",
    "freguesia": "União das freguesias de Malveira e São Miguel de Alcainça",
    "OBJECTID": 705,
    "BGRI2021": "11092100633",
    "DT21": "11",
    "DTMN21": "1109",
    "DTMNFR21": "110921",
    "DTMNFRSEC21": "110921006",
    "SECNUM21": "006",
    "SSNUM21": "33",
    "SECSSNUM21": "00633",
    "OBJECTID_1": 109283,
    "DT": "11",
    "CC": "09",
    "fr": "21",
    "SEC": "006",
    "SS": "33"
  },
  "addresses": [
    {
      "id": "pt.ine.add.PTCONT.2399430",
      "street": "R BARROS",
      "house": "",
      "postcode": "2665-215",
      "city": "MALVEIRA",
      "lon": "-9.266119026345587",
      "lat": "38.93118794845217"
    },
    {
      "id": "pt.ine.add.PTCONT.2739065",
      "street": "R BARREIRINHOS CASAL FRANCISCO NEVES",
      "house": "",
      "postcode": "2665-214",
      "city": "MALVEIRA",
      "lon": "-9.26419201876684",
      "lat": "38.93474657905143"
    },
    {
      "id": "pt.ine.add.PTCONT.2777651",
      "street": "R BARREIRINHOS",
      "house": "",
      "postcode": "2665-214",
      "city": "MALVEIRA",
      "lon": "-9.264474794708725",
      "lat": "38.933671948110096"
    },
    {
      "id": "pt.ine.add.PTCONT.2906247",
      "street": "R DOS BARREIRINHOS",
      "house": "7",
      "postcode": "2640-715",
      "city": "SÃO MIGUEL DE ALCAINÇA",
      "lon": "-9.264261517103733",
      "lat": "38.93331371594421"
    },
    {
      "id": "pt.ine.add.PTCONT.2911602",
      "street": "ESTR MOINHOS QTA LES MENTHES SAUVAGES",
      "house": "",
      "postcode": "2665-254",
      "city": "MALVEIRA",
      "lon": "-9.265501178998337",
      "lat": "38.935121206528976"
    },
    {
      "id": "pt.ine.add.PTCONT.3280677",
      "street": "R BARROS",
      "house": "",
      "postcode": "2665-215",
      "city": "MALVEIRA",
      "lon": "-9.265734798577483",
      "lat": "38.930957482924846"
    }
  ]
}