{
  "data": {
    "distrito": "Lisboa",
    "concelho": "Sintra",
    "freguesia": "Colares",
    "OBJECTID": 2231,
    "BGRI2021": "11110500301",
    "DT21": "11",
    "DTMN21": "1111",
    "DTMNFR21": "111105",
    "DTMNFRSEC21": "111105003",
    "SECNUM21": "003",
    "SSNUM21": "01",
    "SECSSNUM21": "00301",
    "OBJECTID_1": 112017,
    "DT": "11",
    "CC": "11",
    "fr": "05",
    "SEC": "003",
    "SS": "01"
  },
  "addresses": [
    {
      "id": "pt.ine.add.PTCONT.2268970",
      "street": "ESTR RODIZIO CASALINHO DO ALTO",
      "house": "78",
      "postcode": "2705-337",
      "city": "COLARES",
      "lon": "-9.47193641062174",
      "lat": "38.80796674798134"
    },
    {
      "id": "pt.ine.add.PTCONT.2353905",
      "street": "R PEGO CASE MARES",
      "house": "CASE MARES",
      "postcode": "2705-058",
      "city": "COLARES",
      "lon": "-9.470953039026302",
      "lat": "38.80770778817666"
    },
    {
      "id": "pt.ine.add.PTCONT.2581625",
      "street": "ESTR RODIZIO CAS ALINHO DO ALTO",
      "house": "76",
      "postcode": "2705-337",
      "city": "COLARES",
      "lon": "-9.471402249681784",
      "lat": "38.807720657992924"
    },
    {
      "id": "pt.ine.add.PTCONT.2604493",
      "street": "R PEGO QTA DO BARRO",
      "house": "",
      "postcode": "2705-058",
      "city": "COLARES",
      "lon": "-9.469286167850706",
      "lat": "38.8078349554965"
    },
    {
      "id": "pt.ine.add.PTCONT.2669696",
      "street": "ESTR RODIZIO",
      "house": "84",
      "postcode": "2705-337",
      "city": "COLARES",
      "lon": "-9.471124787350476",
      "lat": "38.80827329477403"
    },
    {
      "id": "pt.ine.add.PTCONT.3049341",
      "street": "ESTR RODIZIO",
      "house": "72",
      "postcode": "2705-337",
      "city": "COLARES",
      "lon": "-9.47221639471482",
      "lat": "38.80754919314093"
    },
    {
      "id": "pt.ine.add.PTCONT.3217003",
      "street": "R PEGO CABECO DE BARRO",
      "house": "",
      "postcode": "2705-058",
      "city": "COLARES",
      "lon": "-9.470911043538033",
      "lat": "38.80792444952371"
    },
    {
      "id": "pt.ine.add.PTCONT.3245202",
      "street": "R PEGO CASA DE SINTRA",
      "house": "",
      "postcode": "2705-058",
      "city": "COLARES",
      "lon": "-9.47124858127167",
      "lat": "38.80750623786828"
    }
  ]
}