{
  "data": {
    "distrito": "Setúbal",
    "concelho": "Palmela",
    "freguesia": "Palmela",
    "OBJECTID": 803,
    "BGRI2021": "15080201103",
    "DT21": "15",
    "DTMN21": "1508",
    "DTMNFR21": "150802",
    "DTMNFRSEC21": "150802011",
    "SECNUM21": "011",
    "SSNUM21": "03",
    "SECSSNUM21": "01103",
    "OBJECTID_1": 166090,
    "DT": "15",
    "CC": "08",
    "fr": "02",
    "SEC": "011",
    "SS": "03"
  },
  "addresses": [
    {
      "id": "pt.ine.add.PTCONT.4687089",
      "street": "ESTR RESTAURADORES DE PALMELA",
      "house": "",
      "postcode": "2950-044",
      "city": "PALMELA",
      "lon": "-8.908896268309034",
      "lat": "38.58071803458765"
    },
    {
      "id": "pt.ine.add.PTCONT.4737968",
      "street": "R PEGARIAS",
      "house": "CCI 7609",
      "postcode": "2950-422",
      "city": "PALMELA",
      "lon": "-8.908316157533115",
      "lat": "38.581199313746026"
    },
    {
      "id": "pt.ine.add.PTCONT.4740732",
      "street": "R POÇOS",
      "house": "1400",
      "postcode": "2950-423",
      "city": "PALMELA",
      "lon": "-8.909795586375493",
      "lat": "38.582171400754426"
    },
    {
      "id": "pt.ine.add.PTCONT.4759922",
      "street": "ESTR RESTAURADORES DE PALMELA",
      "house": "",
      "postcode": "2950-044",
      "city": "PALMELA",
      "lon": "-8.909355732890539",
      "lat": "38.58182299853952"
    },
    {
      "id": "pt.ine.add.PTCONT.4795739",
      "street": "ESTR RESTAURADORES DE PALMELA IOURDES HOUSE",
      "house": "",
      "postcode": "2950-044",
      "city": "PALMELA",
      "lon": "-8.908872639325809",
      "lat": "38.58065513369925"
    },
    {
      "id": "pt.ine.add.PTCONT.4802478",
      "street": "ESTR RESTAURADORES DE PALMELA",
      "house": "",
      "postcode": "2950-044",
      "city": "PALMELA",
      "lon": "-8.908967833889392",
      "lat": "38.580969790225396"
    },
    {
      "id": "pt.ine.add.PTCONT.4815144",
      "street": "ESTR RESTAURADORES DE PALMELA",
      "house": "1400 A",
      "postcode": "2950-044",
      "city": "PALMELA",
      "lon": "-8.90965826747188",
      "lat": "38.58220834479093"
    },
    {
      "id": "pt.ine.add.PTCONT.4837739",
      "street": "R IGREJA MATRIZ",
      "house": "",
      "postcode": "2950-422",
      "city": "PALMELA",
      "lon": "-8.907737800008622",
      "lat": "38.57970777913047"
    },
    {
      "id": "pt.ine.add.PTCONT.4863097",
      "street": "ESTR RESTAURADORES DE PALMELA",
      "house": "1220",
      "postcode": "2950-044",
      "city": "PALMELA",
      "lon": "-8.90909745561501",
      "lat": "38.58128421840316"
    },
    {
      "id": "pt.ine.add.PTCONT.4869479",
      "street": "R IGREJA MATRIZ",
      "house": "10",
      "postcode": "2950-422",
      "city": "PALMELA",
      "lon": "-8.908356201367596",
      "lat": "38.579586577834114"
    },
    {
      "id": "pt.ine.add.PTCONT.4907346",
      "street": "R PEGARIAS",
      "house": "CCI 7608",
      "postcode": "2950-422",
      "city": "PALMELA",
      "lon": "-8.90835184266686",
      "lat": "38.58131618417426"
    },
    {
      "id": "pt.ine.add.PTCONT.4929166",
      "street": "ESTR RESTAURADORES DE PALMELA",
      "house": "1108",
      "postcode": "2950-044",
      "city": "PALMELA",
      "lon": "-8.908603379035336",
      "lat": "38.58016146621485"
    },
    {
      "id": "pt.ine.add.PTCONT.4929167",
      "street": "ESTR RESTAURADORES DE PALMELA",
      "house": "",
      "postcode": "2950-044",
      "city": "PALMELA",
      "lon": "-8.909587377130865",
      "lat": "38.582019642653535"
    },
    {
      "id": "pt.ine.add.PTCONT.4947684",
      "street": "ESTR RESTAURADORES DE PALMELA SANTONINHO",
      "house": "",
      "postcode": "2950-044",
      "city": "PALMELA",
      "lon": "-8.909026955362162",
      "lat": "38.58113154616014"
    },
    {
      "id": "pt.ine.add.PTCONT.5007078",
      "street": "ESTR RESTAURADORES DE PALMELA CASA AMARELA",
      "house": "1150",
      "postcode": "2950-044",
      "city": "PALMELA",
      "lon": "-8.908663661454781",
      "lat": "38.58043131325994"
    },
    {
      "id": "pt.ine.add.PTCONT.5022018",
      "street": "AZ POÇOS",
      "house": "",
      "postcode": "2950-425",
      "city": "PALMELA",
      "lon": "-8.90841076937331",
      "lat": "38.581459925276384"
    },
    {
      "id": "pt.ine.add.PTCONT.5103969",
      "street": "ESTR RESTAURADORES DE PALMELA",
      "house": "1318",
      "postcode": "2950-044",
      "city": "PALMELA",
      "lon": "-8.909668385011894",
      "lat": "38.582082162681935"
    },
    {
      "id": "pt.ine.add.PTCONT.5103970",
      "street": "ESTR RESTAURADORES DE PALMELA",
      "house": "1318",
      "postcode": "2950-044",
      "city": "PALMELA",
      "lon": "-8.909668385011894",
      "lat": "38.582082162681935"
    },
    {
      "id": "pt.ine.add.PTCONT.5118539",
      "street": "R PEGARIAS",
      "house": "",
      "postcode": "2950-422",
      "city": "PALMELA",
      "lon": "-8.90824372259328",
      "lat": "38.580866489531104"
    }
  ]
}