{
  "data": {
    "distrito": "Setúbal",
    "concelho": "Palmela",
    "freguesia": "Palmela",
    "OBJECTID": 624,
    "BGRI2021": "15080201124",
    "DT21": "15",
    "DTMN21": "1508",
    "DTMNFR21": "150802",
    "DTMNFRSEC21": "150802011",
    "SECNUM21": "011",
    "SSNUM21": "24",
    "SECSSNUM21": "01124",
    "OBJECTID_1": 165175,
    "DT": "15",
    "CC": "08",
    "fr": "02",
    "SEC": "011",
    "SS": "24"
  },
  "addresses": [
    {
      "id": "pt.ine.add.PTCONT.4690473",
      "street": "CAM MUNICIPAL CCI",
      "house": "CCI 7904",
      "postcode": "2950-070",
      "city": "PALMELA",
      "lon": "-8.902458454338692",
      "lat": "38.58720140234174"
    },
    {
      "id": "pt.ine.add.PTCONT.4694920",
      "street": "R COMPADRES QTA DAS FLORES",
      "house": "",
      "postcode": "2950-070",
      "city": "PALMELA",
      "lon": "-8.897845979627224",
      "lat": "38.58841170791593"
    },
    {
      "id": "pt.ine.add.PTCONT.4719324",
      "street": "R COMPADRES",
      "house": "",
      "postcode": "2950-070",
      "city": "PALMELA",
      "lon": "-8.89577200747406",
      "lat": "38.58982151393793"
    },
    {
      "id": "pt.ine.add.PTCONT.4727303",
      "street": "R ALCACHOFRAS S JOÃO",
      "house": "",
      "postcode": "2950-056",
      "city": "PALMELA",
      "lon": "-8.891201320541251",
      "lat": "38.5873919686177"
    },
    {
      "id": "pt.ine.add.PTCONT.4729395",
      "street": "SEM DESIGNACAO CCI",
      "house": "CCI 7412",
      "postcode": "2950-070",
      "city": "PALMELA",
      "lon": "-8.899561642700268",
      "lat": "38.588931968871634"
    },
    {
      "id": "pt.ine.add.PTCONT.4767310",
      "street": "R PONTE CCI",
      "house": "",
      "postcode": "2950-070",
      "city": "PALMELA",
      "lon": "-8.90095610134385",
      "lat": "38.58731035900547"
    },
    {
      "id": "pt.ine.add.PTCONT.4767311",
      "street": "R COMPADRES FAMILIA SOUSA",
      "house": "",
      "postcode": "2950-066",
      "city": "PALMELA",
      "lon": "-8.89530502789153",
      "lat": "38.591247852852966"
    },
    {
      "id": "pt.ine.add.PTCONT.4767312",
      "street": "R ALCACHOFRAS S JOÃO QTA DA OLIVEIRA",
      "house": "",
      "postcode": "2950-056",
      "city": "PALMELA",
      "lon": "-8.891266864013915",
      "lat": "38.58707625655901"
    },
    {
      "id": "pt.ine.add.PTCONT.4770899",
      "street": "R COMPADRES QTA DE ALUERCA",
      "house": "",
      "postcode": "2950-070",
      "city": "PALMELA",
      "lon": "-8.895990925143016",
      "lat": "38.58990116098349"
    },
    {
      "id": "pt.ine.add.PTCONT.4880072",
      "street": "R COMPADRES",
      "house": "",
      "postcode": "2950-070",
      "city": "PALMELA",
      "lon": "-8.897691720833791",
      "lat": "38.58793528069841"
    },
    {
      "id": "pt.ine.add.PTCONT.4901793",
      "street": "R ALCACHOFRAS JOÃO",
      "house": "",
      "postcode": "2950-056",
      "city": "PALMELA",
      "lon": "-8.893745671706185",
      "lat": "38.58705116425748"
    },
    {
      "id": "pt.ine.add.PTCONT.4937493",
      "street": "SIT ORVIDAIS DIANTE",
      "house": "N 86",
      "postcode": "2950-421",
      "city": "PALMELA",
      "lon": "-8.903253693240673",
      "lat": "38.587511459262366"
    },
    {
      "id": "pt.ine.add.PTCONT.4955408",
      "street": "R ALCACHOFRAS JOÃO CASAL DO ALPENDRE",
      "house": "",
      "postcode": "2950-056",
      "city": "PALMELA",
      "lon": "-8.891801705253043",
      "lat": "38.586640396332676"
    },
    {
      "id": "pt.ine.add.PTCONT.4960192",
      "street": "EN 252",
      "house": "",
      "postcode": "2950-439",
      "city": "PALMELA",
      "lon": "-8.893498643999141",
      "lat": "38.58974622456551"
    },
    {
      "id": "pt.ine.add.PTCONT.4999176",
      "street": "R ALCACHOFRAS JOÃO",
      "house": "",
      "postcode": "2950-056",
      "city": "PALMELA",
      "lon": "-8.891629939279367",
      "lat": "38.58667754255405"
    },
    {
      "id": "pt.ine.add.PTCONT.5039481",
      "street": "ORVIDAIS CCI",
      "house": "CCI 7403",
      "postcode": "2950-070",
      "city": "PALMELA",
      "lon": "-8.900661358522093",
      "lat": "38.587654604341964"
    },
    {
      "id": "pt.ine.add.PTCONT.5056926",
      "street": "R COMPADRES FAMILIA RODRIGUES",
      "house": "",
      "postcode": "2950-066",
      "city": "PALMELA",
      "lon": "-8.89547623116622",
      "lat": "38.59115665566245"
    },
    {
      "id": "pt.ine.add.PTCONT.5080557",
      "street": "EN 252 QTA S SIMAO",
      "house": "",
      "postcode": "2950-056",
      "city": "PALMELA",
      "lon": "-8.892602787230086",
      "lat": "38.589688984281274"
    },
    {
      "id": "pt.ine.add.PTCONT.5093692",
      "street": "QTA DO CASTELINHO",
      "house": "",
      "postcode": "2950-070",
      "city": "PALMELA",
      "lon": "-8.901333863300579",
      "lat": "38.5872177978626"
    },
    {
      "id": "pt.ine.add.PTCONT.5095618",
      "street": "QTA DO CHAPARRO",
      "house": "",
      "postcode": "2950-070",
      "city": "PALMELA",
      "lon": "-8.904291015920274",
      "lat": "38.58684702939448"
    },
    {
      "id": "pt.ine.add.PTCONT.5106237",
      "street": "",
      "house": "",
      "postcode": "2950-070",
      "city": "PALMELA",
      "lon": "-8.901976445667442",
      "lat": "38.587204569925724"
    }
  ]
}