{
  "data": {
    "distrito": "Ã‰vora",
    "concelho": "Viana do Alentejo",
    "freguesia": "Viana do Alentejo",
    "OBJECTID": 240,
    "BGRI2021": "07130200314",
    "DT21": "07",
    "DTMN21": "0713",
    "DTMNFR21": "071302",
    "DTMNFRSEC21": "071302003",
    "SECNUM21": "003",
    "SSNUM21": "14",
    "SECSSNUM21": "00314",
    "OBJECTID_1": 64028,
    "DT": "07",
    "CC": "13",
    "fr": "02",
    "SEC": "003",
    "SS": "14"
  },
  "addresses": [
    {
      "id": "pt.ine.add.PTCONT.1373523",
      "street": "HORTAS VELHAS",
      "house": "",
      "postcode": "7090-222",
      "city": "VIANA DO ALENTEJO",
      "lon": "-7.9681564275513175",
      "lat": "38.32481556455162"
    },
    {
      "id": "pt.ine.add.PTCONT.1378005",
      "street": "",
      "house": "",
      "postcode": "7090-222",
      "city": "VIANA DO ALENTEJO",
      "lon": "-7.959967356106677",
      "lat": "38.32273129009456"
    },
    {
      "id": "pt.ine.add.PTCONT.1381002",
      "street": "HORTAS VELHAS",
      "house": "",
      "postcode": "7090-222",
      "city": "VIANA DO ALENTEJO",
      "lon": "-7.967655111940499",
      "lat": "38.32399505879393"
    },
    {
      "id": "pt.ine.add.PTCONT.1396645",
      "street": "HORTAS VELHAS",
      "house": "",
      "postcode": "7090-222",
      "city": "VIANA DO ALENTEJO",
      "lon": "-7.970027775610644",
      "lat": "38.32666498248665"
    },
    {
      "id": "pt.ine.add.PTCONT.1411577",
      "street": "HORTAS VELHAS",
      "house": "",
      "postcode": "7090-222",
      "city": "VIANA DO ALENTEJO",
      "lon": "-7.961380153951723",
      "lat": "38.322598685738576"
    },
    {
      "id": "pt.ine.add.PTCONT.1419843",
      "street": "HORTA DA MARGARIDA",
      "house": "",
      "postcode": "7090-222",
      "city": "VIANA DO ALENTEJO",
      "lon": "-7.967936590155177",
      "lat": "38.325941353392814"
    },
    {
      "id": "pt.ine.add.PTCONT.1435328",
      "street": "MTE HORTAS VELHAS",
      "house": "",
      "postcode": "7090-222",
      "city": "VIANA DO ALENTEJO",
      "lon": "-7.970553658874742",
      "lat": "38.32674679158138"
    },
    {
      "id": "pt.ine.add.PTCONT.1444204",
      "street": "HRD MONTESA",
      "house": "",
      "postcode": "7090-222",
      "city": "VIANA DO ALENTEJO",
      "lon": "-7.947275147724834",
      "lat": "38.32005472480422"
    },
    {
      "id": "pt.ine.add.PTCONT.1449658",
      "street": "ESTR PORTEL",
      "house": "",
      "postcode": "7090-222",
      "city": "VIANA DO ALENTEJO",
      "lon": "-7.932742227000479",
      "lat": "38.32377845440885"
    },
    {
      "id": "pt.ine.add.PTCONT.1451897",
      "street": "HORTA NOVA",
      "house": "",
      "postcode": "7090-222",
      "city": "VIANA DO ALENTEJO",
      "lon": "-7.9694900118083565",
      "lat": "38.326781347707524"
    },
    {
      "id": "pt.ine.add.PTCONT.1451899",
      "street": "ESTR PORTEL",
      "house": "",
      "postcode": "7090-222",
      "city": "VIANA DO ALENTEJO",
      "lon": "-7.921779399128151",
      "lat": "38.32631770776081"
    },
    {
      "id": "pt.ine.add.PTCONT.1465629",
      "street": "QTA MONTESA",
      "house": "",
      "postcode": "7090-222",
      "city": "VIANA DO ALENTEJO",
      "lon": "-7.933220466855351",
      "lat": "38.32036494021589"
    }
  ]
}