{
  "data": {
    "distrito": "Setúbal",
    "concelho": "Alcácer do Sal",
    "freguesia": "União das freguesias de Alcácer do Sal (Santa Maria do Castelo e Santiago) e Santa Susana",
    "OBJECTID": 77,
    "BGRI2021": "15010700534",
    "DT21": "15",
    "DTMN21": "1501",
    "DTMNFR21": "150107",
    "DTMNFRSEC21": "150107005",
    "SECNUM21": "005",
    "SSNUM21": "34",
    "SECSSNUM21": "00534",
    "OBJECTID_1": 160250,
    "DT": "15",
    "CC": "01",
    "fr": "07",
    "SEC": "005",
    "SS": "34"
  },
  "addresses": [
    {
      "id": "pt.ine.add.PTCONT.4681422",
      "street": "QTA AMENDOEIRA",
      "house": "",
      "postcode": "7580-250",
      "city": "ALCÁCER DO SAL",
      "lon": "-8.498039021597219",
      "lat": "38.383893370630076"
    },
    {
      "id": "pt.ine.add.PTCONT.4804266",
      "street": "AZ CLÉRIGOS",
      "house": "",
      "postcode": "7580-250",
      "city": "ALCÁCER DO SAL",
      "lon": "-8.49697886042919",
      "lat": "38.38245527991427"
    },
    {
      "id": "pt.ine.add.PTCONT.4872400",
      "street": "HORTA DO MATOS",
      "house": "",
      "postcode": "7580-250",
      "city": "ALCÁCER DO SAL",
      "lon": "-8.49922903292509",
      "lat": "38.37929524081321"
    },
    {
      "id": "pt.ine.add.PTCONT.4970929",
      "street": "AZ MASTIGAS",
      "house": "",
      "postcode": "7580-250",
      "city": "ALCÁCER DO SAL",
      "lon": "-8.49288475245109",
      "lat": "38.37847707584373"
    },
    {
      "id": "pt.ine.add.PTCONT.5077853",
      "street": "AZ MASTIGAS",
      "house": "",
      "postcode": "7580-250",
      "city": "ALCÁCER DO SAL",
      "lon": "-8.496898340923561",
      "lat": "38.38237445182707"
    },
    {
      "id": "pt.ine.add.PTCONT.5085044",
      "street": "AZ MASTIGAS",
      "house": "",
      "postcode": "7580-250",
      "city": "ALCÁCER DO SAL",
      "lon": "-8.498530932147993",
      "lat": "38.37929741889338"
    }
  ]
}