{
  "data": {
    "distrito": "Lisboa",
    "concelho": "Torres Vedras",
    "freguesia": "Ramalhal",
    "OBJECTID": 1806,
    "BGRI2021": "11131100109",
    "DT21": "11",
    "DTMN21": "1113",
    "DTMNFR21": "111311",
    "DTMNFRSEC21": "111311001",
    "SECNUM21": "001",
    "SSNUM21": "09",
    "SECSSNUM21": "00109",
    "OBJECTID_1": 115629,
    "DT": "11",
    "CC": "13",
    "fr": "11",
    "SEC": "001",
    "SS": "09"
  },
  "addresses": [
    {
      "id": "pt.ine.add.PTCONT.2272376",
      "street": "R PADRE JOAQUIM REBELO",
      "house": "",
      "postcode": "2565-642",
      "city": "RAMALHAL",
      "lon": "-9.250421956051579",
      "lat": "39.164205543885984"
    },
    {
      "id": "pt.ine.add.PTCONT.2282606",
      "street": "R PADARIA",
      "house": "10",
      "postcode": "2565-642",
      "city": "RAMALHAL",
      "lon": "-9.251450530030771",
      "lat": "39.16486220550772"
    },
    {
      "id": "pt.ine.add.PTCONT.2373886",
      "street": "TV AUGUSTO SILVA",
      "house": "1",
      "postcode": "2565-642",
      "city": "RAMALHAL",
      "lon": "-9.250572772916014",
      "lat": "39.16423111909305"
    },
    {
      "id": "pt.ine.add.PTCONT.2513543",
      "street": "LG DIVINO ESPÍRITO SANTO",
      "house": "1",
      "postcode": "2565-642",
      "city": "RAMALHAL",
      "lon": "-9.250591064345528",
      "lat": "39.16392470064826"
    },
    {
      "id": "pt.ine.add.PTCONT.2598635",
      "street": "TV BARBEIROS",
      "house": "1",
      "postcode": "2565-642",
      "city": "RAMALHAL",
      "lon": "-9.250700001760661",
      "lat": "39.16495947781051"
    },
    {
      "id": "pt.ine.add.PTCONT.2635861",
      "street": "R PADRE JOAQUIM REBELO",
      "house": "",
      "postcode": "2565-642",
      "city": "RAMALHAL",
      "lon": "-9.250377819684278",
      "lat": "39.164341074304325"
    },
    {
      "id": "pt.ine.add.PTCONT.2777274",
      "street": "R GUERRAS",
      "house": "3",
      "postcode": "2565-642",
      "city": "RAMALHAL",
      "lon": "-9.250960375510157",
      "lat": "39.16459669437272"
    },
    {
      "id": "pt.ine.add.PTCONT.2885866",
      "street": "LG DINIZ GUERRA",
      "house": "3",
      "postcode": "2565-642",
      "city": "RAMALHAL",
      "lon": "-9.251241013379335",
      "lat": "39.16478315185459"
    },
    {
      "id": "pt.ine.add.PTCONT.2892410",
      "street": "R GUERRAS",
      "house": "1",
      "postcode": "2565-642",
      "city": "RAMALHAL",
      "lon": "-9.250782572269348",
      "lat": "39.1643281855503"
    },
    {
      "id": "pt.ine.add.PTCONT.2892411",
      "street": "R CARLOS ALBERTO MARQUES",
      "house": "5",
      "postcode": "2565-642",
      "city": "RAMALHAL",
      "lon": "-9.250769008347055",
      "lat": "39.16420221558698"
    },
    {
      "id": "pt.ine.add.PTCONT.2959001",
      "street": "LG DINIZ GUERRA",
      "house": "3",
      "postcode": "2565-642",
      "city": "RAMALHAL",
      "lon": "-9.251289283846821",
      "lat": "39.16490878870042"
    },
    {
      "id": "pt.ine.add.PTCONT.2968175",
      "street": "R CARLOS ALBERTO MARQUES",
      "house": "2",
      "postcode": "2565-642",
      "city": "RAMALHAL",
      "lon": "-9.250813001339877",
      "lat": "39.164057679248906"
    },
    {
      "id": "pt.ine.add.PTCONT.3032246",
      "street": "TV BARBEIROS",
      "house": "3",
      "postcode": "2565-642",
      "city": "RAMALHAL",
      "lon": "-9.25101263727324",
      "lat": "39.164974493151696"
    },
    {
      "id": "pt.ine.add.PTCONT.3032247",
      "street": "R CARLOS ALBERTO MARQUES",
      "house": "9",
      "postcode": "2565-642",
      "city": "RAMALHAL",
      "lon": "-9.250626742518014",
      "lat": "39.16471698746534"
    },
    {
      "id": "pt.ine.add.PTCONT.3088613",
      "street": "AV COMBATENTES DA GRANDE GUERRA",
      "house": "36",
      "postcode": "2565-642",
      "city": "RAMALHAL",
      "lon": "-9.251096488191942",
      "lat": "39.16442425272435"
    },
    {
      "id": "pt.ine.add.PTCONT.3088614",
      "street": "R PADARIA",
      "house": "2",
      "postcode": "2565-642",
      "city": "RAMALHAL",
      "lon": "-9.251283579710732",
      "lat": "39.164548557578605"
    },
    {
      "id": "pt.ine.add.PTCONT.3097514",
      "street": "R PADARIA",
      "house": "4",
      "postcode": "2565-642",
      "city": "RAMALHAL",
      "lon": "-9.251331422256696",
      "lat": "39.16464717707897"
    },
    {
      "id": "pt.ine.add.PTCONT.3110527",
      "street": "LG DIVINO ESPÍRITO SANTO",
      "house": "3",
      "postcode": "2565-642",
      "city": "RAMALHAL",
      "lon": "-9.250593202012535",
      "lat": "39.16405978736809"
    },
    {
      "id": "pt.ine.add.PTCONT.3219796",
      "street": "R CARLOS ALBERTO MARQUES",
      "house": "6",
      "postcode": "2565-642",
      "city": "RAMALHAL",
      "lon": "-9.250675605937294",
      "lat": "39.164149068549754"
    },
    {
      "id": "pt.ine.add.PTCONT.3456079",
      "street": "AV COMBATENTES DA GRANDE GUERRA",
      "house": "28",
      "postcode": "2565-642",
      "city": "RAMALHAL",
      "lon": "-9.250742450784257",
      "lat": "39.16398629876903"
    }
  ]
}