{
  "data": {
    "distrito": "Porto",
    "concelho": "Santo Tirso",
    "freguesia": "Negrelos (São Tomé)",
    "OBJECTID": 408,
    "BGRI2021": "13143000302",
    "DT21": "13",
    "DTMN21": "1314",
    "DTMNFR21": "131430",
    "DTMNFRSEC21": "131430003",
    "SECNUM21": "003",
    "SSNUM21": "02",
    "SECSSNUM21": "00302",
    "OBJECTID_1": 140597,
    "DT": "13",
    "CC": "14",
    "fr": "30",
    "SEC": "003",
    "SS": "02"
  },
  "addresses": [
    {
      "id": "pt.ine.add.PTCONT.3681723",
      "street": "R SERVULO",
      "house": "114",
      "postcode": "4795-704",
      "city": "SÃO TOMÉ NEGRELOS",
      "lon": "-8.401521684841525",
      "lat": "41.34748040924768"
    },
    {
      "id": "pt.ine.add.PTCONT.3711553",
      "street": "R BORDADEIRAS",
      "house": "1",
      "postcode": "4795-579",
      "city": "SÃO TOMÉ NEGRELOS",
      "lon": "-8.40094200277759",
      "lat": "41.34889539979472"
    },
    {
      "id": "pt.ine.add.PTCONT.3817431",
      "street": "R SERVULO",
      "house": "36",
      "postcode": "4795-704",
      "city": "SÃO TOMÉ NEGRELOS",
      "lon": "-8.401429571879431",
      "lat": "41.34832700730795"
    },
    {
      "id": "pt.ine.add.PTCONT.3824012",
      "street": "R FREITAS",
      "house": "38",
      "postcode": "4795-630",
      "city": "SÃO TOMÉ NEGRELOS",
      "lon": "-8.40175207382643",
      "lat": "41.348299242749434"
    },
    {
      "id": "pt.ine.add.PTCONT.3918589",
      "street": "R PADRE DR JOAQUIM MOREIRA NETO",
      "house": "",
      "postcode": "4795-666",
      "city": "SÃO TOMÉ NEGRELOS",
      "lon": "-8.40061923954041",
      "lat": "41.34886013415864"
    },
    {
      "id": "pt.ine.add.PTCONT.3918590",
      "street": "R PADRE DR JOAQUIM MOREIRA NETO",
      "house": "19",
      "postcode": "4795-666",
      "city": "SÃO TOMÉ NEGRELOS",
      "lon": "-8.40061923954041",
      "lat": "41.34886013415864"
    },
    {
      "id": "pt.ine.add.PTCONT.3973102",
      "street": "R PADRE DR JOAQUIM MOREIRA NETO",
      "house": "7",
      "postcode": "4795-666",
      "city": "SÃO TOMÉ NEGRELOS",
      "lon": "-8.400201770043848",
      "lat": "41.34904118526399"
    },
    {
      "id": "pt.ine.add.PTCONT.4014735",
      "street": "R NOTARIOS",
      "house": "92",
      "postcode": "4795-660",
      "city": "SÃO TOMÉ NEGRELOS",
      "lon": "-8.399735254070643",
      "lat": "41.34891620991184"
    },
    {
      "id": "pt.ine.add.PTCONT.4100353",
      "street": "R BORDADEIRAS",
      "house": "30",
      "postcode": "4795-579",
      "city": "SÃO TOMÉ NEGRELOS",
      "lon": "-8.401275421969645",
      "lat": "41.34861549703569"
    },
    {
      "id": "pt.ine.add.PTCONT.4111288",
      "street": "R DA FAZENDA PÚBLICA",
      "house": "37",
      "postcode": "4795-621",
      "city": "SÃO TOMÉ NEGRELOS",
      "lon": "-8.402039100149734",
      "lat": "41.34836160095467"
    },
    {
      "id": "pt.ine.add.PTCONT.4152666",
      "street": "R FREITAS",
      "house": "23",
      "postcode": "4795-630",
      "city": "SÃO TOMÉ NEGRELOS",
      "lon": "-8.40168078910222",
      "lat": "41.348398453962496"
    },
    {
      "id": "pt.ine.add.PTCONT.4178715",
      "street": "R SERVULO",
      "house": "152",
      "postcode": "4795-704",
      "city": "SÃO TOMÉ NEGRELOS",
      "lon": "-8.401473225449044",
      "lat": "41.3473184488465"
    },
    {
      "id": "pt.ine.add.PTCONT.4203080",
      "street": "R FREITAS",
      "house": "7",
      "postcode": "4795-630",
      "city": "SÃO TOMÉ NEGRELOS",
      "lon": "-8.401157006118563",
      "lat": "41.34887689109596"
    }
  ]
}