{
  "data": {
    "distrito": "Porto",
    "concelho": "Maia",
    "freguesia": "Cidade da Maia",
    "OBJECTID": 478,
    "BGRI2021": "13061902306",
    "DT21": "13",
    "DTMN21": "1306",
    "DTMNFR21": "130619",
    "DTMNFRSEC21": "130619023",
    "SECNUM21": "023",
    "SSNUM21": "06",
    "SECSSNUM21": "02306",
    "OBJECTID_1": 130384,
    "DT": "13",
    "CC": "06",
    "fr": "19",
    "SEC": "023",
    "SS": "06"
  },
  "addresses": [
    {
      "id": "pt.ine.add.PTCONT.3545090",
      "street": "TV SOUTINHO",
      "house": "291",
      "postcode": "4470-404",
      "city": "MAIA",
      "lon": "-8.601928393893017",
      "lat": "41.24316494371641"
    },
    {
      "id": "pt.ine.add.PTCONT.3759317",
      "street": "R INF D HENRIQUE",
      "house": "414",
      "postcode": "4470-305",
      "city": "MAIA",
      "lon": "-8.600851621190921",
      "lat": "41.24272811638349"
    },
    {
      "id": "pt.ine.add.PTCONT.3788622",
      "street": "R SOUTINHO",
      "house": "85",
      "postcode": "4470-374",
      "city": "MAIA",
      "lon": "-8.601333027210696",
      "lat": "41.24332043794441"
    },
    {
      "id": "pt.ine.add.PTCONT.3851454",
      "street": "R SOUTINHO",
      "house": "29",
      "postcode": "4470-374",
      "city": "MAIA",
      "lon": "-8.601007598718136",
      "lat": "41.242853541665504"
    },
    {
      "id": "pt.ine.add.PTCONT.3908632",
      "street": "R NSA SRA DA CONCEIÇÃO",
      "house": "108",
      "postcode": "4470-275",
      "city": "MAIA",
      "lon": "-8.6024499924303",
      "lat": "41.242703603819365"
    },
    {
      "id": "pt.ine.add.PTCONT.3915174",
      "street": "R SOUTINHO",
      "house": "190",
      "postcode": "4470-374",
      "city": "MAIA",
      "lon": "-8.602979193961545",
      "lat": "41.24330472786331"
    },
    {
      "id": "pt.ine.add.PTCONT.4004973",
      "street": "R SOUTINHO",
      "house": "53",
      "postcode": "4470-374",
      "city": "MAIA",
      "lon": "-8.601152611359227",
      "lat": "41.24311407452618"
    },
    {
      "id": "pt.ine.add.PTCONT.4175907",
      "street": "R NSA SRA DA CONCEIÇÃO",
      "house": "50",
      "postcode": "4470-275",
      "city": "MAIA",
      "lon": "-8.602089930760444",
      "lat": "41.24239892760456"
    },
    {
      "id": "pt.ine.add.PTCONT.4267527",
      "street": "R NSA SRA DA CONCEIÇÃO",
      "house": "72",
      "postcode": "4470-275",
      "city": "MAIA",
      "lon": "-8.602257774523515",
      "lat": "41.24251529865046"
    }
  ]
}