{
  "data": {
    "distrito": "Leiria",
    "concelho": "Pombal",
    "freguesia": "Louriçal",
    "OBJECTID": 1649,
    "BGRI2021": "10150600313",
    "DT21": "10",
    "DTMN21": "1015",
    "DTMNFR21": "101506",
    "DTMNFRSEC21": "101506003",
    "SECNUM21": "003",
    "SSNUM21": "13",
    "SECSSNUM21": "00313",
    "OBJECTID_1": 95180,
    "DT": "10",
    "CC": "15",
    "fr": "06",
    "SEC": "003",
    "SS": "13"
  },
  "addresses": [
    {
      "id": "pt.ine.add.PTCONT.2005005",
      "street": "TV GAMEIRO",
      "house": "3",
      "postcode": "3105-154",
      "city": "LOURIÇAL",
      "lon": "-8.728925757357652",
      "lat": "40.007152619169794"
    },
    {
      "id": "pt.ine.add.PTCONT.2022230",
      "street": "R MISERICÓRDIA",
      "house": "46",
      "postcode": "3105-165",
      "city": "LOURIÇAL",
      "lon": "-8.73431363691373",
      "lat": "40.005881951948126"
    },
    {
      "id": "pt.ine.add.PTCONT.2042734",
      "street": "R ESTRADA NOVA",
      "house": "23",
      "postcode": "3105-154",
      "city": "LOURIÇAL",
      "lon": "-8.730575599252505",
      "lat": "40.00698201549586"
    },
    {
      "id": "pt.ine.add.PTCONT.2075253",
      "street": "R MISERICÓRDIA",
      "house": "36",
      "postcode": "3105-165",
      "city": "LOURIÇAL",
      "lon": "-8.734346241213668",
      "lat": "40.00559358751087"
    },
    {
      "id": "pt.ine.add.PTCONT.2079800",
      "street": "TV GAMEIRO",
      "house": "9",
      "postcode": "3105-154",
      "city": "LOURIÇAL",
      "lon": "-8.729268589209662",
      "lat": "40.00752010629064"
    },
    {
      "id": "pt.ine.add.PTCONT.2082953",
      "street": "R LOUREIROS",
      "house": "",
      "postcode": "3105-154",
      "city": "LOURIÇAL",
      "lon": "-8.733783414640913",
      "lat": "40.00551545109159"
    },
    {
      "id": "pt.ine.add.PTCONT.2111632",
      "street": "R LOUREIROS",
      "house": "108",
      "postcode": "3105-154",
      "city": "LOURIÇAL",
      "lon": "-8.733432565677017",
      "lat": "40.005571305639776"
    },
    {
      "id": "pt.ine.add.PTCONT.2123473",
      "street": "R ESTRADA NOVA",
      "house": "39",
      "postcode": "3105-154",
      "city": "LOURIÇAL",
      "lon": "-8.732585085278812",
      "lat": "40.006422266173885"
    },
    {
      "id": "pt.ine.add.PTCONT.2123474",
      "street": "R ESTRADA NOVA",
      "house": "39",
      "postcode": "3105-154",
      "city": "LOURIÇAL",
      "lon": "-8.732585085278812",
      "lat": "40.006422266173885"
    },
    {
      "id": "pt.ine.add.PTCONT.2123475",
      "street": "R ESTRADA NOVA",
      "house": "39",
      "postcode": "3105-154",
      "city": "LOURIÇAL",
      "lon": "-8.732585085278812",
      "lat": "40.006422266173885"
    },
    {
      "id": "pt.ine.add.PTCONT.2123476",
      "street": "R ESTRADA NOVA",
      "house": "39",
      "postcode": "3105-154",
      "city": "LOURIÇAL",
      "lon": "-8.732585085278812",
      "lat": "40.006422266173885"
    },
    {
      "id": "pt.ine.add.PTCONT.2163059",
      "street": "R SOCIEDADE FILARMONICA",
      "house": "",
      "postcode": "3105-165",
      "city": "LOURIÇAL",
      "lon": "-8.733146419914304",
      "lat": "40.006329300169725"
    },
    {
      "id": "pt.ine.add.PTCONT.2163060",
      "street": "R ESTRADA NOVA",
      "house": "",
      "postcode": "3105-165",
      "city": "LOURIÇAL",
      "lon": "-8.733146419914304",
      "lat": "40.006329300169725"
    },
    {
      "id": "pt.ine.add.PTCONT.2163061",
      "street": "R SOCIEDADE FILARMONICA",
      "house": "",
      "postcode": "3105-165",
      "city": "LOURIÇAL",
      "lon": "-8.733146419914304",
      "lat": "40.006329300169725"
    },
    {
      "id": "pt.ine.add.PTCONT.2163062",
      "street": "R SOCIEDADE FILARMONICA",
      "house": "",
      "postcode": "3105-165",
      "city": "LOURIÇAL",
      "lon": "-8.733146419914304",
      "lat": "40.006329300169725"
    },
    {
      "id": "pt.ine.add.PTCONT.2163063",
      "street": "R ESTRADA NOVA",
      "house": "",
      "postcode": "3105-165",
      "city": "LOURIÇAL",
      "lon": "-8.733146419914304",
      "lat": "40.006329300169725"
    },
    {
      "id": "pt.ine.add.PTCONT.2169683",
      "street": "R LOUREIROS",
      "house": "102",
      "postcode": "3105-154",
      "city": "LOURIÇAL",
      "lon": "-8.732636549588713",
      "lat": "40.005611450681556"
    },
    {
      "id": "pt.ine.add.PTCONT.2187076",
      "street": "R ESTRADA NOVA",
      "house": "",
      "postcode": "3105-154",
      "city": "LOURIÇAL",
      "lon": "-8.732036719236948",
      "lat": "40.00665926007697"
    },
    {
      "id": "pt.ine.add.PTCONT.2191603",
      "street": "R MISERICÓRDIA",
      "house": "34",
      "postcode": "3105-165",
      "city": "LOURIÇAL",
      "lon": "-8.734309844985882",
      "lat": "40.00544967867188"
    },
    {
      "id": "pt.ine.add.PTCONT.2266095",
      "street": "R ESTRADA NOVA",
      "house": "",
      "postcode": "3105-165",
      "city": "LOURIÇAL",
      "lon": "-8.733146419914304",
      "lat": "40.006329300169725"
    }
  ]
}