{
  "data": {
    "distrito": "Braga",
    "concelho": "Guimarães",
    "freguesia": "Fermentões",
    "OBJECTID": 575,
    "BGRI2021": "03081500410",
    "DT21": "03",
    "DTMN21": "0308",
    "DTMNFR21": "030815",
    "DTMNFRSEC21": "030815004",
    "SECNUM21": "004",
    "SSNUM21": "10",
    "SECSSNUM21": "00410",
    "OBJECTID_1": 26429,
    "DT": "03",
    "CC": "08",
    "fr": "15",
    "SEC": "004",
    "SS": "10"
  },
  "addresses": [
    {
      "id": "pt.ine.add.PTCONT.566062",
      "street": "R JOÃO PAULO II",
      "house": "129",
      "postcode": "4800-088",
      "city": "GUIMARÃES",
      "lon": "-8.312496154755047",
      "lat": "41.461788245363344"
    },
    {
      "id": "pt.ine.add.PTCONT.578586",
      "street": "R JOÃO PAULO II",
      "house": "187",
      "postcode": "4800-088",
      "city": "GUIMARÃES",
      "lon": "-8.312245761511896",
      "lat": "41.46213978787322"
    },
    {
      "id": "pt.ine.add.PTCONT.652041",
      "street": "R PEREIRA",
      "house": "43",
      "postcode": "4800-096",
      "city": "GUIMARÃES",
      "lon": "-8.312497618760732",
      "lat": "41.46231947349713"
    },
    {
      "id": "pt.ine.add.PTCONT.662618",
      "street": "R POMBAL",
      "house": "",
      "postcode": "4800-098",
      "city": "GUIMARÃES",
      "lon": "-8.316031459807334",
      "lat": "41.4633133417762"
    },
    {
      "id": "pt.ine.add.PTCONT.675349",
      "street": "R JOÃO PAULO II",
      "house": "27",
      "postcode": "4800-088",
      "city": "GUIMARÃES",
      "lon": "-8.31255562995903",
      "lat": "41.46165309401316"
    },
    {
      "id": "pt.ine.add.PTCONT.697679",
      "street": "R SANTA EULÁLIA",
      "house": "1912",
      "postcode": "4800-098",
      "city": "GUIMARÃES",
      "lon": "-8.315633073676784",
      "lat": "41.46210745142776"
    },
    {
      "id": "pt.ine.add.PTCONT.697767",
      "street": "R SANTA EULÁLIA",
      "house": "1912",
      "postcode": "4800-098",
      "city": "GUIMARÃES",
      "lon": "-8.315633073676784",
      "lat": "41.46210745142776"
    },
    {
      "id": "pt.ine.add.PTCONT.726085",
      "street": "R JOÃO PAULO II",
      "house": "153",
      "postcode": "4800-088",
      "city": "GUIMARÃES",
      "lon": "-8.312400894715502",
      "lat": "41.46196847198683"
    },
    {
      "id": "pt.ine.add.PTCONT.726086",
      "street": "R JOÃO PAULO II",
      "house": "153",
      "postcode": "4800-088",
      "city": "GUIMARÃES",
      "lon": "-8.312400894715502",
      "lat": "41.46196847198683"
    },
    {
      "id": "pt.ine.add.PTCONT.766486",
      "street": "R SANTA EULÁLIA",
      "house": "1944",
      "postcode": "4800-098",
      "city": "GUIMARÃES",
      "lon": "-8.315693047765711",
      "lat": "41.46215237577734"
    },
    {
      "id": "pt.ine.add.PTCONT.766487",
      "street": "R SANTA EULÁLIA",
      "house": "1944",
      "postcode": "4800-098",
      "city": "GUIMARÃES",
      "lon": "-8.315693047765711",
      "lat": "41.46215237577734"
    },
    {
      "id": "pt.ine.add.PTCONT.822181",
      "street": "R PEREIRA",
      "house": "45",
      "postcode": "4800-096",
      "city": "GUIMARÃES",
      "lon": "-8.312677411194128",
      "lat": "41.46240923203147"
    },
    {
      "id": "pt.ine.add.PTCONT.838556",
      "street": "R SANTA EULÁLIA",
      "house": "1906",
      "postcode": "4800-098",
      "city": "GUIMARÃES",
      "lon": "-8.315477469369856",
      "lat": "41.462107698217714"
    }
  ]
}