{
  "data": {
    "distrito": "Leiria",
    "concelho": "Porto de Mós",
    "freguesia": "Porto de Mós - São João Baptista e São Pedro",
    "OBJECTID": 647,
    "BGRI2021": "10161400408",
    "DT21": "10",
    "DTMN21": "1016",
    "DTMNFR21": "101614",
    "DTMNFRSEC21": "101614004",
    "SECNUM21": "004",
    "SSNUM21": "08",
    "SECSSNUM21": "00408",
    "OBJECTID_1": 97958,
    "DT": "10",
    "CC": "16",
    "fr": "14",
    "SEC": "004",
    "SS": "08"
  },
  "addresses": [
    {
      "id": "pt.ine.add.PTCONT.2025313",
      "street": "R CAP CLAUDIO",
      "house": "7",
      "postcode": "2480-323",
      "city": "PORTO DE MÓS",
      "lon": "-8.816628087284794",
      "lat": "39.602128674314734"
    },
    {
      "id": "pt.ine.add.PTCONT.2029889",
      "street": "AZ ESCORIAL",
      "house": "03",
      "postcode": "2480-321",
      "city": "PORTO DE MÓS",
      "lon": "-8.8160199442855",
      "lat": "39.601853042804265"
    },
    {
      "id": "pt.ine.add.PTCONT.2060533",
      "street": "TV ESCORIAL",
      "house": "1",
      "postcode": "2480-341",
      "city": "PORTO DE MÓS",
      "lon": "-8.815817723357483",
      "lat": "39.60260178708422"
    },
    {
      "id": "pt.ine.add.PTCONT.2066240",
      "street": "TV ESCORIAL",
      "house": "",
      "postcode": "2480-341",
      "city": "PORTO DE MÓS",
      "lon": "-8.815619272059564",
      "lat": "39.602548912841286"
    },
    {
      "id": "pt.ine.add.PTCONT.2067204",
      "street": "LG S JOÃO",
      "house": "",
      "postcode": "2480-313",
      "city": "PORTO DE MÓS",
      "lon": "-8.81602525194373",
      "lat": "39.602393413434"
    },
    {
      "id": "pt.ine.add.PTCONT.2094937",
      "street": "R CAP CLAUDIO",
      "house": "1",
      "postcode": "2480-323",
      "city": "PORTO DE MÓS",
      "lon": "-8.816370009093319",
      "lat": "39.60193204496209"
    },
    {
      "id": "pt.ine.add.PTCONT.2099472",
      "street": "TV ESCORIAL",
      "house": "5",
      "postcode": "2480-341",
      "city": "PORTO DE MÓS",
      "lon": "-8.815660094670779",
      "lat": "39.60196323772129"
    },
    {
      "id": "pt.ine.add.PTCONT.2137206",
      "street": "R ADRIANO DE CARVALHO",
      "house": "",
      "postcode": "2480-318",
      "city": "PORTO DE MÓS",
      "lon": "-8.815867300014288",
      "lat": "39.60290772343061"
    },
    {
      "id": "pt.ine.add.PTCONT.2137207",
      "street": "R ADRIANO DE CARVALHO",
      "house": "",
      "postcode": "2480-318",
      "city": "PORTO DE MÓS",
      "lon": "-8.815867300014288",
      "lat": "39.60290772343061"
    },
    {
      "id": "pt.ine.add.PTCONT.2137208",
      "street": "R ADRIANO CARVALHO",
      "house": "5 C",
      "postcode": "2480-318",
      "city": "PORTO DE MÓS",
      "lon": "-8.815867300014288",
      "lat": "39.60290772343061"
    },
    {
      "id": "pt.ine.add.PTCONT.2137209",
      "street": "R ADRIANO DE CARVALHO",
      "house": "",
      "postcode": "2480-318",
      "city": "PORTO DE MÓS",
      "lon": "-8.815867300014288",
      "lat": "39.60290772343061"
    },
    {
      "id": "pt.ine.add.PTCONT.2144913",
      "street": "AV COMBATENTES DA GRANDE GUERRA",
      "house": "3",
      "postcode": "2480-304",
      "city": "PORTO DE MÓS",
      "lon": "-8.81696562598354",
      "lat": "39.60211768139147"
    },
    {
      "id": "pt.ine.add.PTCONT.2152341",
      "street": "TV ESCORIAL",
      "house": "3A",
      "postcode": "2480-341",
      "city": "PORTO DE MÓS",
      "lon": "-8.815679252386342",
      "lat": "39.602728694411105"
    },
    {
      "id": "pt.ine.add.PTCONT.2161151",
      "street": "R CAP CLAUDIO",
      "house": "1",
      "postcode": "2480-323",
      "city": "PORTO DE MÓS",
      "lon": "-8.81659209790685",
      "lat": "39.60202080567041"
    },
    {
      "id": "pt.ine.add.PTCONT.2189622",
      "street": "TV S JOÃO",
      "house": "6",
      "postcode": "2480-346",
      "city": "PORTO DE MÓS",
      "lon": "-8.816087091066548",
      "lat": "39.60276232449124"
    },
    {
      "id": "pt.ine.add.PTCONT.2196498",
      "street": "AV COMBATENTES DA GRANDE GUERRA",
      "house": "42 A",
      "postcode": "2480-304",
      "city": "PORTO DE MÓS",
      "lon": "-8.81671768382134",
      "lat": "39.60176787929934"
    },
    {
      "id": "pt.ine.add.PTCONT.2200953",
      "street": "TV ESCORIAL A",
      "house": "A",
      "postcode": "2480-341",
      "city": "PORTO DE MÓS",
      "lon": "-8.815669643561856",
      "lat": "39.602935904872595"
    },
    {
      "id": "pt.ine.add.PTCONT.2200954",
      "street": "AZ ESCORIAL B",
      "house": "B",
      "postcode": "2480-321",
      "city": "PORTO DE MÓS",
      "lon": "-8.815669643561856",
      "lat": "39.602935904872595"
    },
    {
      "id": "pt.ine.add.PTCONT.2200955",
      "street": "TV ESCORIAL",
      "house": "",
      "postcode": "2480-341",
      "city": "PORTO DE MÓS",
      "lon": "-8.815669643561856",
      "lat": "39.602935904872595"
    },
    {
      "id": "pt.ine.add.PTCONT.2216550",
      "street": "AV COMBATENTES DA GRANDE GUERRA",
      "house": "13",
      "postcode": "2480-304",
      "city": "PORTO DE MÓS",
      "lon": "-8.816802722089935",
      "lat": "39.60212764680901"
    },
    {
      "id": "pt.ine.add.PTCONT.2218765",
      "street": "LG S JOÃO",
      "house": "1",
      "postcode": "2480-313",
      "city": "PORTO DE MÓS",
      "lon": "-8.81611591361121",
      "lat": "39.60214069299447"
    },
    {
      "id": "pt.ine.add.PTCONT.2219881",
      "street": "AV COMBATENTES DA GRANDE GUERRA",
      "house": "11",
      "postcode": "2480-304",
      "city": "PORTO DE MÓS",
      "lon": "-8.81672122584865",
      "lat": "39.60212812634436"
    },
    {
      "id": "pt.ine.add.PTCONT.2225178",
      "street": "R CAP CLAUDIO",
      "house": "9",
      "postcode": "2480-323",
      "city": "PORTO DE MÓS",
      "lon": "-8.816627467509859",
      "lat": "39.602065631082276"
    },
    {
      "id": "pt.ine.add.PTCONT.2228469",
      "street": "R CAP CLAUDIO",
      "house": "",
      "postcode": "2480-323",
      "city": "PORTO DE MÓS",
      "lon": "-8.816602500710468",
      "lat": "39.60189465071335"
    },
    {
      "id": "pt.ine.add.PTCONT.2233653",
      "street": "TV VALE FLORIDO",
      "house": "2",
      "postcode": "2480-347",
      "city": "PORTO DE MÓS",
      "lon": "-8.816812416021694",
      "lat": "39.60192944243117"
    },
    {
      "id": "pt.ine.add.PTCONT.2253578",
      "street": "AZ ESCORIAL",
      "house": "3",
      "postcode": "2480-321",
      "city": "PORTO DE MÓS",
      "lon": "-8.81566873087825",
      "lat": "39.601656959263735"
    },
    {
      "id": "pt.ine.add.PTCONT.2258231",
      "street": "LG S JOAO",
      "house": "3",
      "postcode": "2480-313",
      "city": "PORTO DE MÓS",
      "lon": "-8.816325563935198",
      "lat": "39.602148467056104"
    },
    {
      "id": "pt.ine.add.PTCONT.2265024",
      "street": "TV S JOÃO",
      "house": "4",
      "postcode": "2480-346",
      "city": "PORTO DE MÓS",
      "lon": "-8.81609678710176",
      "lat": "39.602564120176325"
    }
  ]
}