{
  "data": {
    "distrito": "Viseu",
    "concelho": "Resende",
    "freguesia": "União das freguesias de Ovadas e Panchorra",
    "OBJECTID": 361,
    "BGRI2021": "18131900115",
    "DT21": "18",
    "DTMN21": "1813",
    "DTMNFR21": "181319",
    "DTMNFRSEC21": "181319001",
    "SECNUM21": "001",
    "SSNUM21": "15",
    "SECSSNUM21": "00115",
    "OBJECTID_1": 195603,
    "DT": "18",
    "CC": "13",
    "fr": "19",
    "SEC": "001",
    "SS": "15"
  },
  "addresses": [
    {
      "id": "pt.ine.add.PTCONT.5507024",
      "street": "R OUTEIRO",
      "house": "85",
      "postcode": "4660-130",
      "city": "PANCHORRA",
      "lon": "-7.956813653664077",
      "lat": "41.02938216964009"
    },
    {
      "id": "pt.ine.add.PTCONT.5544311",
      "street": "R QUINTA",
      "house": "132",
      "postcode": "4660-130",
      "city": "PANCHORRA",
      "lon": "-7.9552081938454755",
      "lat": "41.029451739486156"
    },
    {
      "id": "pt.ine.add.PTCONT.5554166",
      "street": "R OUTEIRO",
      "house": "59",
      "postcode": "4660-130",
      "city": "PANCHORRA",
      "lon": "-7.956872531729606",
      "lat": "41.02959836969005"
    },
    {
      "id": "pt.ine.add.PTCONT.5601815",
      "street": "R CALÇADA",
      "house": "12",
      "postcode": "4660-130",
      "city": "PANCHORRA",
      "lon": "-7.956647301834118",
      "lat": "41.02933689215624"
    },
    {
      "id": "pt.ine.add.PTCONT.5626185",
      "street": "CAM CRUZEIRO",
      "house": "6",
      "postcode": "4660-130",
      "city": "PANCHORRA",
      "lon": "-7.956493947882262",
      "lat": "41.02887742347376"
    },
    {
      "id": "pt.ine.add.PTCONT.5669335",
      "street": "R OUTEIRO",
      "house": "77",
      "postcode": "4660-130",
      "city": "PANCHORRA",
      "lon": "-7.956896577597844",
      "lat": "41.029499356035615"
    }
  ]
}