{
  "data": {
    "distrito": "Braga",
    "concelho": "Barcelos",
    "freguesia": "Roriz",
    "OBJECTID": 1600,
    "BGRI2021": "03026400123",
    "DT21": "03",
    "DTMN21": "0302",
    "DTMNFR21": "030264",
    "DTMNFRSEC21": "030264001",
    "SECNUM21": "001",
    "SSNUM21": "23",
    "SECSSNUM21": "00123",
    "OBJECTID_1": 21099,
    "DT": "03",
    "CC": "02",
    "fr": "64",
    "SEC": "001",
    "SS": "23"
  },
  "addresses": [
    {
      "id": "pt.ine.add.PTCONT.467687",
      "street": "TV CRUZEIRO",
      "house": "128",
      "postcode": "4750-653",
      "city": "RORIZ BCL",
      "lon": "-8.586986160166315",
      "lat": "41.5875898188974"
    },
    {
      "id": "pt.ine.add.PTCONT.515438",
      "street": "VLA AUSTRALIAS",
      "house": "13",
      "postcode": "4750-653",
      "city": "RORIZ BCL",
      "lon": "-8.583922307185546",
      "lat": "41.58849323741737"
    },
    {
      "id": "pt.ine.add.PTCONT.527550",
      "street": "R FONTE DA ASSUBIDA",
      "house": "265",
      "postcode": "4750-655",
      "city": "RORIZ BCL",
      "lon": "-8.583288311075496",
      "lat": "41.58700111074307"
    },
    {
      "id": "pt.ine.add.PTCONT.544646",
      "street": "TV AUSTRALIAS",
      "house": "111",
      "postcode": "4750-653",
      "city": "RORIZ BCL",
      "lon": "-8.584052471125377",
      "lat": "41.588240623960786"
    },
    {
      "id": "pt.ine.add.PTCONT.563017",
      "street": "VLA AUSTRALIAS",
      "house": "47",
      "postcode": "4750-653",
      "city": "RORIZ BCL",
      "lon": "-8.583600323019663",
      "lat": "41.588755606153306"
    },
    {
      "id": "pt.ine.add.PTCONT.575599",
      "street": "R FONTE DA ASSUBIDA",
      "house": "419",
      "postcode": "4750-655",
      "city": "RORIZ BCL",
      "lon": "-8.582996254267726",
      "lat": "41.58811871026112"
    },
    {
      "id": "pt.ine.add.PTCONT.606127",
      "street": "ASSENTO",
      "house": "",
      "postcode": "4750-655",
      "city": "RORIZ BCL",
      "lon": "-8.58336020226626",
      "lat": "41.58699182554948"
    },
    {
      "id": "pt.ine.add.PTCONT.606752",
      "street": "TV PAULOS",
      "house": "104",
      "postcode": "4750-655",
      "city": "RORIZ BCL",
      "lon": "-8.585599805176127",
      "lat": "41.586559860158204"
    },
    {
      "id": "pt.ine.add.PTCONT.629396",
      "street": "R FONTE DA ASSUBIDA",
      "house": "113",
      "postcode": "4750-655",
      "city": "RORIZ BCL",
      "lon": "-8.584170601922754",
      "lat": "41.586259350867685"
    },
    {
      "id": "pt.ine.add.PTCONT.650044",
      "street": "R BARRIO",
      "house": "535",
      "postcode": "4750-653",
      "city": "RORIZ BCL",
      "lon": "-8.582985332859595",
      "lat": "41.59000052166041"
    },
    {
      "id": "pt.ine.add.PTCONT.664597",
      "street": "TV AUSTRALIAS",
      "house": "153",
      "postcode": "4750-653",
      "city": "RORIZ BCL",
      "lon": "-8.584580831917563",
      "lat": "41.588337590893204"
    },
    {
      "id": "pt.ine.add.PTCONT.722237",
      "street": "TV PAULOS",
      "house": "64",
      "postcode": "4750-655",
      "city": "RORIZ BCL",
      "lon": "-8.585884472940704",
      "lat": "41.58610855538495"
    },
    {
      "id": "pt.ine.add.PTCONT.748829",
      "street": "TV AUSTRALIAS",
      "house": "15",
      "postcode": "4750-653",
      "city": "RORIZ BCL",
      "lon": "-8.582946096830833",
      "lat": "41.58780377773125"
    },
    {
      "id": "pt.ine.add.PTCONT.762260",
      "street": "TV AUSTRALIAS",
      "house": "191",
      "postcode": "4750-653",
      "city": "RORIZ BCL",
      "lon": "-8.584854714551907",
      "lat": "41.5880574010484"
    },
    {
      "id": "pt.ine.add.PTCONT.764030",
      "street": "VLA AUSTRALIAS",
      "house": "62",
      "postcode": "4750-653",
      "city": "RORIZ BCL",
      "lon": "-8.583072460380002",
      "lat": "41.58873066220127"
    },
    {
      "id": "pt.ine.add.PTCONT.778855",
      "street": "TV AUSTRALIAS",
      "house": "89",
      "postcode": "4750-653",
      "city": "RORIZ BCL",
      "lon": "-8.583751844203347",
      "lat": "41.58812475484928"
    },
    {
      "id": "pt.ine.add.PTCONT.778856",
      "street": "TV AUSTRALIAS",
      "house": "49",
      "postcode": "4750-653",
      "city": "RORIZ BCL",
      "lon": "-8.583594940308304",
      "lat": "41.58798131086637"
    },
    {
      "id": "pt.ine.add.PTCONT.778857",
      "street": "R AUSTRALIAS",
      "house": "49",
      "postcode": "4750-653",
      "city": "RORIZ BCL",
      "lon": "-8.583594940308304",
      "lat": "41.58798131086637"
    },
    {
      "id": "pt.ine.add.PTCONT.848782",
      "street": "VLA AUSTRALIAS",
      "house": "28",
      "postcode": "4750-653",
      "city": "RORIZ BCL",
      "lon": "-8.583585326154653",
      "lat": "41.58832348834362"
    }
  ]
}