{
  "data": {
    "distrito": "Viana do Castelo",
    "concelho": "Ponte de Lima",
    "freguesia": "Fornelos e Queijada",
    "OBJECTID": 1635,
    "BGRI2021": "16075800119",
    "DT21": "16",
    "DTMN21": "1607",
    "DTMNFR21": "160758",
    "DTMNFRSEC21": "160758001",
    "SECNUM21": "001",
    "SSNUM21": "19",
    "SECSSNUM21": "00119",
    "OBJECTID_1": 177184,
    "DT": "16",
    "CC": "07",
    "fr": "58",
    "SEC": "001",
    "SS": "19"
  },
  "addresses": [
    {
      "id": "pt.ine.add.PTCONT.5137371",
      "street": "R EIDO VELHO",
      "house": "53",
      "postcode": "4990-620",
      "city": "FORNELOS PTL",
      "lon": "-8.562185437269404",
      "lat": "41.73773847569091"
    },
    {
      "id": "pt.ine.add.PTCONT.5143170",
      "street": "R CARRAO",
      "house": "",
      "postcode": "4990-620",
      "city": "FORNELOS PTL",
      "lon": "-8.565527930664384",
      "lat": "41.73964367969763"
    },
    {
      "id": "pt.ine.add.PTCONT.5164258",
      "street": "R ANQUIAO",
      "house": "941",
      "postcode": "4990-620",
      "city": "FORNELOS PTL",
      "lon": "-8.565064494090574",
      "lat": "41.74044672937027"
    },
    {
      "id": "pt.ine.add.PTCONT.5184123",
      "street": "R PICAROUBA",
      "house": "124",
      "postcode": "4990-620",
      "city": "FORNELOS PTL",
      "lon": "-8.5644865303408",
      "lat": "41.74030484553996"
    },
    {
      "id": "pt.ine.add.PTCONT.5193501",
      "street": "R MEIROAL",
      "house": "75",
      "postcode": "4990-620",
      "city": "FORNELOS PTL",
      "lon": "-8.565214849901718",
      "lat": "41.7395638264823"
    },
    {
      "id": "pt.ine.add.PTCONT.5193502",
      "street": "R MEIROAL",
      "house": "75",
      "postcode": "4990-620",
      "city": "FORNELOS PTL",
      "lon": "-8.565214849901718",
      "lat": "41.7395638264823"
    },
    {
      "id": "pt.ine.add.PTCONT.5204219",
      "street": "R MEIROAL",
      "house": "",
      "postcode": "4990-620",
      "city": "FORNELOS PTL",
      "lon": "-8.565735545261814",
      "lat": "41.74012908420238"
    },
    {
      "id": "pt.ine.add.PTCONT.5207791",
      "street": "R PICAROUBA",
      "house": "2J2",
      "postcode": "4990-620",
      "city": "FORNELOS PTL",
      "lon": "-8.562568420856284",
      "lat": "41.74109533019467"
    },
    {
      "id": "pt.ine.add.PTCONT.5217768",
      "street": "R PICAROUBA",
      "house": "94",
      "postcode": "4990-620",
      "city": "FORNELOS PTL",
      "lon": "-8.563767748618636",
      "lat": "41.7406766829772"
    },
    {
      "id": "pt.ine.add.PTCONT.5228233",
      "street": "R PICAROUBA",
      "house": "124",
      "postcode": "4990-620",
      "city": "FORNELOS PTL",
      "lon": "-8.563696284992153",
      "lat": "41.740775988679715"
    },
    {
      "id": "pt.ine.add.PTCONT.5230531",
      "street": "R EIDO VELHO",
      "house": "",
      "postcode": "4990-620",
      "city": "FORNELOS PTL",
      "lon": "-8.562179409715712",
      "lat": "41.738638842973174"
    },
    {
      "id": "pt.ine.add.PTCONT.5240357",
      "street": "R ANQUIAO",
      "house": "495",
      "postcode": "4990-620",
      "city": "FORNELOS PTL",
      "lon": "-8.565027225002076",
      "lat": "41.74026680058986"
    },
    {
      "id": "pt.ine.add.PTCONT.5251771",
      "street": "R PICAROUBA",
      "house": "1",
      "postcode": "4990-620",
      "city": "FORNELOS PTL",
      "lon": "-8.565376552516208",
      "lat": "41.74037352828092"
    },
    {
      "id": "pt.ine.add.PTCONT.5252523",
      "street": "R SANDILHAO",
      "house": "",
      "postcode": "4990-620",
      "city": "FORNELOS PTL",
      "lon": "-8.563900011474699",
      "lat": "41.737083812055175"
    },
    {
      "id": "pt.ine.add.PTCONT.5261066",
      "street": "R EIDO VELHO",
      "house": "53",
      "postcode": "4990-620",
      "city": "FORNELOS PTL",
      "lon": "-8.562353961627089",
      "lat": "41.73777386006003"
    },
    {
      "id": "pt.ine.add.PTCONT.5276451",
      "street": "TV PICAROUBA",
      "house": "113",
      "postcode": "4990-620",
      "city": "FORNELOS PTL",
      "lon": "-8.564703688448565",
      "lat": "41.740421074841464"
    },
    {
      "id": "pt.ine.add.PTCONT.5280685",
      "street": "R PICAROUBA",
      "house": "88",
      "postcode": "4990-620",
      "city": "FORNELOS PTL",
      "lon": "-8.564223096437312",
      "lat": "41.74045889278266"
    }
  ]
}