{
  "data": {
    "distrito": "Viana do Castelo",
    "concelho": "Ponte de Lima",
    "freguesia": "Fornelos e Queijada",
    "OBJECTID": 1627,
    "BGRI2021": "16075800130",
    "DT21": "16",
    "DTMN21": "1607",
    "DTMNFR21": "160758",
    "DTMNFRSEC21": "160758001",
    "SECNUM21": "001",
    "SSNUM21": "30",
    "SECSSNUM21": "00130",
    "OBJECTID_1": 175546,
    "DT": "16",
    "CC": "07",
    "fr": "58",
    "SEC": "001",
    "SS": "30"
  },
  "addresses": [
    {
      "id": "pt.ine.add.PTCONT.5140658",
      "street": "R PINHAL",
      "house": "57",
      "postcode": "4990-625",
      "city": "FORNELOS PTL",
      "lon": "-8.573894305610578",
      "lat": "41.74839924445835"
    },
    {
      "id": "pt.ine.add.PTCONT.5140817",
      "street": "R CARRAO",
      "house": "",
      "postcode": "4990-620",
      "city": "FORNELOS PTL",
      "lon": "-8.572258962807146",
      "lat": "41.7465958166057"
    },
    {
      "id": "pt.ine.add.PTCONT.5140818",
      "street": "R PINHAL",
      "house": "57",
      "postcode": "4990-625",
      "city": "FORNELOS PTL",
      "lon": "-8.573894305610578",
      "lat": "41.74839924445835"
    },
    {
      "id": "pt.ine.add.PTCONT.5143237",
      "street": "R PINHAL",
      "house": "56",
      "postcode": "4990-625",
      "city": "FORNELOS PTL",
      "lon": "-8.573785612385059",
      "lat": "41.74832763393899"
    },
    {
      "id": "pt.ine.add.PTCONT.5143238",
      "street": "R PINHAL",
      "house": "56",
      "postcode": "4990-625",
      "city": "FORNELOS PTL",
      "lon": "-8.573785612385059",
      "lat": "41.74832763393899"
    },
    {
      "id": "pt.ine.add.PTCONT.5170616",
      "street": "R SANTO AMARO",
      "house": "20",
      "postcode": "4990-626",
      "city": "FORNELOS PTL",
      "lon": "-8.571641247700722",
      "lat": "41.745922918306924"
    },
    {
      "id": "pt.ine.add.PTCONT.5194990",
      "street": "R STO AMARO",
      "house": "15",
      "postcode": "4990-626",
      "city": "FORNELOS PTL",
      "lon": "-8.571704665755844",
      "lat": "41.746408861682085"
    },
    {
      "id": "pt.ine.add.PTCONT.5209750",
      "street": "R PINHAL",
      "house": "",
      "postcode": "4990-625",
      "city": "FORNELOS PTL",
      "lon": "-8.572047778149885",
      "lat": "41.74912658774186"
    },
    {
      "id": "pt.ine.add.PTCONT.5214069",
      "street": "R PINHAL",
      "house": "59",
      "postcode": "4990-625",
      "city": "FORNELOS PTL",
      "lon": "-8.574039497249931",
      "lat": "41.74853373882644"
    },
    {
      "id": "pt.ine.add.PTCONT.5214070",
      "street": "R PINHAL",
      "house": "",
      "postcode": "4990-625",
      "city": "FORNELOS PTL",
      "lon": "-8.574039497249931",
      "lat": "41.74853373882644"
    },
    {
      "id": "pt.ine.add.PTCONT.5247174",
      "street": "R PINHAL",
      "house": "15",
      "postcode": "4990-625",
      "city": "FORNELOS PTL",
      "lon": "-8.571571046710934",
      "lat": "41.74974064111857"
    },
    {
      "id": "pt.ine.add.PTCONT.5253071",
      "street": "R SANTO AMARO",
      "house": "81",
      "postcode": "4990-626",
      "city": "FORNELOS PTL",
      "lon": "-8.571330761521667",
      "lat": "41.74623021965012"
    },
    {
      "id": "pt.ine.add.PTCONT.5278534",
      "street": "R PINHAL",
      "house": "58",
      "postcode": "4990-625",
      "city": "FORNELOS PTL",
      "lon": "-8.573990976769258",
      "lat": "41.74847090100415"
    },
    {
      "id": "pt.ine.add.PTCONT.5278535",
      "street": "R PINHAL",
      "house": "58",
      "postcode": "4990-625",
      "city": "FORNELOS PTL",
      "lon": "-8.573990976769258",
      "lat": "41.74847090100415"
    }
  ]
}