{
  "data": {
    "distrito": "Bragança",
    "concelho": "Bragança",
    "freguesia": "Gimonde",
    "OBJECTID": 1098,
    "BGRI2021": "04021600115",
    "DT21": "04",
    "DTMN21": "0402",
    "DTMNFR21": "040216",
    "DTMNFRSEC21": "040216001",
    "SECNUM21": "001",
    "SSNUM21": "15",
    "SECSSNUM21": "00115",
    "OBJECTID_1": 34630,
    "DT": "04",
    "CC": "02",
    "fr": "16",
    "SEC": "001",
    "SS": "15"
  },
  "addresses": [
    {
      "id": "pt.ine.add.PTCONT.854898",
      "street": "ESTR MILHAO",
      "house": "",
      "postcode": "5300-553",
      "city": "GIMONDE",
      "lon": "-6.685005981712242",
      "lat": "41.80042149933302"
    },
    {
      "id": "pt.ine.add.PTCONT.856372",
      "street": "R RIO FRIO",
      "house": "2",
      "postcode": "5300-553",
      "city": "GIMONDE",
      "lon": "-6.693858175077929",
      "lat": "41.808095330296034"
    },
    {
      "id": "pt.ine.add.PTCONT.867873",
      "street": "ESTR BABE",
      "house": "",
      "postcode": "5300-553",
      "city": "GIMONDE",
      "lon": "-6.681128140330643",
      "lat": "41.8154976492963"
    },
    {
      "id": "pt.ine.add.PTCONT.875075",
      "street": "R RIO FRIO",
      "house": "4",
      "postcode": "5300-553",
      "city": "GIMONDE",
      "lon": "-6.693746882423749",
      "lat": "41.80822898127939"
    },
    {
      "id": "pt.ine.add.PTCONT.886162",
      "street": "BR MARRAO",
      "house": "",
      "postcode": "5300-553",
      "city": "GIMONDE",
      "lon": "-6.691170650692395",
      "lat": "41.802911876915076"
    },
    {
      "id": "pt.ine.add.PTCONT.897716",
      "street": "BR MARRAO",
      "house": "",
      "postcode": "5300-553",
      "city": "GIMONDE",
      "lon": "-6.693238847144838",
      "lat": "41.804585381942495"
    },
    {
      "id": "pt.ine.add.PTCONT.903872",
      "street": "BR MARRAO",
      "house": "",
      "postcode": "5300-553",
      "city": "GIMONDE",
      "lon": "-6.693536014931383",
      "lat": "41.80421097887973"
    },
    {
      "id": "pt.ine.add.PTCONT.926674",
      "street": "BR MARRAO",
      "house": "",
      "postcode": "5300-553",
      "city": "GIMONDE",
      "lon": "-6.693037775259932",
      "lat": "41.80442980915494"
    },
    {
      "id": "pt.ine.add.PTCONT.946930",
      "street": "BR MARRAO",
      "house": "",
      "postcode": "5300-553",
      "city": "GIMONDE",
      "lon": "-6.692902092355182",
      "lat": "41.80404097664933"
    },
    {
      "id": "pt.ine.add.PTCONT.948566",
      "street": "BR MARRAO",
      "house": "",
      "postcode": "5300-553",
      "city": "GIMONDE",
      "lon": "-6.692426972832994",
      "lat": "41.80376492638046"
    }
  ]
}