{
  "data": {
    "distrito": "Leiria",
    "concelho": "Peniche",
    "freguesia": "Peniche",
    "OBJECTID": 262,
    "BGRI2021": "10140701201",
    "DT21": "10",
    "DTMN21": "1014",
    "DTMNFR21": "101407",
    "DTMNFRSEC21": "101407012",
    "SECNUM21": "012",
    "SSNUM21": "01",
    "SECSSNUM21": "01201",
    "OBJECTID_1": 94501,
    "DT": "10",
    "CC": "14",
    "fr": "07",
    "SEC": "012",
    "SS": "01"
  },
  "addresses": [
    {
      "id": "pt.ine.add.PTCONT.2001346",
      "street": "R PAZ",
      "house": "1",
      "postcode": "2520-328",
      "city": "PENICHE",
      "lon": "-9.38173401837534",
      "lat": "39.35569257489442"
    },
    {
      "id": "pt.ine.add.PTCONT.2001347",
      "street": "R PAZ",
      "house": "1",
      "postcode": "2520-328",
      "city": "PENICHE",
      "lon": "-9.38173401837534",
      "lat": "39.35569257489442"
    },
    {
      "id": "pt.ine.add.PTCONT.2001348",
      "street": "R PAZ",
      "house": "1",
      "postcode": "2520-328",
      "city": "PENICHE",
      "lon": "-9.38173401837534",
      "lat": "39.35569257489442"
    },
    {
      "id": "pt.ine.add.PTCONT.2001349",
      "street": "R PAZ",
      "house": "1",
      "postcode": "2520-328",
      "city": "PENICHE",
      "lon": "-9.38173401837534",
      "lat": "39.35569257489442"
    },
    {
      "id": "pt.ine.add.PTCONT.2001350",
      "street": "R PAZ",
      "house": "1",
      "postcode": "2520-328",
      "city": "PENICHE",
      "lon": "-9.38173401837534",
      "lat": "39.35569257489442"
    },
    {
      "id": "pt.ine.add.PTCONT.2001351",
      "street": "R PAZ",
      "house": "1",
      "postcode": "2520-328",
      "city": "PENICHE",
      "lon": "-9.38173401837534",
      "lat": "39.35569257489442"
    },
    {
      "id": "pt.ine.add.PTCONT.2005564",
      "street": "R AMOREIRAS",
      "house": "32",
      "postcode": "2520-335",
      "city": "PENICHE",
      "lon": "-9.38155922622657",
      "lat": "39.35564941644215"
    },
    {
      "id": "pt.ine.add.PTCONT.2005565",
      "street": "R AMOREIRAS",
      "house": "32",
      "postcode": "2520-335",
      "city": "PENICHE",
      "lon": "-9.38155922622657",
      "lat": "39.35564941644215"
    },
    {
      "id": "pt.ine.add.PTCONT.2005566",
      "street": "R AMOREIRAS",
      "house": "32",
      "postcode": "2520-335",
      "city": "PENICHE",
      "lon": "-9.38155922622657",
      "lat": "39.35564941644215"
    },
    {
      "id": "pt.ine.add.PTCONT.2005614",
      "street": "R AMOREIRAS",
      "house": "32",
      "postcode": "2520-335",
      "city": "PENICHE",
      "lon": "-9.38155922622657",
      "lat": "39.35564941644215"
    },
    {
      "id": "pt.ine.add.PTCONT.2005615",
      "street": "R AMOREIRAS",
      "house": "32",
      "postcode": "2520-335",
      "city": "PENICHE",
      "lon": "-9.38155922622657",
      "lat": "39.35564941644215"
    },
    {
      "id": "pt.ine.add.PTCONT.2005802",
      "street": "R AMOREIRAS",
      "house": "32",
      "postcode": "2520-335",
      "city": "PENICHE",
      "lon": "-9.38155922622657",
      "lat": "39.35564941644215"
    },
    {
      "id": "pt.ine.add.PTCONT.2120950",
      "street": "R ANTÓNIO CERVANTES",
      "house": "108",
      "postcode": "2520-278",
      "city": "PENICHE",
      "lon": "-9.381650578382454",
      "lat": "39.35556737530914"
    },
    {
      "id": "pt.ine.add.PTCONT.2152210",
      "street": "R AFONSO DE ALBUQUERQUE",
      "house": "53A",
      "postcode": "2520-270",
      "city": "PENICHE",
      "lon": "-9.381549550438457",
      "lat": "39.35575760158451"
    },
    {
      "id": "pt.ine.add.PTCONT.2152211",
      "street": "R AFONSO DE ALBUQUERQUE",
      "house": "53A",
      "postcode": "2520-270",
      "city": "PENICHE",
      "lon": "-9.381549550438457",
      "lat": "39.35575760158451"
    },
    {
      "id": "pt.ine.add.PTCONT.2152212",
      "street": "R AFONSO DE ALBUQUERQUE",
      "house": "53A",
      "postcode": "2520-270",
      "city": "PENICHE",
      "lon": "-9.381549550438457",
      "lat": "39.35575760158451"
    },
    {
      "id": "pt.ine.add.PTCONT.2152213",
      "street": "R AFONSO DE ALBUQUERQUE",
      "house": "53A",
      "postcode": "2520-270",
      "city": "PENICHE",
      "lon": "-9.381549550438457",
      "lat": "39.35575760158451"
    },
    {
      "id": "pt.ine.add.PTCONT.2152214",
      "street": "R AFONSO DE ALBUQUERQUE",
      "house": "53A",
      "postcode": "2520-270",
      "city": "PENICHE",
      "lon": "-9.381549550438457",
      "lat": "39.35575760158451"
    },
    {
      "id": "pt.ine.add.PTCONT.2152512",
      "street": "R AFONSO DE ALBUQUERQUE",
      "house": "53A",
      "postcode": "2520-270",
      "city": "PENICHE",
      "lon": "-9.381549550438457",
      "lat": "39.35575760158451"
    },
    {
      "id": "pt.ine.add.PTCONT.2152750",
      "street": "R ANTÓNIO CERVANTES",
      "house": "102",
      "postcode": "2520-278",
      "city": "PENICHE",
      "lon": "-9.381592421299201",
      "lat": "39.355558992515995"
    },
    {
      "id": "pt.ine.add.PTCONT.2178400",
      "street": "R ANTÓNIO CERVANTES",
      "house": "110",
      "postcode": "2520-278",
      "city": "PENICHE",
      "lon": "-9.381732094513904",
      "lat": "39.35558451420484"
    },
    {
      "id": "pt.ine.add.PTCONT.2178401",
      "street": "R ANTÓNIO CERVANTES",
      "house": "110",
      "postcode": "2520-278",
      "city": "PENICHE",
      "lon": "-9.381732094513904",
      "lat": "39.35558451420484"
    },
    {
      "id": "pt.ine.add.PTCONT.2178402",
      "street": "R ANTÓNIO CERVANTES",
      "house": "110",
      "postcode": "2520-278",
      "city": "PENICHE",
      "lon": "-9.381732094513904",
      "lat": "39.35558451420484"
    },
    {
      "id": "pt.ine.add.PTCONT.2178403",
      "street": "R ANTÓNIO CERVANTES",
      "house": "110",
      "postcode": "2520-278",
      "city": "PENICHE",
      "lon": "-9.381732094513904",
      "lat": "39.35558451420484"
    },
    {
      "id": "pt.ine.add.PTCONT.2178689",
      "street": "R ANTÓNIO CERVANTES",
      "house": "110",
      "postcode": "2520-278",
      "city": "PENICHE",
      "lon": "-9.381732094513904",
      "lat": "39.35558451420484"
    }
  ]
}