{
  "data": {
    "distrito": "Lisboa",
    "concelho": "Lourinhã",
    "freguesia": "União das freguesias de Lourinhã e Atalaia",
    "OBJECTID": 547,
    "BGRI2021": "11081200611",
    "DT21": "11",
    "DTMN21": "1108",
    "DTMNFR21": "110812",
    "DTMNFRSEC21": "110812006",
    "SECNUM21": "006",
    "SSNUM21": "11",
    "SECSSNUM21": "00611",
    "OBJECTID_1": 107512,
    "DT": "11",
    "CC": "08",
    "fr": "12",
    "SEC": "006",
    "SS": "11"
  },
  "addresses": [
    {
      "id": "pt.ine.add.PTCONT.2398995",
      "street": "R FLAVIO FERREIRA ALVES",
      "house": "11",
      "postcode": "2530-907",
      "city": "LOURINHÃ",
      "lon": "-9.331898112218095",
      "lat": "39.27172318092663"
    },
    {
      "id": "pt.ine.add.PTCONT.2499912",
      "street": "AV 24 DE JUNHO",
      "house": "15",
      "postcode": "2530-909",
      "city": "LOURINHÃ",
      "lon": "-9.332248682136012",
      "lat": "39.272575229747176"
    },
    {
      "id": "pt.ine.add.PTCONT.2499913",
      "street": "AV 24 DE JUNHO",
      "house": "15",
      "postcode": "2530-909",
      "city": "LOURINHÃ",
      "lon": "-9.332248682136012",
      "lat": "39.272575229747176"
    },
    {
      "id": "pt.ine.add.PTCONT.2499914",
      "street": "AV 24 DE JUNHO",
      "house": "15",
      "postcode": "2530-909",
      "city": "LOURINHÃ",
      "lon": "-9.332248682136012",
      "lat": "39.272575229747176"
    },
    {
      "id": "pt.ine.add.PTCONT.2500090",
      "street": "AV 24 DE JUNHO",
      "house": "15",
      "postcode": "2530-909",
      "city": "LOURINHÃ",
      "lon": "-9.332248682136012",
      "lat": "39.272575229747176"
    },
    {
      "id": "pt.ine.add.PTCONT.2500091",
      "street": "AV 24 DE JUNHO",
      "house": "15",
      "postcode": "2530-909",
      "city": "LOURINHÃ",
      "lon": "-9.332248682136012",
      "lat": "39.272575229747176"
    },
    {
      "id": "pt.ine.add.PTCONT.2500092",
      "street": "AV 24 DE JUNHO",
      "house": "15",
      "postcode": "2530-909",
      "city": "LOURINHÃ",
      "lon": "-9.332248682136012",
      "lat": "39.272575229747176"
    },
    {
      "id": "pt.ine.add.PTCONT.2500093",
      "street": "AV 24 DE JUNHO",
      "house": "15",
      "postcode": "2530-909",
      "city": "LOURINHÃ",
      "lon": "-9.332248682136012",
      "lat": "39.272575229747176"
    },
    {
      "id": "pt.ine.add.PTCONT.2502559",
      "street": "AV 24 DE JUNHO",
      "house": "15",
      "postcode": "2530-909",
      "city": "LOURINHÃ",
      "lon": "-9.332248682136012",
      "lat": "39.272575229747176"
    },
    {
      "id": "pt.ine.add.PTCONT.2686101",
      "street": "R FLAVIO FERREIRA ALVES",
      "house": "15",
      "postcode": "2530-907",
      "city": "LOURINHÃ",
      "lon": "-9.332259419152136",
      "lat": "39.27184555747604"
    },
    {
      "id": "pt.ine.add.PTCONT.2739433",
      "street": "R FLAVIO FERREIRA ALVES",
      "house": "13",
      "postcode": "2530-907",
      "city": "LOURINHÃ",
      "lon": "-9.33210803687811",
      "lat": "39.271802081790405"
    },
    {
      "id": "pt.ine.add.PTCONT.2812482",
      "street": "R FLAVIO FERREIRA ALVES",
      "house": "9",
      "postcode": "2530-907",
      "city": "LOURINHÃ",
      "lon": "-9.331793073335998",
      "lat": "39.271679227671804"
    },
    {
      "id": "pt.ine.add.PTCONT.2956891",
      "street": "R JOSE MATEUS CUSTÓDIO",
      "house": "8 A",
      "postcode": "2530-906",
      "city": "LOURINHÃ",
      "lon": "-9.332335842204623",
      "lat": "39.27225008242755"
    },
    {
      "id": "pt.ine.add.PTCONT.2966073",
      "street": "R JOSE MATEUS CUSTÓDIO",
      "house": "8 B",
      "postcode": "2530-906",
      "city": "LOURINHÃ",
      "lon": "-9.332219523468801",
      "lat": "39.272224259614354"
    },
    {
      "id": "pt.ine.add.PTCONT.3104930",
      "street": "R FLAVIO FERREIRA ALVES",
      "house": "5",
      "postcode": "2530-907",
      "city": "LOURINHÃ",
      "lon": "-9.331501589125047",
      "lat": "39.27157414490625"
    },
    {
      "id": "pt.ine.add.PTCONT.3169867",
      "street": "R FLAVIO FERREIRA ALVES",
      "house": "7",
      "postcode": "2530-907",
      "city": "LOURINHÃ",
      "lon": "-9.331618366821639",
      "lat": "39.27162698452961"
    },
    {
      "id": "pt.ine.add.PTCONT.3182959",
      "street": "R JOSÉ MATEUS CUSTÓDIO",
      "house": "4",
      "postcode": "2530-906",
      "city": "LOURINHÃ",
      "lon": "-9.331929597590092",
      "lat": "39.27202720109124"
    },
    {
      "id": "pt.ine.add.PTCONT.3340184",
      "street": "R SOL E MAR",
      "house": "10 A",
      "postcode": "2530-906",
      "city": "LOURINHÃ",
      "lon": "-9.332497583048145",
      "lat": "39.27222139563009"
    }
  ]
}