{
  "data": {
    "distrito": "Santarém",
    "concelho": "Ferreira do Zêzere",
    "freguesia": "Águas Belas",
    "OBJECTID": 59,
    "BGRI2021": "14110100241",
    "DT21": "14",
    "DTMN21": "1411",
    "DTMNFR21": "141101",
    "DTMNFRSEC21": "141101002",
    "SECNUM21": "002",
    "SSNUM21": "41",
    "SECSSNUM21": "00241",
    "OBJECTID_1": 151522,
    "DT": "14",
    "CC": "11",
    "fr": "01",
    "SEC": "002",
    "SS": "41"
  },
  "addresses": [
    {
      "id": "pt.ine.add.PTCONT.4410569",
      "street": "R FRANCISCO PATRICIO",
      "house": "",
      "postcode": "2240-008",
      "city": "ÁGUAS BELAS FZZ",
      "lon": "-8.300210921777582",
      "lat": "39.732805966575306"
    },
    {
      "id": "pt.ine.add.PTCONT.4464080",
      "street": "R AUGUSTO GODINHO",
      "house": "",
      "postcode": "2240-011",
      "city": "ÁGUAS BELAS FZZ",
      "lon": "-8.301903013726594",
      "lat": "39.73307371690335"
    },
    {
      "id": "pt.ine.add.PTCONT.4479603",
      "street": "R CAMILO JORGE FERREIRA DA SILVA",
      "house": "",
      "postcode": "2240-031",
      "city": "ÁGUAS BELAS FZZ",
      "lon": "-8.299950280139399",
      "lat": "39.72630356674453"
    },
    {
      "id": "pt.ine.add.PTCONT.4509001",
      "street": "R FRANCISCO PATRICIO",
      "house": "",
      "postcode": "2240-008",
      "city": "ÁGUAS BELAS FZZ",
      "lon": "-8.300617520165105",
      "lat": "39.732111871750114"
    },
    {
      "id": "pt.ine.add.PTCONT.4563504",
      "street": "R FRANCISCO PATRICIO",
      "house": "",
      "postcode": "2240-011",
      "city": "ÁGUAS BELAS FZZ",
      "lon": "-8.300362893994008",
      "lat": "39.73294084684874"
    },
    {
      "id": "pt.ine.add.PTCONT.4602520",
      "street": "R MANUEL MONTEIRO",
      "house": "",
      "postcode": "2240-038",
      "city": "ÁGUAS BELAS FZZ",
      "lon": "-8.299865039866848",
      "lat": "39.72965415022038"
    },
    {
      "id": "pt.ine.add.PTCONT.4626465",
      "street": "R CAMILO JORGE FERREIRA DA SILVA",
      "house": "",
      "postcode": "2240-031",
      "city": "ÁGUAS BELAS FZZ",
      "lon": "-8.29986921824376",
      "lat": "39.72654686189562"
    }
  ]
}