{
  "data": {
    "distrito": "Portalegre",
    "concelho": "Portalegre",
    "freguesia": "União das freguesias da Sé e São Lourenço",
    "OBJECTID": 330,
    "BGRI2021": "12141100414",
    "DT21": "12",
    "DTMN21": "1214",
    "DTMNFR21": "121411",
    "DTMNFRSEC21": "121411004",
    "SECNUM21": "004",
    "SSNUM21": "14",
    "SECSSNUM21": "00414",
    "OBJECTID_1": 124537,
    "DT": "12",
    "CC": "14",
    "fr": "11",
    "SEC": "004",
    "SS": "14"
  },
  "addresses": [
    {
      "id": "pt.ine.add.PTCONT.3535853",
      "street": "QTA HORTA VELHA",
      "house": "",
      "postcode": "7300-497",
      "city": "PORTALEGRE",
      "lon": "-7.444756627962914",
      "lat": "39.282353776561514"
    },
    {
      "id": "pt.ine.add.PTCONT.3535874",
      "street": "PAINEL DA BENGALOA",
      "house": "",
      "postcode": "7300-494",
      "city": "PORTALEGRE",
      "lon": "-7.443324064633699",
      "lat": "39.28779464257687"
    },
    {
      "id": "pt.ine.add.PTCONT.3459311",
      "street": "PAINEL DA BENGALOA",
      "house": "",
      "postcode": "7300-494",
      "city": "PORTALEGRE",
      "lon": "-7.443709164969603",
      "lat": "39.28634676790173"
    },
    {
      "id": "pt.ine.add.PTCONT.3464406",
      "street": "BALDIO DO LAGAR",
      "house": "",
      "postcode": "7300-497",
      "city": "PORTALEGRE",
      "lon": "-7.44484982410175",
      "lat": "39.283489232646126"
    },
    {
      "id": "pt.ine.add.PTCONT.3470961",
      "street": "OLIVAL DE S JOÃO PAINEL BENGALOA",
      "house": "CX 5560",
      "postcode": "7300-497",
      "city": "PORTALEGRE",
      "lon": "-7.440126406957034",
      "lat": "39.28882949396678"
    },
    {
      "id": "pt.ine.add.PTCONT.3480197",
      "street": "QUATRO AGUAS",
      "house": "",
      "postcode": "7300-191",
      "city": "PORTALEGRE",
      "lon": "-7.439246010489968",
      "lat": "39.28642834222474"
    },
    {
      "id": "pt.ine.add.PTCONT.3486615",
      "street": "PAINEL BENGALO",
      "house": "5562",
      "postcode": "7300-497",
      "city": "PORTALEGRE",
      "lon": "-7.441546692212024",
      "lat": "39.289378369024305"
    },
    {
      "id": "pt.ine.add.PTCONT.3486637",
      "street": "PAINEL BENGALO",
      "house": "",
      "postcode": "7300-497",
      "city": "PORTALEGRE",
      "lon": "-7.441546692212024",
      "lat": "39.289378369024305"
    },
    {
      "id": "pt.ine.add.PTCONT.3492247",
      "street": "PAINEL BENGALOA",
      "house": "645575",
      "postcode": "7300-494",
      "city": "PORTALEGRE",
      "lon": "-7.444700562663683",
      "lat": "39.285713124015714"
    },
    {
      "id": "pt.ine.add.PTCONT.3492248",
      "street": "PAINEL BENGALOA",
      "house": "5579",
      "postcode": "7300-494",
      "city": "PORTALEGRE",
      "lon": "-7.444700562663683",
      "lat": "39.285713124015714"
    },
    {
      "id": "pt.ine.add.PTCONT.3498669",
      "street": "PAINEL DA BENGALOA",
      "house": "",
      "postcode": "7300-494",
      "city": "PORTALEGRE",
      "lon": "-7.4425966283363305",
      "lat": "39.28633116810166"
    },
    {
      "id": "pt.ine.add.PTCONT.3498707",
      "street": "PAINEL DA BENGALOA",
      "house": "",
      "postcode": "7300-494",
      "city": "PORTALEGRE",
      "lon": "-7.4425966283363305",
      "lat": "39.28633116810166"
    },
    {
      "id": "pt.ine.add.PTCONT.3499662",
      "street": "PAINEL DA BENGALOA",
      "house": "",
      "postcode": "7300-494",
      "city": "PORTALEGRE",
      "lon": "-7.445030099126403",
      "lat": "39.28520166265184"
    },
    {
      "id": "pt.ine.add.PTCONT.3499663",
      "street": "PAINEL DA BENGALOA",
      "house": "",
      "postcode": "7300-494",
      "city": "PORTALEGRE",
      "lon": "-7.445030099126403",
      "lat": "39.28520166265184"
    },
    {
      "id": "pt.ine.add.PTCONT.3515075",
      "street": "PAINEL BENGALOA",
      "house": "CX 5558",
      "postcode": "7300-494",
      "city": "PORTALEGRE",
      "lon": "-7.44127685990455",
      "lat": "39.28263939702996"
    },
    {
      "id": "pt.ine.add.PTCONT.3527676",
      "street": "QTA HORTA VELHA",
      "house": "",
      "postcode": "7300-497",
      "city": "PORTALEGRE",
      "lon": "-7.443530470133396",
      "lat": "39.282112334488026"
    },
    {
      "id": "pt.ine.add.PTCONT.3532094",
      "street": "PAINEL DA BENGALOA",
      "house": "",
      "postcode": "7300-494",
      "city": "PORTALEGRE",
      "lon": "-7.4432240974251895",
      "lat": "39.288532638660286"
    },
    {
      "id": "pt.ine.add.PTCONT.3532095",
      "street": "PAINEL DA BENGALOA",
      "house": "",
      "postcode": "7300-494",
      "city": "PORTALEGRE",
      "lon": "-7.4432240974251895",
      "lat": "39.288532638660286"
    }
  ]
}