{
  "data": {
    "distrito": "Beja",
    "concelho": "Serpa",
    "freguesia": "Pias",
    "OBJECTID": 282,
    "BGRI2021": "02130300202",
    "DT21": "02",
    "DTMN21": "0213",
    "DTMNFR21": "021303",
    "DTMNFRSEC21": "021303002",
    "SECNUM21": "002",
    "SSNUM21": "02",
    "SECSSNUM21": "00202",
    "OBJECTID_1": 19201,
    "DT": "02",
    "CC": "13",
    "fr": "03",
    "SEC": "002",
    "SS": "02"
  },
  "addresses": [
    {
      "id": "pt.ine.add.PTCONT.353558",
      "street": "R DR MÁRIO BEIRAO",
      "house": "11A",
      "postcode": "7830-249",
      "city": "PIAS SRP",
      "lon": "-7.47965824985177",
      "lat": "38.02107916725567"
    },
    {
      "id": "pt.ine.add.PTCONT.365863",
      "street": "R 5 DE OUTUBRO",
      "house": "22",
      "postcode": "7830-213",
      "city": "PIAS SRP",
      "lon": "-7.479422569526377",
      "lat": "38.021167473654685"
    },
    {
      "id": "pt.ine.add.PTCONT.392676",
      "street": "LG 5 DE OUTUBRO",
      "house": "5A",
      "postcode": "7830-205",
      "city": "PIAS SRP",
      "lon": "-7.4795614584809655",
      "lat": "38.020751718969954"
    },
    {
      "id": "pt.ine.add.PTCONT.406622",
      "street": "R MOUROS",
      "house": "4",
      "postcode": "7830-246",
      "city": "PIAS SRP",
      "lon": "-7.479728057239991",
      "lat": "38.020710181261975"
    },
    {
      "id": "pt.ine.add.PTCONT.410240",
      "street": "LG 5 OUTUBRO",
      "house": "6",
      "postcode": "7830-205",
      "city": "PIAS SRP",
      "lon": "-7.4794581016376895",
      "lat": "38.02083385987574"
    },
    {
      "id": "pt.ine.add.PTCONT.411844",
      "street": "R 5 DE OUTUBRO",
      "house": "28",
      "postcode": "7830-213",
      "city": "PIAS SRP",
      "lon": "-7.479283651338032",
      "lat": "38.02095690949805"
    },
    {
      "id": "pt.ine.add.PTCONT.423096",
      "street": "R DR MÁRIO BEIRAO",
      "house": "11A",
      "postcode": "7830-249",
      "city": "PIAS SRP",
      "lon": "-7.479995217212078",
      "lat": "38.02083131835242"
    },
    {
      "id": "pt.ine.add.PTCONT.425532",
      "street": "R 5 DE OUTUBRO",
      "house": "26",
      "postcode": "7830-213",
      "city": "PIAS SRP",
      "lon": "-7.4793124593229745",
      "lat": "38.02100485135347"
    }
  ]
}