{
  "data": {
    "distrito": "Viseu",
    "concelho": "Sátão",
    "freguesia": "Mioma",
    "OBJECTID": 345,
    "BGRI2021": "18170600114",
    "DT21": "18",
    "DTMN21": "1817",
    "DTMNFR21": "181706",
    "DTMNFRSEC21": "181706001",
    "SECNUM21": "001",
    "SSNUM21": "14",
    "SECSSNUM21": "00114",
    "OBJECTID_1": 197550,
    "DT": "18",
    "CC": "17",
    "fr": "06",
    "SEC": "001",
    "SS": "14"
  },
  "addresses": [
    {
      "id": "pt.ine.add.PTCONT.5438582",
      "street": "R DIREITA",
      "house": "7",
      "postcode": "3560-083",
      "city": "MIOMA",
      "lon": "-7.705173448749653",
      "lat": "40.74284787268577"
    },
    {
      "id": "pt.ine.add.PTCONT.5462325",
      "street": "R DEPOSITO DA AGUA",
      "house": "",
      "postcode": "3560-083",
      "city": "MIOMA",
      "lon": "-7.705622020186777",
      "lat": "40.74305664997235"
    },
    {
      "id": "pt.ine.add.PTCONT.5489686",
      "street": "R DIREITA",
      "house": "3",
      "postcode": "3560-083",
      "city": "MIOMA",
      "lon": "-7.705076828487695",
      "lat": "40.743144679433726"
    },
    {
      "id": "pt.ine.add.PTCONT.5491594",
      "street": "R ESCOLA",
      "house": "1",
      "postcode": "3560-083",
      "city": "MIOMA",
      "lon": "-7.706002552905647",
      "lat": "40.74279691371807"
    },
    {
      "id": "pt.ine.add.PTCONT.5542808",
      "street": "R VAL IGREJA",
      "house": "4",
      "postcode": "3560-083",
      "city": "MIOMA",
      "lon": "-7.7058471425091914",
      "lat": "40.74303046854832"
    },
    {
      "id": "pt.ine.add.PTCONT.5545898",
      "street": "R ESCOLA",
      "house": "5",
      "postcode": "3560-083",
      "city": "MIOMA",
      "lon": "-7.70542098035886",
      "lat": "40.74301988519271"
    },
    {
      "id": "pt.ine.add.PTCONT.5555393",
      "street": "R DIREITA",
      "house": "13",
      "postcode": "3560-083",
      "city": "MIOMA",
      "lon": "-7.705435646070015",
      "lat": "40.742578694485914"
    },
    {
      "id": "pt.ine.add.PTCONT.5563874",
      "street": "R DEPÓSITO DA ÁGUA",
      "house": "1",
      "postcode": "3560-083",
      "city": "MIOMA",
      "lon": "-7.705707605494654",
      "lat": "40.74263373188106"
    },
    {
      "id": "pt.ine.add.PTCONT.5573647",
      "street": "R ESCOLA",
      "house": "7",
      "postcode": "3560-083",
      "city": "MIOMA",
      "lon": "-7.705066143614191",
      "lat": "40.7429645397976"
    },
    {
      "id": "pt.ine.add.PTCONT.5623905",
      "street": "R DIREITA",
      "house": "15",
      "postcode": "3560-083",
      "city": "MIOMA",
      "lon": "-7.70529340066515",
      "lat": "40.74260518233183"
    },
    {
      "id": "pt.ine.add.PTCONT.5623925",
      "street": "R ESCOLA",
      "house": "1",
      "postcode": "3560-083",
      "city": "MIOMA",
      "lon": "-7.705789386095582",
      "lat": "40.742805129708785"
    },
    {
      "id": "pt.ine.add.PTCONT.5625776",
      "street": "R DEPOSITO DA AGUA",
      "house": "",
      "postcode": "3560-083",
      "city": "MIOMA",
      "lon": "-7.705668513244273",
      "lat": "40.74319189717002"
    },
    {
      "id": "pt.ine.add.PTCONT.5642858",
      "street": "LG ESCOLA",
      "house": "2",
      "postcode": "3560-083",
      "city": "MIOMA",
      "lon": "-7.706086580518964",
      "lat": "40.74261712460219"
    },
    {
      "id": "pt.ine.add.PTCONT.5646678",
      "street": "AV CAPELA",
      "house": "15",
      "postcode": "3560-083",
      "city": "MIOMA",
      "lon": "-7.705791460800604",
      "lat": "40.74248095734248"
    },
    {
      "id": "pt.ine.add.PTCONT.5657882",
      "street": "R VAL DA IGREJA",
      "house": "2",
      "postcode": "3560-083",
      "city": "MIOMA",
      "lon": "-7.705859731036305",
      "lat": "40.74291345013724"
    },
    {
      "id": "pt.ine.add.PTCONT.5661394",
      "street": "R DIREITA",
      "house": "1",
      "postcode": "3560-083",
      "city": "MIOMA",
      "lon": "-7.705099064279178",
      "lat": "40.74336988689853"
    },
    {
      "id": "pt.ine.add.PTCONT.5668976",
      "street": "R DEPOSITO DA AGUA",
      "house": "4",
      "postcode": "3560-083",
      "city": "MIOMA",
      "lon": "-7.7052533817038045",
      "lat": "40.743307424048275"
    }
  ]
}