{
  "data": {
    "distrito": "Viana do Castelo",
    "concelho": "Viana do Castelo",
    "freguesia": "União das freguesias de Viana do Castelo (Santa Maria Maior e Monserrate) e Meadela",
    "OBJECTID": 10,
    "BGRI2021": "16094802201",
    "DT21": "16",
    "DTMN21": "1609",
    "DTMNFR21": "160948",
    "DTMNFRSEC21": "160948022",
    "SECNUM21": "022",
    "SSNUM21": "01",
    "SECSSNUM21": "02201",
    "OBJECTID_1": 178374,
    "DT": "16",
    "CC": "09",
    "fr": "48",
    "SEC": "022",
    "SS": "01"
  },
  "addresses": [
    {
      "id": "pt.ine.add.PTCONT.5137941",
      "street": "LG 5 OUTUBRO",
      "house": "22",
      "postcode": "4900-050",
      "city": "VIANA DO CASTELO",
      "lon": "-8.829260697276041",
      "lat": "41.691125468626886"
    },
    {
      "id": "pt.ine.add.PTCONT.5137940",
      "street": "AL JOAO ALVES CERQUEIRA",
      "house": "22 25 27",
      "postcode": "4900-050",
      "city": "VIANA DO CASTELO",
      "lon": "-8.829260697276041",
      "lat": "41.691125468626886"
    },
    {
      "id": "pt.ine.add.PTCONT.5138039",
      "street": "AL JOAO ALVES CERQUEIRA",
      "house": "22 25 27",
      "postcode": "4900-050",
      "city": "VIANA DO CASTELO",
      "lon": "-8.829260697276041",
      "lat": "41.691125468626886"
    },
    {
      "id": "pt.ine.add.PTCONT.5140190",
      "street": "R FLORES",
      "house": "15",
      "postcode": "4900-553",
      "city": "VIANA DO CASTELO",
      "lon": "-8.82878413366144",
      "lat": "41.69148849337163"
    },
    {
      "id": "pt.ine.add.PTCONT.5140191",
      "street": "R FLORES",
      "house": "15",
      "postcode": "4900-553",
      "city": "VIANA DO CASTELO",
      "lon": "-8.82878413366144",
      "lat": "41.69148849337163"
    },
    {
      "id": "pt.ine.add.PTCONT.5140192",
      "street": "R FLORES",
      "house": "15",
      "postcode": "4900-553",
      "city": "VIANA DO CASTELO",
      "lon": "-8.82878413366144",
      "lat": "41.69148849337163"
    },
    {
      "id": "pt.ine.add.PTCONT.5140193",
      "street": "R FLORES",
      "house": "15",
      "postcode": "4900-553",
      "city": "VIANA DO CASTELO",
      "lon": "-8.82878413366144",
      "lat": "41.69148849337163"
    },
    {
      "id": "pt.ine.add.PTCONT.5147070",
      "street": "AV COMBATENTES DA GRANDE GUERRA",
      "house": "49",
      "postcode": "4900-563",
      "city": "VIANA DO CASTELO",
      "lon": "-8.828725629791679",
      "lat": "41.69163290306516"
    },
    {
      "id": "pt.ine.add.PTCONT.5147071",
      "street": "AV COMBATENTES DA GRANDE GUERRA",
      "house": "49",
      "postcode": "4900-563",
      "city": "VIANA DO CASTELO",
      "lon": "-8.828725629791679",
      "lat": "41.69163290306516"
    },
    {
      "id": "pt.ine.add.PTCONT.5147072",
      "street": "AV COMBATENTES DA GRANDE GUERRA",
      "house": "49",
      "postcode": "4900-563",
      "city": "VIANA DO CASTELO",
      "lon": "-8.828725629791679",
      "lat": "41.69163290306516"
    },
    {
      "id": "pt.ine.add.PTCONT.5148152",
      "street": "R FLORES",
      "house": "24",
      "postcode": "4900-553",
      "city": "VIANA DO CASTELO",
      "lon": "-8.82897689442648",
      "lat": "41.69154134717933"
    },
    {
      "id": "pt.ine.add.PTCONT.5158630",
      "street": "R FLORES",
      "house": "12",
      "postcode": "4900-553",
      "city": "VIANA DO CASTELO",
      "lon": "-8.828797114883537",
      "lat": "41.69157844951447"
    },
    {
      "id": "pt.ine.add.PTCONT.5169853",
      "street": "R MANJOVOS",
      "house": "57",
      "postcode": "4900-326",
      "city": "VIANA DO CASTELO",
      "lon": "-8.829777077082642",
      "lat": "41.69111333598363"
    },
    {
      "id": "pt.ine.add.PTCONT.5169860",
      "street": "R MANJOVOS",
      "house": "57",
      "postcode": "4900-326",
      "city": "VIANA DO CASTELO",
      "lon": "-8.829777077082642",
      "lat": "41.69111333598363"
    },
    {
      "id": "pt.ine.add.PTCONT.5169861",
      "street": "R MANJOVOS",
      "house": "57",
      "postcode": "4900-326",
      "city": "VIANA DO CASTELO",
      "lon": "-8.829777077082642",
      "lat": "41.69111333598363"
    },
    {
      "id": "pt.ine.add.PTCONT.5169862",
      "street": "R MANJOVOS",
      "house": "57",
      "postcode": "4900-326",
      "city": "VIANA DO CASTELO",
      "lon": "-8.829777077082642",
      "lat": "41.69111333598363"
    },
    {
      "id": "pt.ine.add.PTCONT.5169863",
      "street": "R MANJOVOS",
      "house": "57",
      "postcode": "4900-326",
      "city": "VIANA DO CASTELO",
      "lon": "-8.829777077082642",
      "lat": "41.69111333598363"
    },
    {
      "id": "pt.ine.add.PTCONT.5169864",
      "street": "R MANJOVOS",
      "house": "57",
      "postcode": "4900-326",
      "city": "VIANA DO CASTELO",
      "lon": "-8.829777077082642",
      "lat": "41.69111333598363"
    },
    {
      "id": "pt.ine.add.PTCONT.5169865",
      "street": "R MANJOVOS",
      "house": "57",
      "postcode": "4900-326",
      "city": "VIANA DO CASTELO",
      "lon": "-8.829777077082642",
      "lat": "41.69111333598363"
    },
    {
      "id": "pt.ine.add.PTCONT.5169866",
      "street": "R MANJOVOS",
      "house": "57",
      "postcode": "4900-326",
      "city": "VIANA DO CASTELO",
      "lon": "-8.829777077082642",
      "lat": "41.69111333598363"
    },
    {
      "id": "pt.ine.add.PTCONT.5169867",
      "street": "R MANJOVOS",
      "house": "57",
      "postcode": "4900-326",
      "city": "VIANA DO CASTELO",
      "lon": "-8.829777077082642",
      "lat": "41.69111333598363"
    },
    {
      "id": "pt.ine.add.PTCONT.5170075",
      "street": "R MANJOVOS",
      "house": "57",
      "postcode": "4900-326",
      "city": "VIANA DO CASTELO",
      "lon": "-8.829777077082642",
      "lat": "41.69111333598363"
    },
    {
      "id": "pt.ine.add.PTCONT.5187924",
      "street": "R MANJOVOS",
      "house": "35",
      "postcode": "4900-326",
      "city": "VIANA DO CASTELO",
      "lon": "-8.82935833934676",
      "lat": "41.69126893267675"
    },
    {
      "id": "pt.ine.add.PTCONT.5219330",
      "street": "AL JOÃO ALVES CERQUEIRA",
      "house": "10",
      "postcode": "4900-050",
      "city": "VIANA DO CASTELO",
      "lon": "-8.829440281096351",
      "lat": "41.6910703598059"
    },
    {
      "id": "pt.ine.add.PTCONT.5219331",
      "street": "AL JOÃO ALVES CERQUEIRA",
      "house": "10",
      "postcode": "4900-050",
      "city": "VIANA DO CASTELO",
      "lon": "-8.829440281096351",
      "lat": "41.6910703598059"
    },
    {
      "id": "pt.ine.add.PTCONT.5219332",
      "street": "AL JOÃO ALVES CERQUEIRA",
      "house": "10",
      "postcode": "4900-050",
      "city": "VIANA DO CASTELO",
      "lon": "-8.829440281096351",
      "lat": "41.6910703598059"
    },
    {
      "id": "pt.ine.add.PTCONT.5219333",
      "street": "AL JOÃO ALVES CERQUEIRA",
      "house": "10",
      "postcode": "4900-050",
      "city": "VIANA DO CASTELO",
      "lon": "-8.829440281096351",
      "lat": "41.6910703598059"
    },
    {
      "id": "pt.ine.add.PTCONT.5233552",
      "street": "TV SALGUEIRO",
      "house": "",
      "postcode": "4900-323",
      "city": "VIANA DO CASTELO",
      "lon": "-8.829201224178496",
      "lat": "41.69117984971204"
    },
    {
      "id": "pt.ine.add.PTCONT.5247694",
      "street": "R ALVES CERQUEIRA",
      "house": "32",
      "postcode": "4900-321",
      "city": "VIANA DO CASTELO",
      "lon": "-8.828746548196095",
      "lat": "41.69134466532434"
    },
    {
      "id": "pt.ine.add.PTCONT.5247695",
      "street": "R ALVES CERQUEIRA",
      "house": "32",
      "postcode": "4900-321",
      "city": "VIANA DO CASTELO",
      "lon": "-8.828746548196095",
      "lat": "41.69134466532434"
    },
    {
      "id": "pt.ine.add.PTCONT.5247719",
      "street": "R ALVES CERQUEIRA",
      "house": "32",
      "postcode": "4900-321",
      "city": "VIANA DO CASTELO",
      "lon": "-8.828746548196095",
      "lat": "41.69134466532434"
    },
    {
      "id": "pt.ine.add.PTCONT.5247720",
      "street": "R ALVES CERQUEIRA",
      "house": "32",
      "postcode": "4900-321",
      "city": "VIANA DO CASTELO",
      "lon": "-8.828746548196095",
      "lat": "41.69134466532434"
    },
    {
      "id": "pt.ine.add.PTCONT.5247721",
      "street": "R ALVES CERQUEIRA",
      "house": "32",
      "postcode": "4900-321",
      "city": "VIANA DO CASTELO",
      "lon": "-8.828746548196095",
      "lat": "41.69134466532434"
    },
    {
      "id": "pt.ine.add.PTCONT.5251213",
      "street": "AL JOAO ALVES CERQUEIRA",
      "house": "17",
      "postcode": "4900-050",
      "city": "VIANA DO CASTELO",
      "lon": "-8.829584025620877",
      "lat": "41.69103347485598"
    },
    {
      "id": "pt.ine.add.PTCONT.5251214",
      "street": "AL JOAO ALVES CERQUEIRA",
      "house": "565",
      "postcode": "4900-050",
      "city": "VIANA DO CASTELO",
      "lon": "-8.829584025620877",
      "lat": "41.69103347485598"
    },
    {
      "id": "pt.ine.add.PTCONT.5252637",
      "street": "R MANJOVOS",
      "house": "51",
      "postcode": "4900-326",
      "city": "VIANA DO CASTELO",
      "lon": "-8.829621418517851",
      "lat": "41.69115929685573"
    },
    {
      "id": "pt.ine.add.PTCONT.5252638",
      "street": "R MANJOVOS",
      "house": "51",
      "postcode": "4900-326",
      "city": "VIANA DO CASTELO",
      "lon": "-8.829621418517851",
      "lat": "41.69115929685573"
    },
    {
      "id": "pt.ine.add.PTCONT.5252639",
      "street": "R MANJOVOS",
      "house": "51",
      "postcode": "4900-326",
      "city": "VIANA DO CASTELO",
      "lon": "-8.829621418517851",
      "lat": "41.69115929685573"
    },
    {
      "id": "pt.ine.add.PTCONT.5267514",
      "street": "R MANJOVOS",
      "house": "45",
      "postcode": "4900-326",
      "city": "VIANA DO CASTELO",
      "lon": "-8.82950159884362",
      "lat": "41.69118703340492"
    },
    {
      "id": "pt.ine.add.PTCONT.5267515",
      "street": "R MANJOVOS",
      "house": "45",
      "postcode": "4900-326",
      "city": "VIANA DO CASTELO",
      "lon": "-8.82950159884362",
      "lat": "41.69118703340492"
    },
    {
      "id": "pt.ine.add.PTCONT.5267516",
      "street": "R MANJOVOS",
      "house": "45",
      "postcode": "4900-326",
      "city": "VIANA DO CASTELO",
      "lon": "-8.82950159884362",
      "lat": "41.69118703340492"
    },
    {
      "id": "pt.ine.add.PTCONT.5267517",
      "street": "R MANJOVOS",
      "house": "45",
      "postcode": "4900-326",
      "city": "VIANA DO CASTELO",
      "lon": "-8.82950159884362",
      "lat": "41.69118703340492"
    },
    {
      "id": "pt.ine.add.PTCONT.5278913",
      "street": "R MANJOVOS",
      "house": "1113",
      "postcode": "4900-326",
      "city": "VIANA DO CASTELO",
      "lon": "-8.82888158120229",
      "lat": "41.691613952051455"
    },
    {
      "id": "pt.ine.add.PTCONT.5283352",
      "street": "R MANJOVOS",
      "house": "51",
      "postcode": "4900-326",
      "city": "VIANA DO CASTELO",
      "lon": "-8.829621418517851",
      "lat": "41.69115929685573"
    }
  ]
}