{
  "data": {
    "distrito": "Vila Real",
    "concelho": "Vila Real",
    "freguesia": "União das freguesias de São Tomé do Castelo e Justes",
    "OBJECTID": 522,
    "BGRI2021": "17143700208",
    "DT21": "17",
    "DTMN21": "1714",
    "DTMNFR21": "171437",
    "DTMNFRSEC21": "171437002",
    "SECNUM21": "002",
    "SSNUM21": "08",
    "SECSSNUM21": "00208",
    "OBJECTID_1": 187474,
    "DT": "17",
    "CC": "14",
    "fr": "37",
    "SEC": "002",
    "SS": "08"
  },
  "addresses": [
    {
      "id": "pt.ine.add.PTCONT.5313746",
      "street": "BR PONTE",
      "house": "",
      "postcode": "5000-731",
      "city": "SÃO TOMÉ DO CASTELO",
      "lon": "-7.698544851590731",
      "lat": "41.35185318225794"
    },
    {
      "id": "pt.ine.add.PTCONT.5328376",
      "street": "R MEAL",
      "house": "",
      "postcode": "5000-731",
      "city": "SÃO TOMÉ DO CASTELO",
      "lon": "-7.693713519592515",
      "lat": "41.354193898621745"
    },
    {
      "id": "pt.ine.add.PTCONT.5330305",
      "street": "R NOGUEIRA",
      "house": "",
      "postcode": "5000-731",
      "city": "SÃO TOMÉ DO CASTELO",
      "lon": "-7.693599312152064",
      "lat": "41.355183907510295"
    },
    {
      "id": "pt.ine.add.PTCONT.5336447",
      "street": "R LAGE DO VISO",
      "house": "",
      "postcode": "5000-731",
      "city": "SÃO TOMÉ DO CASTELO",
      "lon": "-7.6994337385671985",
      "lat": "41.35475583877648"
    },
    {
      "id": "pt.ine.add.PTCONT.5347319",
      "street": "BR PONTE",
      "house": "",
      "postcode": "5000-731",
      "city": "SÃO TOMÉ DO CASTELO",
      "lon": "-7.699788158724239",
      "lat": "41.35356863956172"
    },
    {
      "id": "pt.ine.add.PTCONT.5352837",
      "street": "R LAGE DO VISO",
      "house": "",
      "postcode": "5000-731",
      "city": "SÃO TOMÉ DO CASTELO",
      "lon": "-7.699810863338825",
      "lat": "41.3537488060034"
    },
    {
      "id": "pt.ine.add.PTCONT.5405401",
      "street": "R FERREIROS",
      "house": "",
      "postcode": "5000-731",
      "city": "SÃO TOMÉ DO CASTELO",
      "lon": "-7.698707267751549",
      "lat": "41.35438393305759"
    },
    {
      "id": "pt.ine.add.PTCONT.5408097",
      "street": "R LAGE DO VISO",
      "house": "",
      "postcode": "5000-731",
      "city": "SÃO TOMÉ DO CASTELO",
      "lon": "-7.699390422708289",
      "lat": "41.35408037204624"
    },
    {
      "id": "pt.ine.add.PTCONT.5410458",
      "street": "FORTUNHO",
      "house": "",
      "postcode": "5000-731",
      "city": "SÃO TOMÉ DO CASTELO",
      "lon": "-7.698523713085371",
      "lat": "41.355031531387425"
    },
    {
      "id": "pt.ine.add.PTCONT.5415163",
      "street": "BR PONTE",
      "house": "",
      "postcode": "5000-731",
      "city": "SÃO TOMÉ DO CASTELO",
      "lon": "-7.699026509046272",
      "lat": "41.35309755880079"
    },
    {
      "id": "pt.ine.add.PTCONT.5416338",
      "street": "R FERREIROS",
      "house": "",
      "postcode": "5000-731",
      "city": "SÃO TOMÉ DO CASTELO",
      "lon": "-7.699039701090441",
      "lat": "41.354709333037285"
    },
    {
      "id": "pt.ine.add.PTCONT.5419294",
      "street": "R FERREIROS",
      "house": "",
      "postcode": "5000-731",
      "city": "SÃO TOMÉ DO CASTELO",
      "lon": "-7.698523892747002",
      "lat": "41.3550045199292"
    }
  ]
}