{
  "data": {
    "distrito": "Évora",
    "concelho": "Reguengos de Monsaraz",
    "freguesia": "Reguengos de Monsaraz",
    "OBJECTID": 236,
    "BGRI2021": "07110400108",
    "DT21": "07",
    "DTMN21": "0711",
    "DTMNFR21": "071104",
    "DTMNFRSEC21": "071104001",
    "SECNUM21": "001",
    "SSNUM21": "08",
    "SECSSNUM21": "00108",
    "OBJECTID_1": 63456,
    "DT": "07",
    "CC": "11",
    "fr": "04",
    "SEC": "001",
    "SS": "08"
  },
  "addresses": [
    {
      "id": "pt.ine.add.PTCONT.1372007",
      "street": "MONTEVERDE",
      "house": "",
      "postcode": "7200-399",
      "city": "REGUENGOS DE MONSARAZ",
      "lon": "-7.534651819726435",
      "lat": "38.412959374562654"
    },
    {
      "id": "pt.ine.add.PTCONT.1375875",
      "street": "",
      "house": "",
      "postcode": "7200-399",
      "city": "REGUENGOS DE MONSARAZ",
      "lon": "-7.538216484551752",
      "lat": "38.39852779445813"
    },
    {
      "id": "pt.ine.add.PTCONT.1383301",
      "street": "",
      "house": "",
      "postcode": "7200-399",
      "city": "REGUENGOS DE MONSARAZ",
      "lon": "-7.535705213194158",
      "lat": "38.40878478160193"
    },
    {
      "id": "pt.ine.add.PTCONT.1386261",
      "street": "MTE DA PEDRA DO SINO VARIANTE DO GRANDE LAGO",
      "house": "",
      "postcode": "7200-399",
      "city": "REGUENGOS DE MONSARAZ",
      "lon": "-7.540054548155668",
      "lat": "38.41734697377621"
    },
    {
      "id": "pt.ine.add.PTCONT.1391584",
      "street": "TAPADA DO ALBORRO",
      "house": "APART 28",
      "postcode": "7200-203",
      "city": "REGUENGOS DE MONSARAZ",
      "lon": "-7.546494261242677",
      "lat": "38.41536147000758"
    },
    {
      "id": "pt.ine.add.PTCONT.1398299",
      "street": "",
      "house": "",
      "postcode": "7200-377",
      "city": "REGUENGOS DE MONSARAZ",
      "lon": "-7.543164364023898",
      "lat": "38.412290857558844"
    },
    {
      "id": "pt.ine.add.PTCONT.1398395",
      "street": "URB CABEÇA AGUDA",
      "house": "3",
      "postcode": "7200-999",
      "city": "REGUENGOS DE MONSARAZ",
      "lon": "-7.5337430394552705",
      "lat": "38.41070259359927"
    },
    {
      "id": "pt.ine.add.PTCONT.1406576",
      "street": "",
      "house": "",
      "postcode": "7200-399",
      "city": "REGUENGOS DE MONSARAZ",
      "lon": "-7.532744962979402",
      "lat": "38.408175090942"
    },
    {
      "id": "pt.ine.add.PTCONT.1413481",
      "street": "SOLAR DA LAMEIRA",
      "house": "",
      "postcode": "7200-399",
      "city": "REGUENGOS DE MONSARAZ",
      "lon": "-7.530251154465806",
      "lat": "38.40517145016843"
    },
    {
      "id": "pt.ine.add.PTCONT.1418899",
      "street": "MTE DO VALE CASTELO",
      "house": "",
      "postcode": "7200-399",
      "city": "REGUENGOS DE MONSARAZ",
      "lon": "-7.554254158032434",
      "lat": "38.407157225116826"
    },
    {
      "id": "pt.ine.add.PTCONT.1421924",
      "street": "QTA LAMEIRA",
      "house": "AP 98",
      "postcode": "7200-399",
      "city": "REGUENGOS DE MONSARAZ",
      "lon": "-7.535138609452671",
      "lat": "38.41085385898001"
    },
    {
      "id": "pt.ine.add.PTCONT.1425368",
      "street": "ESTR ESPORÃO HERDADE DA LAMEIRA",
      "house": "",
      "postcode": "7200-399",
      "city": "REGUENGOS DE MONSARAZ",
      "lon": "-7.542537586943815",
      "lat": "38.402081004554596"
    },
    {
      "id": "pt.ine.add.PTCONT.1428245",
      "street": "",
      "house": "",
      "postcode": "7200-399",
      "city": "REGUENGOS DE MONSARAZ",
      "lon": "-7.535416804253816",
      "lat": "38.415999157745475"
    },
    {
      "id": "pt.ine.add.PTCONT.1428246",
      "street": "MTE NOVO",
      "house": "",
      "postcode": "7200-399",
      "city": "REGUENGOS DE MONSARAZ",
      "lon": "-7.522711946652076",
      "lat": "38.39092592325992"
    },
    {
      "id": "pt.ine.add.PTCONT.1437550",
      "street": "QTA PAIOL B",
      "house": "",
      "postcode": "7200-399",
      "city": "REGUENGOS DE MONSARAZ",
      "lon": "-7.5367979475965745",
      "lat": "38.41513236460703"
    },
    {
      "id": "pt.ine.add.PTCONT.1441240",
      "street": "MTE DO VALE",
      "house": "",
      "postcode": "7200-399",
      "city": "REGUENGOS DE MONSARAZ",
      "lon": "-7.561918896338091",
      "lat": "38.40936589293172"
    },
    {
      "id": "pt.ine.add.PTCONT.1441241",
      "street": "MONTE DO VALE",
      "house": "",
      "postcode": "7200-399",
      "city": "REGUENGOS DE MONSARAZ",
      "lon": "-7.561918896338091",
      "lat": "38.40936589293172"
    },
    {
      "id": "pt.ine.add.PTCONT.1441973",
      "street": "",
      "house": "",
      "postcode": "7200-399",
      "city": "REGUENGOS DE MONSARAZ",
      "lon": "-7.535506026989825",
      "lat": "38.41628788607681"
    },
    {
      "id": "pt.ine.add.PTCONT.1455486",
      "street": "ER 255",
      "house": "",
      "postcode": "7200-208",
      "city": "REGUENGOS DE MONSARAZ",
      "lon": "-7.531586258450406",
      "lat": "38.40707911494306"
    },
    {
      "id": "pt.ine.add.PTCONT.1458816",
      "street": "EN 255",
      "house": "AP.104",
      "postcode": "7200-000",
      "city": "",
      "lon": "-7.537165738805036",
      "lat": "38.41496307304135"
    },
    {
      "id": "pt.ine.add.PTCONT.1458831",
      "street": "EN 255",
      "house": "AP.104",
      "postcode": "7200-000",
      "city": "",
      "lon": "-7.537165738805036",
      "lat": "38.41496307304135"
    },
    {
      "id": "pt.ine.add.PTCONT.1459018",
      "street": "EN 255",
      "house": "AP.104",
      "postcode": "7200-000",
      "city": "",
      "lon": "-7.537165738805036",
      "lat": "38.41496307304135"
    }
  ]
}