{
  "data": {
    "distrito": "Évora",
    "concelho": "Reguengos de Monsaraz",
    "freguesia": "Reguengos de Monsaraz",
    "OBJECTID": 204,
    "BGRI2021": "07110400129",
    "DT21": "07",
    "DTMN21": "0711",
    "DTMNFR21": "071104",
    "DTMNFRSEC21": "071104001",
    "SECNUM21": "001",
    "SSNUM21": "29",
    "SECSSNUM21": "00129",
    "OBJECTID_1": 63157,
    "DT": "07",
    "CC": "11",
    "fr": "04",
    "SEC": "001",
    "SS": "29"
  },
  "addresses": [
    {
      "id": "pt.ine.add.PTCONT.1372358",
      "street": "R MOURAO",
      "house": "111",
      "postcode": "7200-293",
      "city": "REGUENGOS DE MONSARAZ",
      "lon": "-7.535685809112315",
      "lat": "38.42246246206212"
    },
    {
      "id": "pt.ine.add.PTCONT.1390968",
      "street": "R DR MANUEL CAETANO FRAZAO",
      "house": "18",
      "postcode": "7200-381",
      "city": "REGUENGOS DE MONSARAZ",
      "lon": "-7.535215446585831",
      "lat": "38.42265108108451"
    },
    {
      "id": "pt.ine.add.PTCONT.1394807",
      "street": "R DR MANUEL CAETANO FRAZAO",
      "house": "24",
      "postcode": "7200-381",
      "city": "REGUENGOS DE MONSARAZ",
      "lon": "-7.53509201823493",
      "lat": "38.42251072446838"
    },
    {
      "id": "pt.ine.add.PTCONT.1405853",
      "street": "R DR MANUEL CAETANO FRAZAO",
      "house": "26",
      "postcode": "7200-381",
      "city": "REGUENGOS DE MONSARAZ",
      "lon": "-7.535046865377372",
      "lat": "38.42245861301094"
    },
    {
      "id": "pt.ine.add.PTCONT.1419472",
      "street": "CPO 25 DE ABRIL",
      "house": "23",
      "postcode": "7200-368",
      "city": "REGUENGOS DE MONSARAZ",
      "lon": "-7.5358987950149166",
      "lat": "38.42233718675964"
    },
    {
      "id": "pt.ine.add.PTCONT.1434451",
      "street": "R 1 DE DEZEMBRO",
      "house": "58",
      "postcode": "7200-392",
      "city": "REGUENGOS DE MONSARAZ",
      "lon": "-7.535549686772693",
      "lat": "38.42210762371964"
    },
    {
      "id": "pt.ine.add.PTCONT.1435364",
      "street": "CPO 25 DE ABRIL",
      "house": "25",
      "postcode": "7200-368",
      "city": "REGUENGOS DE MONSARAZ",
      "lon": "-7.535847100282147",
      "lat": "38.422273595127386"
    },
    {
      "id": "pt.ine.add.PTCONT.1437018",
      "street": "R 1 DE DEZEMBRO",
      "house": "56",
      "postcode": "7200-392",
      "city": "REGUENGOS DE MONSARAZ",
      "lon": "-7.535460277327529",
      "lat": "38.42213225294563"
    },
    {
      "id": "pt.ine.add.PTCONT.1437678",
      "street": "CPO 25 DE ABRIL",
      "house": "28",
      "postcode": "7200-368",
      "city": "REGUENGOS DE MONSARAZ",
      "lon": "-7.535682328864768",
      "lat": "38.42207769079568"
    },
    {
      "id": "pt.ine.add.PTCONT.1437679",
      "street": "CPO 25 DE ABRIL",
      "house": "28",
      "postcode": "7200-368",
      "city": "REGUENGOS DE MONSARAZ",
      "lon": "-7.535682328864768",
      "lat": "38.42207769079568"
    },
    {
      "id": "pt.ine.add.PTCONT.1437680",
      "street": "CPO 25 DE ABRIL",
      "house": "28",
      "postcode": "7200-368",
      "city": "REGUENGOS DE MONSARAZ",
      "lon": "-7.535682328864768",
      "lat": "38.42207769079568"
    },
    {
      "id": "pt.ine.add.PTCONT.1437681",
      "street": "CPO 25 DE ABRIL",
      "house": "28",
      "postcode": "7200-368",
      "city": "REGUENGOS DE MONSARAZ",
      "lon": "-7.535682328864768",
      "lat": "38.42207769079568"
    },
    {
      "id": "pt.ine.add.PTCONT.1437682",
      "street": "CPO 25 DE ABRIL",
      "house": "28",
      "postcode": "7200-368",
      "city": "REGUENGOS DE MONSARAZ",
      "lon": "-7.535682328864768",
      "lat": "38.42207769079568"
    },
    {
      "id": "pt.ine.add.PTCONT.1437689",
      "street": "CPO 25 DE ABRIL",
      "house": "28",
      "postcode": "7200-368",
      "city": "REGUENGOS DE MONSARAZ",
      "lon": "-7.535682328864768",
      "lat": "38.42207769079568"
    },
    {
      "id": "pt.ine.add.PTCONT.1459031",
      "street": "R DR MANUEL CAETANO FRAZÃO",
      "house": "28",
      "postcode": "7200-381",
      "city": "REGUENGOS DE MONSARAZ",
      "lon": "-7.534991981527002",
      "lat": "38.42233150178477"
    },
    {
      "id": "pt.ine.add.PTCONT.1459032",
      "street": "R DR MANUEL CAETANO FRAZÃO",
      "house": "28",
      "postcode": "7200-381",
      "city": "REGUENGOS DE MONSARAZ",
      "lon": "-7.534991981527002",
      "lat": "38.42233150178477"
    },
    {
      "id": "pt.ine.add.PTCONT.1464849",
      "street": "R 1 DEZEMBRO",
      "house": "48 A",
      "postcode": "7200-392",
      "city": "REGUENGOS DE MONSARAZ",
      "lon": "-7.535229652628962",
      "lat": "38.4222470263066"
    }
  ]
}