{
  "data": {
    "distrito": "Évora",
    "concelho": "Reguengos de Monsaraz",
    "freguesia": "Reguengos de Monsaraz",
    "OBJECTID": 211,
    "BGRI2021": "07110400134",
    "DT21": "07",
    "DTMN21": "0711",
    "DTMNFR21": "071104",
    "DTMNFRSEC21": "071104001",
    "SECNUM21": "001",
    "SSNUM21": "34",
    "SECSSNUM21": "00134",
    "OBJECTID_1": 63172,
    "DT": "07",
    "CC": "11",
    "fr": "04",
    "SEC": "001",
    "SS": "34"
  },
  "addresses": [
    {
      "id": "pt.ine.add.PTCONT.1378112",
      "street": "R MOURAO",
      "house": "88",
      "postcode": "7200-293",
      "city": "REGUENGOS DE MONSARAZ",
      "lon": "-7.535543660257746",
      "lat": "38.422634906530305"
    },
    {
      "id": "pt.ine.add.PTCONT.1387141",
      "street": "R MOURAO",
      "house": "94",
      "postcode": "7200-293",
      "city": "REGUENGOS DE MONSARAZ",
      "lon": "-7.535811615849301",
      "lat": "38.42251855085673"
    },
    {
      "id": "pt.ine.add.PTCONT.1387144",
      "street": "R MOURAO",
      "house": "94",
      "postcode": "7200-293",
      "city": "REGUENGOS DE MONSARAZ",
      "lon": "-7.535811615849301",
      "lat": "38.42251855085673"
    },
    {
      "id": "pt.ine.add.PTCONT.1404096",
      "street": "R ANTÓNIO GIAO",
      "house": "39",
      "postcode": "7200-371",
      "city": "REGUENGOS DE MONSARAZ",
      "lon": "-7.53607119126534",
      "lat": "38.422762542708256"
    },
    {
      "id": "pt.ine.add.PTCONT.1404567",
      "street": "R MOURAO",
      "house": "90",
      "postcode": "7200-293",
      "city": "REGUENGOS DE MONSARAZ",
      "lon": "-7.535742144721908",
      "lat": "38.422546107891215"
    },
    {
      "id": "pt.ine.add.PTCONT.1409393",
      "street": "R MOURAO",
      "house": "96",
      "postcode": "7200-293",
      "city": "REGUENGOS DE MONSARAZ",
      "lon": "-7.535897511565608",
      "lat": "38.42247942494612"
    },
    {
      "id": "pt.ine.add.PTCONT.1417129",
      "street": "R ANTONIO GIAO",
      "house": "25A",
      "postcode": "7200-371",
      "city": "REGUENGOS DE MONSARAZ",
      "lon": "-7.535565017919798",
      "lat": "38.423026572162165"
    },
    {
      "id": "pt.ine.add.PTCONT.1417169",
      "street": "R ANTONIO GIAO",
      "house": "25",
      "postcode": "7200-371",
      "city": "REGUENGOS DE MONSARAZ",
      "lon": "-7.535565017919798",
      "lat": "38.423026572162165"
    },
    {
      "id": "pt.ine.add.PTCONT.1417170",
      "street": "R ANTONIO GIAO",
      "house": "25",
      "postcode": "7200-371",
      "city": "REGUENGOS DE MONSARAZ",
      "lon": "-7.535565017919798",
      "lat": "38.423026572162165"
    },
    {
      "id": "pt.ine.add.PTCONT.1417171",
      "street": "R ANTONIO GIAO",
      "house": "25",
      "postcode": "7200-371",
      "city": "REGUENGOS DE MONSARAZ",
      "lon": "-7.535565017919798",
      "lat": "38.423026572162165"
    },
    {
      "id": "pt.ine.add.PTCONT.1417192",
      "street": "R ANTONIO GIAO",
      "house": "25",
      "postcode": "7200-371",
      "city": "REGUENGOS DE MONSARAZ",
      "lon": "-7.535565017919798",
      "lat": "38.423026572162165"
    },
    {
      "id": "pt.ine.add.PTCONT.1418075",
      "street": "R DR MANUEL CAETANO FRAZAO",
      "house": "12",
      "postcode": "7200-381",
      "city": "REGUENGOS DE MONSARAZ",
      "lon": "-7.535360462979261",
      "lat": "38.422836349814176"
    },
    {
      "id": "pt.ine.add.PTCONT.1418076",
      "street": "R DR MANUEL CAETANO FRAZAO",
      "house": "12",
      "postcode": "7200-381",
      "city": "REGUENGOS DE MONSARAZ",
      "lon": "-7.535360462979261",
      "lat": "38.422836349814176"
    },
    {
      "id": "pt.ine.add.PTCONT.1418077",
      "street": "R DR MANUEL CAETANO FRAZAO",
      "house": "12",
      "postcode": "7200-381",
      "city": "REGUENGOS DE MONSARAZ",
      "lon": "-7.535360462979261",
      "lat": "38.422836349814176"
    },
    {
      "id": "pt.ine.add.PTCONT.1418078",
      "street": "R DR MANUEL CAETANO FRAZAO",
      "house": "12",
      "postcode": "7200-381",
      "city": "REGUENGOS DE MONSARAZ",
      "lon": "-7.535360462979261",
      "lat": "38.422836349814176"
    },
    {
      "id": "pt.ine.add.PTCONT.1418079",
      "street": "R DR MANUEL CAETANO FRAZAO",
      "house": "12",
      "postcode": "7200-381",
      "city": "REGUENGOS DE MONSARAZ",
      "lon": "-7.535360462979261",
      "lat": "38.422836349814176"
    },
    {
      "id": "pt.ine.add.PTCONT.1418080",
      "street": "R DR MANUEL CAETANO FRAZAO",
      "house": "12",
      "postcode": "7200-381",
      "city": "REGUENGOS DE MONSARAZ",
      "lon": "-7.535360462979261",
      "lat": "38.422836349814176"
    },
    {
      "id": "pt.ine.add.PTCONT.1425409",
      "street": "CPO 25 DE ABRIL",
      "house": "22",
      "postcode": "7200-368",
      "city": "REGUENGOS DE MONSARAZ",
      "lon": "-7.536004597455237",
      "lat": "38.42248830080331"
    },
    {
      "id": "pt.ine.add.PTCONT.1440534",
      "street": "R DR MANUEL CAETANO FRAZAO",
      "house": "10",
      "postcode": "7200-381",
      "city": "REGUENGOS DE MONSARAZ",
      "lon": "-7.535413087268628",
      "lat": "38.422902612020394"
    },
    {
      "id": "pt.ine.add.PTCONT.1445576",
      "street": "R ANTÓNIO GIAO",
      "house": "31",
      "postcode": "7200-371",
      "city": "REGUENGOS DE MONSARAZ",
      "lon": "-7.535808777109283",
      "lat": "38.42289633620047"
    },
    {
      "id": "pt.ine.add.PTCONT.1453461",
      "street": "R DR MANUEL CAETANO FRAZAO",
      "house": "16",
      "postcode": "7200-381",
      "city": "REGUENGOS DE MONSARAZ",
      "lon": "-7.535293255516393",
      "lat": "38.422755795027136"
    }
  ]
}