{
  "data": {
    "distrito": "Vila Real",
    "concelho": "Vila Real",
    "freguesia": "Parada de Cunhos",
    "OBJECTID": 1102,
    "BGRI2021": "17142000119",
    "DT21": "17",
    "DTMN21": "1714",
    "DTMNFR21": "171420",
    "DTMNFRSEC21": "171420001",
    "SECNUM21": "001",
    "SSNUM21": "19",
    "SECSSNUM21": "00119",
    "OBJECTID_1": 187256,
    "DT": "17",
    "CC": "14",
    "fr": "20",
    "SEC": "001",
    "SS": "19"
  },
  "addresses": [
    {
      "id": "pt.ine.add.PTCONT.5300065",
      "street": "R POVO DE ALEM",
      "house": "",
      "postcode": "5000-471",
      "city": "VILA REAL",
      "lon": "-7.763640514493898",
      "lat": "41.28497292326718"
    },
    {
      "id": "pt.ine.add.PTCONT.5302182",
      "street": "TV CABEÇOS",
      "house": "1",
      "postcode": "5000-471",
      "city": "VILA REAL",
      "lon": "-7.764390362724141",
      "lat": "41.285362506409975"
    },
    {
      "id": "pt.ine.add.PTCONT.5302183",
      "street": "TV CABEÇOS",
      "house": "1",
      "postcode": "5000-471",
      "city": "VILA REAL",
      "lon": "-7.764390362724141",
      "lat": "41.285362506409975"
    },
    {
      "id": "pt.ine.add.PTCONT.5302187",
      "street": "TV CABEÇOS",
      "house": "1",
      "postcode": "5000-471",
      "city": "VILA REAL",
      "lon": "-7.764390362724141",
      "lat": "41.285362506409975"
    },
    {
      "id": "pt.ine.add.PTCONT.5308554",
      "street": "TV CABEÇOS",
      "house": "1",
      "postcode": "5000-471",
      "city": "VILA REAL",
      "lon": "-7.764295069368384",
      "lat": "41.285326184505294"
    },
    {
      "id": "pt.ine.add.PTCONT.5309973",
      "street": "R IGREJA",
      "house": "8",
      "postcode": "5000-471",
      "city": "VILA REAL",
      "lon": "-7.762698106745991",
      "lat": "41.28486184491816"
    },
    {
      "id": "pt.ine.add.PTCONT.5310668",
      "street": "R PORFIRIO AUGUSTO CATALAO",
      "house": "",
      "postcode": "5000-471",
      "city": "VILA REAL",
      "lon": "-7.763998876622657",
      "lat": "41.28492905199846"
    },
    {
      "id": "pt.ine.add.PTCONT.5312346",
      "street": "TV CABEÇOS",
      "house": "",
      "postcode": "5000-471",
      "city": "VILA REAL",
      "lon": "-7.7644737191599305",
      "lat": "41.28539879001275"
    },
    {
      "id": "pt.ine.add.PTCONT.5313779",
      "street": "R IGREJA",
      "house": "",
      "postcode": "5000-471",
      "city": "VILA REAL",
      "lon": "-7.7628170687901505",
      "lat": "41.284934260936225"
    },
    {
      "id": "pt.ine.add.PTCONT.5329443",
      "street": "R POVO DE ALEA",
      "house": "",
      "postcode": "5000-471",
      "city": "VILA REAL",
      "lon": "-7.763460494825711",
      "lat": "41.28514342449838"
    },
    {
      "id": "pt.ine.add.PTCONT.5347387",
      "street": "R IGREJA",
      "house": "10",
      "postcode": "5000-471",
      "city": "VILA REAL",
      "lon": "-7.76277008465954",
      "lat": "41.28479904733651"
    },
    {
      "id": "pt.ine.add.PTCONT.5354887",
      "street": "R PORFIRIO AUGUSTO CATALAO",
      "house": "",
      "postcode": "5000-471",
      "city": "VILA REAL",
      "lon": "-7.762841400756177",
      "lat": "41.28485330171868"
    },
    {
      "id": "pt.ine.add.PTCONT.5358435",
      "street": "TV POVO DE ALEA",
      "house": "",
      "postcode": "5000-471",
      "city": "VILA REAL",
      "lon": "-7.7636868911524175",
      "lat": "41.28521618452825"
    },
    {
      "id": "pt.ine.add.PTCONT.5370046",
      "street": "TV POVO DE ALEA",
      "house": "",
      "postcode": "5000-471",
      "city": "VILA REAL",
      "lon": "-7.763638127390904",
      "lat": "41.285396111312934"
    },
    {
      "id": "pt.ine.add.PTCONT.5370826",
      "street": "TV POVO DE ALEM",
      "house": "4",
      "postcode": "5000-471",
      "city": "VILA REAL",
      "lon": "-7.764104482975219",
      "lat": "41.28525354046"
    },
    {
      "id": "pt.ine.add.PTCONT.5384380",
      "street": "R POVO DE ALEM",
      "house": "",
      "postcode": "5000-471",
      "city": "VILA REAL",
      "lon": "-7.7635317610659955",
      "lat": "41.28520668245436"
    },
    {
      "id": "pt.ine.add.PTCONT.5392604",
      "street": "R CARVALHEIRA",
      "house": "4",
      "postcode": "5000-471",
      "city": "VILA REAL",
      "lon": "-7.763852333947459",
      "lat": "41.28551385271066"
    },
    {
      "id": "pt.ine.add.PTCONT.5404383",
      "street": "R PORFIRIO AUGUSTO CATALAO",
      "house": "28",
      "postcode": "5000-471",
      "city": "VILA REAL",
      "lon": "-7.764236246333896",
      "lat": "41.28517292525328"
    },
    {
      "id": "pt.ine.add.PTCONT.5407121",
      "street": "R POVO DE ALEM",
      "house": "",
      "postcode": "5000-471",
      "city": "VILA REAL",
      "lon": "-7.76336413493768",
      "lat": "41.285296185840124"
    },
    {
      "id": "pt.ine.add.PTCONT.5414209",
      "street": "R POVO DE ALEM",
      "house": "",
      "postcode": "5000-471",
      "city": "VILA REAL",
      "lon": "-7.763760087058226",
      "lat": "41.28493729029835"
    },
    {
      "id": "pt.ine.add.PTCONT.5424506",
      "street": "R POVO DE ALEM",
      "house": "",
      "postcode": "5000-471",
      "city": "VILA REAL",
      "lon": "-7.763544460092357",
      "lat": "41.28507166076089"
    },
    {
      "id": "pt.ine.add.PTCONT.5426133",
      "street": "TV CABEÇOS",
      "house": "",
      "postcode": "5000-471",
      "city": "VILA REAL",
      "lon": "-7.7644737191599305",
      "lat": "41.28539879001275"
    },
    {
      "id": "pt.ine.add.PTCONT.5426864",
      "street": "TV POVO DO ALEM",
      "house": "",
      "postcode": "5000-471",
      "city": "VILA REAL",
      "lon": "-7.764187788398671",
      "lat": "41.285298828270584"
    }
  ]
}