{
  "data": {
    "distrito": "Braga",
    "concelho": "Barcelos",
    "freguesia": "Aldreu",
    "OBJECTID": 1769,
    "BGRI2021": "03020600109",
    "DT21": "03",
    "DTMN21": "0302",
    "DTMNFR21": "030206",
    "DTMNFRSEC21": "030206001",
    "SECNUM21": "001",
    "SSNUM21": "09",
    "SECSSNUM21": "00109",
    "OBJECTID_1": 20997,
    "DT": "03",
    "CC": "02",
    "fr": "06",
    "SEC": "001",
    "SS": "09"
  },
  "addresses": [
    {
      "id": "pt.ine.add.PTCONT.476278",
      "street": "R CAMPO DA CRUZ",
      "house": "1",
      "postcode": "4905-015",
      "city": "ALDREU",
      "lon": "-8.713829617858044",
      "lat": "41.60326168683341"
    },
    {
      "id": "pt.ine.add.PTCONT.562863",
      "street": "R EIRA DE BAIXO",
      "house": "15",
      "postcode": "4905-016",
      "city": "ALDREU",
      "lon": "-8.712288936039574",
      "lat": "41.60133367740211"
    },
    {
      "id": "pt.ine.add.PTCONT.570229",
      "street": "R S TIAGO",
      "house": "789",
      "postcode": "4905-016",
      "city": "ALDREU",
      "lon": "-8.711656848159885",
      "lat": "41.60040048173499"
    },
    {
      "id": "pt.ine.add.PTCONT.736688",
      "street": "R BARÃO JOSE MONIZ",
      "house": "2",
      "postcode": "4905-030",
      "city": "ALDREU",
      "lon": "-8.711865911968362",
      "lat": "41.59963412016486"
    },
    {
      "id": "pt.ine.add.PTCONT.772794",
      "street": "R S TIAGO",
      "house": "921",
      "postcode": "4905-016",
      "city": "ALDREU",
      "lon": "-8.712036564489296",
      "lat": "41.60128092671803"
    },
    {
      "id": "pt.ine.add.PTCONT.809079",
      "street": "R BARÃO JOSE MONIZ",
      "house": "",
      "postcode": "4905-030",
      "city": "ALDREU",
      "lon": "-8.71230736966925",
      "lat": "41.599370791406976"
    }
  ]
}