{
  "data": {
    "distrito": "Aveiro",
    "concelho": "Santa Maria da Feira",
    "freguesia": "Sanguedo",
    "OBJECTID": 1732,
    "BGRI2021": "01092400226",
    "DT21": "01",
    "DTMN21": "0109",
    "DTMNFR21": "010924",
    "DTMNFRSEC21": "010924002",
    "SECNUM21": "002",
    "SSNUM21": "26",
    "SECSSNUM21": "00226",
    "OBJECTID_1": 5540,
    "DT": "01",
    "CC": "09",
    "fr": "24",
    "SEC": "002",
    "SS": "26"
  },
  "addresses": [
    {
      "id": "pt.ine.add.PTCONT.336502",
      "street": "R BARREIRO",
      "house": "77",
      "postcode": "4505-608",
      "city": "SANGUEDO",
      "lon": "-8.518305637493855",
      "lat": "41.01363758510439"
    },
    {
      "id": "pt.ine.add.PTCONT.348830",
      "street": "R MONCHAL",
      "house": "CASA 3",
      "postcode": "4505-622",
      "city": "SANGUEDO",
      "lon": "-8.518901656641347",
      "lat": "41.013914733929184"
    },
    {
      "id": "pt.ine.add.PTCONT.56249",
      "street": "R MONCHAL",
      "house": "4",
      "postcode": "4505-622",
      "city": "SANGUEDO",
      "lon": "-8.518759527375282",
      "lat": "41.014005255399084"
    },
    {
      "id": "pt.ine.add.PTCONT.96826",
      "street": "R ESTRADA NOVA",
      "house": "135",
      "postcode": "4505-594",
      "city": "SANGUEDO",
      "lon": "-8.516774250970567",
      "lat": "41.01401188055533"
    },
    {
      "id": "pt.ine.add.PTCONT.150262",
      "street": "R BARREIRO",
      "house": "65",
      "postcode": "4505-608",
      "city": "SANGUEDO",
      "lon": "-8.518602780378288",
      "lat": "41.01362758713942"
    },
    {
      "id": "pt.ine.add.PTCONT.154048",
      "street": "R BARREIRO",
      "house": "135",
      "postcode": "4505-608",
      "city": "SANGUEDO",
      "lon": "-8.517794147145803",
      "lat": "41.01358526575939"
    },
    {
      "id": "pt.ine.add.PTCONT.161004",
      "street": "R BOUCA",
      "house": "230",
      "postcode": "4505-590",
      "city": "SANGUEDO",
      "lon": "-8.518690352652717",
      "lat": "41.014374674800756"
    },
    {
      "id": "pt.ine.add.PTCONT.246737",
      "street": "R ESTRADA NOVA",
      "house": "251",
      "postcode": "4505-594",
      "city": "SANGUEDO",
      "lon": "-8.517041534934847",
      "lat": "41.015001494892665"
    },
    {
      "id": "pt.ine.add.PTCONT.269344",
      "street": "R MONCHAL",
      "house": "7",
      "postcode": "4505-622",
      "city": "SANGUEDO",
      "lon": "-8.518687570080205",
      "lat": "41.0138974411051"
    },
    {
      "id": "pt.ine.add.PTCONT.276826",
      "street": "R BARREIRO",
      "house": "27",
      "postcode": "4505-608",
      "city": "SANGUEDO",
      "lon": "-8.519066352515782",
      "lat": "41.01361703125475"
    }
  ]
}