{
  "data": {
    "distrito": "Faro",
    "concelho": "Loulé",
    "freguesia": "Ameixial",
    "OBJECTID": 1601,
    "BGRI2021": "08080300130",
    "DT21": "08",
    "DTMN21": "0808",
    "DTMNFR21": "080803",
    "DTMNFRSEC21": "080803001",
    "SECNUM21": "001",
    "SSNUM21": "30",
    "SECSSNUM21": "00130",
    "OBJECTID_1": 68543,
    "DT": "08",
    "CC": "08",
    "fr": "03",
    "SEC": "001",
    "SS": "30"
  },
  "addresses": [
    {
      "id": "pt.ine.add.PTCONT.1513559",
      "street": "R S PEDRO",
      "house": "16",
      "postcode": "8100-050",
      "city": "AMEIXIAL",
      "lon": "-7.962412386888097",
      "lat": "37.3650139027602"
    },
    {
      "id": "pt.ine.add.PTCONT.1516457",
      "street": "R S PEDRO",
      "house": "8 A",
      "postcode": "8100-050",
      "city": "AMEIXIAL",
      "lon": "-7.962290540474471",
      "lat": "37.3639865574819"
    },
    {
      "id": "pt.ine.add.PTCONT.1596884",
      "street": "ADRO SANTO ANTÓNIO",
      "house": "2",
      "postcode": "8100-050",
      "city": "AMEIXIAL",
      "lon": "-7.962031908011539",
      "lat": "37.36354468101532"
    },
    {
      "id": "pt.ine.add.PTCONT.1636410",
      "street": "R FONTINHA",
      "house": "5",
      "postcode": "8100-050",
      "city": "AMEIXIAL",
      "lon": "-7.962366885328681",
      "lat": "37.365167011451824"
    },
    {
      "id": "pt.ine.add.PTCONT.1641774",
      "street": "R S PEDRO",
      "house": "10",
      "postcode": "8100-050",
      "city": "AMEIXIAL",
      "lon": "-7.9624474771238525",
      "lat": "37.36447333795574"
    },
    {
      "id": "pt.ine.add.PTCONT.1693289",
      "street": "R LAGE",
      "house": "",
      "postcode": "8100-050",
      "city": "AMEIXIAL",
      "lon": "-7.962615561700339",
      "lat": "37.36502320605142"
    },
    {
      "id": "pt.ine.add.PTCONT.1735032",
      "street": "ADRO SANTO ANTÓNIO",
      "house": "8",
      "postcode": "8100-050",
      "city": "AMEIXIAL",
      "lon": "-7.96209943395375",
      "lat": "37.36363488125138"
    },
    {
      "id": "pt.ine.add.PTCONT.1745296",
      "street": "R LAGE",
      "house": "",
      "postcode": "8100-050",
      "city": "AMEIXIAL",
      "lon": "-7.962592597062609",
      "lat": "37.3651943678264"
    }
  ]
}