{
  "data": {
    "distrito": "Lisboa",
    "concelho": "Sobral de Monte Agraço",
    "freguesia": "Santo Quintino",
    "OBJECTID": 19,
    "BGRI2021": "11120100328",
    "DT21": "11",
    "DTMN21": "1112",
    "DTMNFR21": "111201",
    "DTMNFRSEC21": "111201003",
    "SECNUM21": "003",
    "SSNUM21": "28",
    "SECSSNUM21": "00328",
    "OBJECTID_1": 114807,
    "DT": "11",
    "CC": "12",
    "fr": "01",
    "SEC": "003",
    "SS": "28"
  },
  "addresses": [
    {
      "id": "pt.ine.add.PTCONT.2272073",
      "street": "R MARTIM AFONSO DE SOUSA",
      "house": "13",
      "postcode": "2590-277",
      "city": "SOBRAL DE MONTE AGRAÇO",
      "lon": "-9.113764304762611",
      "lat": "39.00716769876403"
    },
    {
      "id": "pt.ine.add.PTCONT.2500801",
      "street": "R PELOURINHO COVIL DOS LOBOS",
      "house": "",
      "postcode": "2590-277",
      "city": "SOBRAL DE MONTE AGRAÇO",
      "lon": "-9.113941160972495",
      "lat": "39.0065987416652"
    },
    {
      "id": "pt.ine.add.PTCONT.2723931",
      "street": "R PELOURINHO",
      "house": "",
      "postcode": "2590-277",
      "city": "SOBRAL DE MONTE AGRAÇO",
      "lon": "-9.113871528630385",
      "lat": "39.00657230469285"
    },
    {
      "id": "pt.ine.add.PTCONT.2847902",
      "street": "R MARTIM AFONSO DE SOUSA",
      "house": "5",
      "postcode": "2590-277",
      "city": "SOBRAL DE MONTE AGRAÇO",
      "lon": "-9.113813190791447",
      "lat": "39.0065277578006"
    },
    {
      "id": "pt.ine.add.PTCONT.2857959",
      "street": "R PELOURINHO",
      "house": "8",
      "postcode": "2590-277",
      "city": "SOBRAL DE MONTE AGRAÇO",
      "lon": "-9.114011664138639",
      "lat": "39.00668822352912"
    },
    {
      "id": "pt.ine.add.PTCONT.2867617",
      "street": "R MARTIM AFONSO DE SOUSA",
      "house": "15",
      "postcode": "2590-277",
      "city": "SOBRAL DE MONTE AGRAÇO",
      "lon": "-9.113765548436149",
      "lat": "39.00725776295343"
    },
    {
      "id": "pt.ine.add.PTCONT.2893054",
      "street": "R MARTIM AFONSO DE SOUSA",
      "house": "7",
      "postcode": "2590-277",
      "city": "SOBRAL DE MONTE AGRAÇO",
      "lon": "-9.113873518686056",
      "lat": "39.00671640740535"
    },
    {
      "id": "pt.ine.add.PTCONT.2904238",
      "street": "R MARTIM AFONSO DE SOUSA",
      "house": "9",
      "postcode": "2590-277",
      "city": "SOBRAL DE MONTE AGRAÇO",
      "lon": "-9.113897724565827",
      "lat": "39.0067972710872"
    },
    {
      "id": "pt.ine.add.PTCONT.3088489",
      "street": "R MARTIM AFONSO DE SOUSA",
      "house": "11",
      "postcode": "2590-277",
      "city": "SOBRAL DE MONTE AGRAÇO",
      "lon": "-9.113798064046087",
      "lat": "39.00710436272151"
    },
    {
      "id": "pt.ine.add.PTCONT.3190696",
      "street": "R MARECHAL GOMES DA COSTA",
      "house": "2",
      "postcode": "2590-277",
      "city": "SOBRAL DE MONTE AGRAÇO",
      "lon": "-9.114047786597164",
      "lat": "39.00679600937584"
    },
    {
      "id": "pt.ine.add.PTCONT.3210469",
      "street": "R MARTIM AFONSO DE SOUSA",
      "house": "5A",
      "postcode": "2590-277",
      "city": "SOBRAL DE MONTE AGRAÇO",
      "lon": "-9.113779183052042",
      "lat": "39.00657308101023"
    },
    {
      "id": "pt.ine.add.PTCONT.3429153",
      "street": "R MARTIM AFONSO SOUSA",
      "house": "11",
      "postcode": "2590-277",
      "city": "SOBRAL DE MONTE AGRAÇO",
      "lon": "-9.113843242167176",
      "lat": "39.007031923208466"
    },
    {
      "id": "pt.ine.add.PTCONT.3444477",
      "street": "R MARTIM AFONSO DE SOUSA",
      "house": "11A",
      "postcode": "2590-277",
      "city": "SOBRAL DE MONTE AGRAÇO",
      "lon": "-9.113843242167176",
      "lat": "39.007031923208466"
    }
  ]
}