{
  "data": {
    "distrito": "Porto",
    "concelho": "Lousada",
    "freguesia": "União das freguesias de Cristelos, Boim e Ordem",
    "OBJECTID": 272,
    "BGRI2021": "13052800516",
    "DT21": "13",
    "DTMN21": "1305",
    "DTMNFR21": "130528",
    "DTMNFRSEC21": "130528005",
    "SECNUM21": "005",
    "SSNUM21": "16",
    "SECSSNUM21": "00516",
    "OBJECTID_1": 129564,
    "DT": "13",
    "CC": "05",
    "fr": "28",
    "SEC": "005",
    "SS": "16"
  },
  "addresses": [
    {
      "id": "pt.ine.add.PTCONT.3573204",
      "street": "TV DR MÁRIO SOARES",
      "house": "49",
      "postcode": "4620-019",
      "city": "BOIM",
      "lon": "-8.275394818345406",
      "lat": "41.27173746518421"
    },
    {
      "id": "pt.ine.add.PTCONT.3637631",
      "street": "TV DR MÁRIO SOARES",
      "house": "67",
      "postcode": "4620-019",
      "city": "BOIM",
      "lon": "-8.275669317545047",
      "lat": "41.271737125610706"
    },
    {
      "id": "pt.ine.add.PTCONT.3728587",
      "street": "AV D NUNO ÁLVARES PEREIRA",
      "house": "109",
      "postcode": "4620-455",
      "city": "ORDEM",
      "lon": "-8.276135224699482",
      "lat": "41.271943644488864"
    },
    {
      "id": "pt.ine.add.PTCONT.3779975",
      "street": "TV DR MÁRIO SOARES",
      "house": "87",
      "postcode": "4620-455",
      "city": "ORDEM",
      "lon": "-8.275991712789564",
      "lat": "41.27180875959843"
    },
    {
      "id": "pt.ine.add.PTCONT.3864007",
      "street": "AV D NUNO ÁLVARES PEREIRA",
      "house": "483",
      "postcode": "4620-019",
      "city": "BOIM",
      "lon": "-8.276577777687828",
      "lat": "41.27238429991164"
    },
    {
      "id": "pt.ine.add.PTCONT.3870133",
      "street": "AV D NUNO ÁLVARES PEREIRA",
      "house": "444",
      "postcode": "4620-455",
      "city": "ORDEM",
      "lon": "-8.276290731031342",
      "lat": "41.27210552689696"
    },
    {
      "id": "pt.ine.add.PTCONT.3921952",
      "street": "R DR MÁRIO SOARES",
      "house": "",
      "postcode": "4620-019",
      "city": "BOIM",
      "lon": "-8.277055805217643",
      "lat": "41.27267183777463"
    },
    {
      "id": "pt.ine.add.PTCONT.3921953",
      "street": "R DR MÁRIO SOARES",
      "house": "",
      "postcode": "4620-019",
      "city": "BOIM",
      "lon": "-8.277055805217643",
      "lat": "41.27267183777463"
    },
    {
      "id": "pt.ine.add.PTCONT.3921954",
      "street": "R DR MÁRIO SOARES",
      "house": "",
      "postcode": "4620-019",
      "city": "BOIM",
      "lon": "-8.277055805217643",
      "lat": "41.27267183777463"
    },
    {
      "id": "pt.ine.add.PTCONT.3921955",
      "street": "R DR MÁRIO SOARES",
      "house": "",
      "postcode": "4620-019",
      "city": "BOIM",
      "lon": "-8.277055805217643",
      "lat": "41.27267183777463"
    },
    {
      "id": "pt.ine.add.PTCONT.3998911",
      "street": "AV D NUNO ÁLVARES PEREIRA",
      "house": "472",
      "postcode": "4620-455",
      "city": "ORDEM",
      "lon": "-8.276422348752286",
      "lat": "41.27225843462406"
    },
    {
      "id": "pt.ine.add.PTCONT.4286438",
      "street": "TV DR MARIO SOARES",
      "house": "79",
      "postcode": "4620-455",
      "city": "ORDEM",
      "lon": "-8.2758601362068",
      "lat": "41.27167385972756"
    }
  ]
}