{
  "data": {
    "distrito": "Beja",
    "concelho": "Ferreira do Alentejo",
    "freguesia": "União das freguesias de Ferreira do Alentejo e Canhestros",
    "OBJECTID": 119,
    "BGRI2021": "02080800222",
    "DT21": "02",
    "DTMN21": "0208",
    "DTMNFR21": "020808",
    "DTMNFRSEC21": "020808002",
    "SECNUM21": "002",
    "SSNUM21": "22",
    "SECSSNUM21": "00222",
    "OBJECTID_1": 14960,
    "DT": "02",
    "CC": "08",
    "fr": "08",
    "SEC": "002",
    "SS": "22"
  },
  "addresses": [
    {
      "id": "pt.ine.add.PTCONT.456957",
      "street": "R MARIA JULIA DE VILHENA PEREIRA",
      "house": "",
      "postcode": "7900-663",
      "city": "FERREIRA DO ALENTEJO",
      "lon": "-8.11395534468336",
      "lat": "38.05486711350025"
    },
    {
      "id": "pt.ine.add.PTCONT.356574",
      "street": "R MARIA JULIA DE VILHENA PEREIRA",
      "house": "",
      "postcode": "7900-663",
      "city": "FERREIRA DO ALENTEJO",
      "lon": "-8.114023609263066",
      "lat": "38.05524551143491"
    },
    {
      "id": "pt.ine.add.PTCONT.365497",
      "street": "R MARIA JULIA DE VILHENA PEREIRA",
      "house": "",
      "postcode": "7900-663",
      "city": "FERREIRA DO ALENTEJO",
      "lon": "-8.114217230857504",
      "lat": "38.05553383742304"
    },
    {
      "id": "pt.ine.add.PTCONT.371176",
      "street": "R JOAQUIM LUCIO DURO",
      "house": "",
      "postcode": "7900-652",
      "city": "FERREIRA DO ALENTEJO",
      "lon": "-8.114365326404437",
      "lat": "38.05563296243369"
    },
    {
      "id": "pt.ine.add.PTCONT.378555",
      "street": "R MARIA JULIA DE VILHENA PEREIRA",
      "house": "",
      "postcode": "7900-663",
      "city": "FERREIRA DO ALENTEJO",
      "lon": "-8.114069159048771",
      "lat": "38.05534462013027"
    },
    {
      "id": "pt.ine.add.PTCONT.401781",
      "street": "R MARIA JULIA DE VILHENA PEREIRA",
      "house": "",
      "postcode": "7900-663",
      "city": "FERREIRA DO ALENTEJO",
      "lon": "-8.114000842614049",
      "lat": "38.05516442484597"
    },
    {
      "id": "pt.ine.add.PTCONT.413983",
      "street": "R MARIA JULIA DE VILHENA PEREIRA",
      "house": "",
      "postcode": "7900-663",
      "city": "FERREIRA DO ALENTEJO",
      "lon": "-8.113978106500236",
      "lat": "38.054966218522175"
    },
    {
      "id": "pt.ine.add.PTCONT.433672",
      "street": "R DR ANTÓNIO MATOS DE SOUSA",
      "house": "",
      "postcode": "7900-110",
      "city": "FERREIRA DO ALENTEJO",
      "lon": "-8.114091918835655",
      "lat": "38.05545273433145"
    },
    {
      "id": "pt.ine.add.PTCONT.446829",
      "street": "R MARIA JULIA VILHENA PEREIRA",
      "house": "20",
      "postcode": "7900-663",
      "city": "FERREIRA DO ALENTEJO",
      "lon": "-8.113978083050247",
      "lat": "38.05505631062189"
    }
  ]
}