{
  "data": {
    "distrito": "Setúbal",
    "concelho": "Setúbal",
    "freguesia": "União das freguesias de Azeitão (São Lourenço e São Simão)",
    "OBJECTID": 170,
    "BGRI2021": "15120901406",
    "DT21": "15",
    "DTMN21": "1512",
    "DTMNFR21": "151209",
    "DTMNFRSEC21": "151209014",
    "SECNUM21": "014",
    "SSNUM21": "06",
    "SECSSNUM21": "01406",
    "OBJECTID_1": 171017,
    "DT": "15",
    "CC": "12",
    "fr": "09",
    "SEC": "014",
    "SS": "06"
  },
  "addresses": [
    {
      "id": "pt.ine.add.PTCONT.4680391",
      "street": "R 25 DE ABRIL",
      "house": "101",
      "postcode": "2925-469",
      "city": "AZEITÃO",
      "lon": "-8.99203805482592",
      "lat": "38.529385137019176"
    },
    {
      "id": "pt.ine.add.PTCONT.4702204",
      "street": "R OLIVALINHO",
      "house": "",
      "postcode": "2925-441",
      "city": "AZEITÃO",
      "lon": "-8.98969954335787",
      "lat": "38.529465326452865"
    },
    {
      "id": "pt.ine.add.PTCONT.4728211",
      "street": "R 25 DE ABRIL",
      "house": "69",
      "postcode": "2925-469",
      "city": "AZEITÃO",
      "lon": "-8.99113922605833",
      "lat": "38.529986271821585"
    },
    {
      "id": "pt.ine.add.PTCONT.4734073",
      "street": "R 25 DE ABRIL",
      "house": "",
      "postcode": "2925-469",
      "city": "AZEITÃO",
      "lon": "-8.992163227345625",
      "lat": "38.52930314444471"
    },
    {
      "id": "pt.ine.add.PTCONT.4734074",
      "street": "R 25 ABRIL",
      "house": "105",
      "postcode": "2925-469",
      "city": "AZEITÃO",
      "lon": "-8.992163227345625",
      "lat": "38.52930314444471"
    },
    {
      "id": "pt.ine.add.PTCONT.4777786",
      "street": "R 25 DE ABRIL",
      "house": "95",
      "postcode": "2925-469",
      "city": "AZEITÃO",
      "lon": "-8.991821895740232",
      "lat": "38.52953085454928"
    },
    {
      "id": "pt.ine.add.PTCONT.4817469",
      "street": "URB VILA DAS VENDAS",
      "house": "22",
      "postcode": "2925-441",
      "city": "AZEITÃO",
      "lon": "-8.989943340937444",
      "lat": "38.529715773646444"
    },
    {
      "id": "pt.ine.add.PTCONT.4858286",
      "street": "R 25 DE ABRIL",
      "house": "87",
      "postcode": "2925-469",
      "city": "AZEITÃO",
      "lon": "-8.991605735780537",
      "lat": "38.52967657168681"
    },
    {
      "id": "pt.ine.add.PTCONT.4888548",
      "street": "URB VILA DAS VENDAS",
      "house": "17",
      "postcode": "2925-441",
      "city": "AZEITÃO",
      "lon": "-8.990175032011274",
      "lat": "38.5299122594286"
    },
    {
      "id": "pt.ine.add.PTCONT.4899011",
      "street": "R 25 DE ABRIL BAIARO DA BACELADA",
      "house": "77",
      "postcode": "2925-469",
      "city": "AZEITÃO",
      "lon": "-8.99135528088448",
      "lat": "38.52983154806513"
    },
    {
      "id": "pt.ine.add.PTCONT.4929030",
      "street": "R 25 DE ABRIL",
      "house": "99",
      "postcode": "2925-469",
      "city": "AZEITÃO",
      "lon": "-8.991946961681037",
      "lat": "38.52943985473676"
    },
    {
      "id": "pt.ine.add.PTCONT.4963734",
      "street": "R 25 DE ABRIL",
      "house": "63",
      "postcode": "2925-469",
      "city": "AZEITÃO",
      "lon": "-8.990888876030194",
      "lat": "38.5301502546847"
    },
    {
      "id": "pt.ine.add.PTCONT.4963735",
      "street": "R 25 DE ABRIL",
      "house": "75",
      "postcode": "2925-469",
      "city": "AZEITÃO",
      "lon": "-8.991275653688994",
      "lat": "38.52988618121406"
    },
    {
      "id": "pt.ine.add.PTCONT.5006991",
      "street": "R OLIVALINHO CASAL D ANA",
      "house": "",
      "postcode": "2925-441",
      "city": "AZEITÃO",
      "lon": "-8.990957724254892",
      "lat": "38.528221984402855"
    },
    {
      "id": "pt.ine.add.PTCONT.5018428",
      "street": "URB VILA DAS VENDAS",
      "house": "18",
      "postcode": "2925-441",
      "city": "AZEITÃO",
      "lon": "-8.990302024452067",
      "lat": "38.52998339578383"
    },
    {
      "id": "pt.ine.add.PTCONT.5029551",
      "street": "R 25 DE ABRIL",
      "house": "93",
      "postcode": "2925-469",
      "city": "AZEITÃO",
      "lon": "-8.991742162177816",
      "lat": "38.529576480544755"
    },
    {
      "id": "pt.ine.add.PTCONT.5131577",
      "street": "R 25 DE ABRIL BR BACELADA",
      "house": "85",
      "postcode": "2925-469",
      "city": "AZEITÃO",
      "lon": "-8.991526108946285",
      "lat": "38.529731205003365"
    }
  ]
}