{
  "data": {
    "distrito": "Lisboa",
    "concelho": "Sintra",
    "freguesia": "União das freguesias de São João das Lampas e Terrugem",
    "OBJECTID": 3179,
    "BGRI2021": "11112700945",
    "DT21": "11",
    "DTMN21": "1111",
    "DTMNFR21": "111127",
    "DTMNFRSEC21": "111127009",
    "SECNUM21": "009",
    "SSNUM21": "45",
    "SECSSNUM21": "00945",
    "OBJECTID_1": 113491,
    "DT": "11",
    "CC": "11",
    "fr": "27",
    "SEC": "009",
    "SS": "45"
  },
  "addresses": [
    {
      "id": "pt.ine.add.PTCONT.2437355",
      "street": "LG PALMEIRAS",
      "house": "7",
      "postcode": "2705-503",
      "city": "SÃO JOÃO DAS LAMPAS",
      "lon": "-9.413261233741375",
      "lat": "38.90638273543986"
    },
    {
      "id": "pt.ine.add.PTCONT.2443095",
      "street": "R PADEIRA",
      "house": "17",
      "postcode": "2705-452",
      "city": "SÃO JOÃO DAS LAMPAS",
      "lon": "-9.413017694312567",
      "lat": "38.906943865736665"
    },
    {
      "id": "pt.ine.add.PTCONT.2526939",
      "street": "R PADEIRA",
      "house": "17",
      "postcode": "2705-452",
      "city": "SÃO JOÃO DAS LAMPAS",
      "lon": "-9.413192361451651",
      "lat": "38.90704103213468"
    },
    {
      "id": "pt.ine.add.PTCONT.2603806",
      "street": "LG PALMEIRAS",
      "house": "2",
      "postcode": "2705-503",
      "city": "SÃO JOÃO DAS LAMPAS",
      "lon": "-9.413178732767966",
      "lat": "38.906924085160995"
    },
    {
      "id": "pt.ine.add.PTCONT.2661729",
      "street": "R PALMEIRA",
      "house": "1",
      "postcode": "2705-502",
      "city": "SÃO JOÃO DAS LAMPAS",
      "lon": "-9.413294153045179",
      "lat": "38.90693182689003"
    },
    {
      "id": "pt.ine.add.PTCONT.2951037",
      "street": "TV PADEIRA",
      "house": "2",
      "postcode": "2705-452",
      "city": "SÃO JOÃO DAS LAMPAS",
      "lon": "-9.412321778437068",
      "lat": "38.906708293428046"
    },
    {
      "id": "pt.ine.add.PTCONT.3410738",
      "street": "TV PADEIRA",
      "house": "6",
      "postcode": "2705-452",
      "city": "SÃO JOÃO DAS LAMPAS",
      "lon": "-9.412709290558022",
      "lat": "38.90646084612808"
    }
  ]
}