{
  "data": {
    "distrito": "Lisboa",
    "concelho": "Sintra",
    "freguesia": "União das freguesias de Queluz e Belas",
    "OBJECTID": 596,
    "BGRI2021": "11112601107",
    "DT21": "11",
    "DTMN21": "1111",
    "DTMNFR21": "111126",
    "DTMNFRSEC21": "111126011",
    "SECNUM21": "011",
    "SSNUM21": "07",
    "SECSSNUM21": "01107",
    "OBJECTID_1": 112053,
    "DT": "11",
    "CC": "11",
    "fr": "26",
    "SEC": "011",
    "SS": "07"
  },
  "addresses": [
    {
      "id": "pt.ine.add.PTCONT.2421910",
      "street": "TV ASSOCIAÇÃO E PROPRIETARIOS E MORADORES",
      "house": "1",
      "postcode": "2605-304",
      "city": "BELAS",
      "lon": "-9.252270091528132",
      "lat": "38.778390400759065"
    },
    {
      "id": "pt.ine.add.PTCONT.2468235",
      "street": "R JOÃO L D LOPES",
      "house": "3",
      "postcode": "2605-141",
      "city": "BELAS",
      "lon": "-9.252914135189632",
      "lat": "38.77836621527687"
    },
    {
      "id": "pt.ine.add.PTCONT.2642620",
      "street": "R JOAO L D LOPES",
      "house": "5",
      "postcode": "2605-141",
      "city": "BELAS",
      "lon": "-9.252809315332927",
      "lat": "38.77828615022178"
    },
    {
      "id": "pt.ine.add.PTCONT.2717412",
      "street": "TV ASSOCIAÇÃO E PROPRIETARIOS E MORADORES",
      "house": "3",
      "postcode": "2605-304",
      "city": "BELAS",
      "lon": "-9.252431876879255",
      "lat": "38.77843388976849"
    },
    {
      "id": "pt.ine.add.PTCONT.2717413",
      "street": "TV ASSOCIAÇÃO E PROPRIETARIOS E MORADORES",
      "house": "3",
      "postcode": "2605-304",
      "city": "BELAS",
      "lon": "-9.252431876879255",
      "lat": "38.77843388976849"
    },
    {
      "id": "pt.ine.add.PTCONT.2717414",
      "street": "TV ASSOCIAÇÃO E PROPRIETARIOS E MORADORES",
      "house": "3",
      "postcode": "2605-304",
      "city": "BELAS",
      "lon": "-9.252431876879255",
      "lat": "38.77843388976849"
    },
    {
      "id": "pt.ine.add.PTCONT.2778433",
      "street": "R D AFONSO HENRIQUES GERALDES",
      "house": "8",
      "postcode": "2605-125",
      "city": "BELAS",
      "lon": "-9.252606013166824",
      "lat": "38.778531306552075"
    },
    {
      "id": "pt.ine.add.PTCONT.2807861",
      "street": "R EMÍDIO ANSELMO DA COSTA",
      "house": "3",
      "postcode": "2605-136",
      "city": "BELAS",
      "lon": "-9.252315270079047",
      "lat": "38.77833592173031"
    },
    {
      "id": "pt.ine.add.PTCONT.2807938",
      "street": "R EMÍDIO ANSELMO DA COSTA",
      "house": "3",
      "postcode": "2605-136",
      "city": "BELAS",
      "lon": "-9.252315270079047",
      "lat": "38.77833592173031"
    },
    {
      "id": "pt.ine.add.PTCONT.2857729",
      "street": "R 1 DE MAIO",
      "house": "10",
      "postcode": "2605-155",
      "city": "BELAS",
      "lon": "-9.25305403623935",
      "lat": "38.778481974900565"
    },
    {
      "id": "pt.ine.add.PTCONT.2967165",
      "street": "R JOÃO L D LOPES",
      "house": "9B",
      "postcode": "2605-141",
      "city": "BELAS",
      "lon": "-9.252599253870784",
      "lat": "38.77809900069899"
    },
    {
      "id": "pt.ine.add.PTCONT.3031334",
      "street": "R JOÃO L D LOPES",
      "house": "7",
      "postcode": "2605-141",
      "city": "BELAS",
      "lon": "-9.252692849100317",
      "lat": "38.7781971889338"
    },
    {
      "id": "pt.ine.add.PTCONT.3031336",
      "street": "R JOÃO L D LOPES",
      "house": "7",
      "postcode": "2605-141",
      "city": "BELAS",
      "lon": "-9.252692849100317",
      "lat": "38.7781971889338"
    },
    {
      "id": "pt.ine.add.PTCONT.3078136",
      "street": "R D AFONSO HENRIQUES",
      "house": "4",
      "postcode": "2605-125",
      "city": "BELAS",
      "lon": "-9.252941513521954",
      "lat": "38.77864519224514"
    },
    {
      "id": "pt.ine.add.PTCONT.3161957",
      "street": "R JOAO L D LOPES",
      "house": "5B",
      "postcode": "2605-141",
      "city": "BELAS",
      "lon": "-9.252856042757559",
      "lat": "38.778330741074015"
    },
    {
      "id": "pt.ine.add.PTCONT.3161958",
      "street": "R JOAO L D LOPES",
      "house": "5B",
      "postcode": "2605-141",
      "city": "BELAS",
      "lon": "-9.252856042757559",
      "lat": "38.778330741074015"
    },
    {
      "id": "pt.ine.add.PTCONT.3235792",
      "street": "R JOÃO L D LOPES",
      "house": "11",
      "postcode": "2605-141",
      "city": "BELAS",
      "lon": "-9.25240252953576",
      "lat": "38.77802882341953"
    },
    {
      "id": "pt.ine.add.PTCONT.3248081",
      "street": "TV ASSOCIAÇÃO E PROPRIETARIOS E MORADORES",
      "house": "1 A",
      "postcode": "2605-304",
      "city": "BELAS",
      "lon": "-9.252351336148683",
      "lat": "38.778434661223564"
    },
    {
      "id": "pt.ine.add.PTCONT.3290581",
      "street": "R D AFONSO HENRIQUES",
      "house": "6",
      "postcode": "2605-125",
      "city": "BELAS",
      "lon": "-9.252848339907914",
      "lat": "38.778574023343154"
    }
  ]
}