{
  "data": {
    "distrito": "Lisboa",
    "concelho": "Mafra",
    "freguesia": "Mafra",
    "OBJECTID": 1748,
    "BGRI2021": "11090900432",
    "DT21": "11",
    "DTMN21": "1109",
    "DTMNFR21": "110909",
    "DTMNFRSEC21": "110909004",
    "SECNUM21": "004",
    "SSNUM21": "32",
    "SECSSNUM21": "00432",
    "OBJECTID_1": 109631,
    "DT": "11",
    "CC": "09",
    "fr": "09",
    "SEC": "004",
    "SS": "32"
  },
  "addresses": [
    {
      "id": "pt.ine.add.PTCONT.2379815",
      "street": "R CEDROS",
      "house": "6",
      "postcode": "2640-417",
      "city": "MAFRA",
      "lon": "-9.365894729042072",
      "lat": "38.965125445992705"
    },
    {
      "id": "pt.ine.add.PTCONT.2480592",
      "street": "R POMAR",
      "house": "",
      "postcode": "2640-565",
      "city": "MAFRA",
      "lon": "-9.364194491066536",
      "lat": "38.964215637367666"
    },
    {
      "id": "pt.ine.add.PTCONT.2643667",
      "street": "R BREJO",
      "house": "6",
      "postcode": "2640-417",
      "city": "MAFRA",
      "lon": "-9.365102975144746",
      "lat": "38.964043916584274"
    },
    {
      "id": "pt.ine.add.PTCONT.2668749",
      "street": "R CHARCO",
      "house": "12",
      "postcode": "2640-578",
      "city": "MAFRA",
      "lon": "-9.365757582111474",
      "lat": "38.96653204375426"
    },
    {
      "id": "pt.ine.add.PTCONT.2668750",
      "street": "R CHARCO",
      "house": "12",
      "postcode": "2640-578",
      "city": "MAFRA",
      "lon": "-9.365757582111474",
      "lat": "38.96653204375426"
    },
    {
      "id": "pt.ine.add.PTCONT.2704236",
      "street": "R CHARCO",
      "house": "",
      "postcode": "2640-578",
      "city": "MAFRA",
      "lon": "-9.366021342239183",
      "lat": "38.96643918353386"
    },
    {
      "id": "pt.ine.add.PTCONT.2717614",
      "street": "R BREJO",
      "house": "2",
      "postcode": "2640-417",
      "city": "MAFRA",
      "lon": "-9.36389114071387",
      "lat": "38.964687220505816"
    },
    {
      "id": "pt.ine.add.PTCONT.3025364",
      "street": "R BREJO",
      "house": "2",
      "postcode": "2640-417",
      "city": "MAFRA",
      "lon": "-9.363748512407605",
      "lat": "38.96377898056807"
    },
    {
      "id": "pt.ine.add.PTCONT.3114002",
      "street": "R CHARCO",
      "house": "",
      "postcode": "2640-578",
      "city": "MAFRA",
      "lon": "-9.363670097830159",
      "lat": "38.96458146334369"
    },
    {
      "id": "pt.ine.add.PTCONT.3284093",
      "street": "R CEDROS",
      "house": "",
      "postcode": "2640-417",
      "city": "MAFRA",
      "lon": "-9.365338830321255",
      "lat": "38.96433866933898"
    }
  ]
}