{
  "data": {
    "distrito": "Guarda",
    "concelho": "Gouveia",
    "freguesia": "União das freguesias de Figueiró da Serra e Freixo da Serra",
    "OBJECTID": 638,
    "BGRI2021": "09062400129",
    "DT21": "09",
    "DTMN21": "0906",
    "DTMNFR21": "090624",
    "DTMNFRSEC21": "090624001",
    "SECNUM21": "001",
    "SSNUM21": "29",
    "SECSSNUM21": "00129",
    "OBJECTID_1": 77177,
    "DT": "09",
    "CC": "06",
    "fr": "24",
    "SEC": "001",
    "SS": "29"
  },
  "addresses": [
    {
      "id": "pt.ine.add.PTCONT.1918999",
      "street": "TAPADA DO CASTANHEIRO",
      "house": "",
      "postcode": "6290-071",
      "city": "FIGUEIRÓ DA SERRA",
      "lon": "-7.49163435206914",
      "lat": "40.548888219974735"
    },
    {
      "id": "pt.ine.add.PTCONT.1924845",
      "street": "R PORTELA",
      "house": "",
      "postcode": "6290-071",
      "city": "FIGUEIRÓ DA SERRA",
      "lon": "-7.485957160056784",
      "lat": "40.551215934901755"
    },
    {
      "id": "pt.ine.add.PTCONT.1932818",
      "street": "TAPADA DO CASTANHEIRO",
      "house": "",
      "postcode": "6290-071",
      "city": "FIGUEIRÓ DA SERRA",
      "lon": "-7.4904784193846705",
      "lat": "40.54754901855685"
    },
    {
      "id": "pt.ine.add.PTCONT.1947294",
      "street": "R PORTELA QTA OA PORTELA",
      "house": "",
      "postcode": "6290-071",
      "city": "FIGUEIRÓ DA SERRA",
      "lon": "-7.48555958440009",
      "lat": "40.548368048088605"
    },
    {
      "id": "pt.ine.add.PTCONT.1962782",
      "street": "R ESTRADA VELHA",
      "house": "",
      "postcode": "6290-071",
      "city": "FIGUEIRÓ DA SERRA",
      "lon": "-7.487066269013489",
      "lat": "40.546368311170994"
    },
    {
      "id": "pt.ine.add.PTCONT.1850072",
      "street": "R ESTRADA VELHA",
      "house": "",
      "postcode": "6290-071",
      "city": "FIGUEIRÓ DA SERRA",
      "lon": "-7.48618841739718",
      "lat": "40.54681366192595"
    },
    {
      "id": "pt.ine.add.PTCONT.1858993",
      "street": "TAPADA DO CASTANHEIRO",
      "house": "",
      "postcode": "6290-071",
      "city": "FIGUEIRÓ DA SERRA",
      "lon": "-7.490124375320729",
      "lat": "40.54877176331988"
    },
    {
      "id": "pt.ine.add.PTCONT.1869063",
      "street": "R PORTELA",
      "house": "",
      "postcode": "6290-071",
      "city": "FIGUEIRÓ DA SERRA",
      "lon": "-7.485964890792307",
      "lat": "40.55163922486056"
    },
    {
      "id": "pt.ine.add.PTCONT.1882709",
      "street": "R PORTELA",
      "house": "",
      "postcode": "6290-071",
      "city": "FIGUEIRÓ DA SERRA",
      "lon": "-7.4856521239799445",
      "lat": "40.5497913964599"
    },
    {
      "id": "pt.ine.add.PTCONT.1890887",
      "street": "QTA ESPERANCA",
      "house": "",
      "postcode": "6290-071",
      "city": "FIGUEIRÓ DA SERRA",
      "lon": "-7.4921013469674405",
      "lat": "40.5506738518399"
    },
    {
      "id": "pt.ine.add.PTCONT.1892527",
      "street": "R ESTRADA VELHA",
      "house": "15",
      "postcode": "6290-071",
      "city": "FIGUEIRÓ DA SERRA",
      "lon": "-7.487421220100699",
      "lat": "40.54505552785261"
    }
  ]
}