{
  "data": {
    "distrito": "Braga",
    "concelho": "Póvoa de Lanhoso",
    "freguesia": "Póvoa de Lanhoso (Nossa Senhora do Amparo)",
    "OBJECTID": 349,
    "BGRI2021": "03091900509",
    "DT21": "03",
    "DTMN21": "0309",
    "DTMNFR21": "030919",
    "DTMNFRSEC21": "030919005",
    "SECNUM21": "005",
    "SSNUM21": "09",
    "SECSSNUM21": "00509",
    "OBJECTID_1": 28710,
    "DT": "03",
    "CC": "09",
    "fr": "19",
    "SEC": "005",
    "SS": "09"
  },
  "addresses": [
    {
      "id": "pt.ine.add.PTCONT.491790",
      "street": "R ARLINDO LOPES",
      "house": "81",
      "postcode": "4830-502",
      "city": "PÓVOA DE LANHOSO",
      "lon": "-8.26784454107952",
      "lat": "41.5805915205587"
    },
    {
      "id": "pt.ine.add.PTCONT.491791",
      "street": "R ARLINDO LOPES",
      "house": "79",
      "postcode": "4830-502",
      "city": "PÓVOA DE LANHOSO",
      "lon": "-8.26784454107952",
      "lat": "41.5805915205587"
    },
    {
      "id": "pt.ine.add.PTCONT.499108",
      "street": "R FEIRA",
      "house": "",
      "postcode": "4830-582",
      "city": "PÓVOA DE LANHOSO",
      "lon": "-8.270202932429394",
      "lat": "41.578733965787286"
    },
    {
      "id": "pt.ine.add.PTCONT.502051",
      "street": "R CODECO",
      "house": "",
      "postcode": "4830-587",
      "city": "PÓVOA DE LANHOSO",
      "lon": "-8.268922073082756",
      "lat": "41.579779917818406"
    },
    {
      "id": "pt.ine.add.PTCONT.515563",
      "street": "R CODECO",
      "house": "",
      "postcode": "4830-587",
      "city": "PÓVOA DE LANHOSO",
      "lon": "-8.268790093487752",
      "lat": "41.57974405874551"
    },
    {
      "id": "pt.ine.add.PTCONT.540858",
      "street": "R DR CUSTÓDIO LOPES DA SILVA",
      "house": "",
      "postcode": "4830-505",
      "city": "PÓVOA DE LANHOSO",
      "lon": "-8.267123062751185",
      "lat": "41.579628965446126"
    },
    {
      "id": "pt.ine.add.PTCONT.590468",
      "street": "R DR CUSTÓDIO LOPES DA SILVA",
      "house": "215",
      "postcode": "4830-505",
      "city": "PÓVOA DE LANHOSO",
      "lon": "-8.267158552452859",
      "lat": "41.57939482726742"
    },
    {
      "id": "pt.ine.add.PTCONT.593405",
      "street": "R DR CUSTÓDIO LOPES DA SILVA",
      "house": "283",
      "postcode": "4830-505",
      "city": "PÓVOA DE LANHOSO",
      "lon": "-8.2670518407272",
      "lat": "41.57998019363153"
    },
    {
      "id": "pt.ine.add.PTCONT.620931",
      "street": "R VETERANOS DE GUERRA",
      "house": "368",
      "postcode": "4830-571",
      "city": "PÓVOA DE LANHOSO",
      "lon": "-8.270304044379305",
      "lat": "41.581182857715035"
    },
    {
      "id": "pt.ine.add.PTCONT.620932",
      "street": "R VETERANOS DE GUERRA",
      "house": "368",
      "postcode": "4830-571",
      "city": "PÓVOA DE LANHOSO",
      "lon": "-8.270304044379305",
      "lat": "41.581182857715035"
    },
    {
      "id": "pt.ine.add.PTCONT.620933",
      "street": "R VETERANOS DE GUERRA",
      "house": "368",
      "postcode": "4830-571",
      "city": "PÓVOA DE LANHOSO",
      "lon": "-8.270304044379305",
      "lat": "41.581182857715035"
    },
    {
      "id": "pt.ine.add.PTCONT.620934",
      "street": "R VETERANOS DE GUERRA",
      "house": "368",
      "postcode": "4830-571",
      "city": "PÓVOA DE LANHOSO",
      "lon": "-8.270304044379305",
      "lat": "41.581182857715035"
    },
    {
      "id": "pt.ine.add.PTCONT.620935",
      "street": "R VETERANOS DE GUERRA",
      "house": "368",
      "postcode": "4830-571",
      "city": "PÓVOA DE LANHOSO",
      "lon": "-8.270304044379305",
      "lat": "41.581182857715035"
    },
    {
      "id": "pt.ine.add.PTCONT.620936",
      "street": "R VETERANOS DE GUERRA",
      "house": "368",
      "postcode": "4830-571",
      "city": "PÓVOA DE LANHOSO",
      "lon": "-8.270304044379305",
      "lat": "41.581182857715035"
    },
    {
      "id": "pt.ine.add.PTCONT.620937",
      "street": "R VETERANOS DE GUERRA",
      "house": "368",
      "postcode": "4830-571",
      "city": "PÓVOA DE LANHOSO",
      "lon": "-8.270304044379305",
      "lat": "41.581182857715035"
    },
    {
      "id": "pt.ine.add.PTCONT.620938",
      "street": "R VETERANOS DE GUERRA",
      "house": "368",
      "postcode": "4830-571",
      "city": "PÓVOA DE LANHOSO",
      "lon": "-8.270304044379305",
      "lat": "41.581182857715035"
    },
    {
      "id": "pt.ine.add.PTCONT.620939",
      "street": "R VETERANOS DE GUERRA",
      "house": "368",
      "postcode": "4830-571",
      "city": "PÓVOA DE LANHOSO",
      "lon": "-8.270304044379305",
      "lat": "41.581182857715035"
    },
    {
      "id": "pt.ine.add.PTCONT.620940",
      "street": "R VETERANOS DE GUERRA",
      "house": "368",
      "postcode": "4830-571",
      "city": "PÓVOA DE LANHOSO",
      "lon": "-8.270304044379305",
      "lat": "41.581182857715035"
    },
    {
      "id": "pt.ine.add.PTCONT.620941",
      "street": "R VETERANOS DE GUERRA",
      "house": "368",
      "postcode": "4830-571",
      "city": "PÓVOA DE LANHOSO",
      "lon": "-8.270304044379305",
      "lat": "41.581182857715035"
    },
    {
      "id": "pt.ine.add.PTCONT.620942",
      "street": "R VETERANOS DE GUERRA",
      "house": "368",
      "postcode": "4830-571",
      "city": "PÓVOA DE LANHOSO",
      "lon": "-8.270304044379305",
      "lat": "41.581182857715035"
    },
    {
      "id": "pt.ine.add.PTCONT.620943",
      "street": "R VETERANOS DE GUERRA",
      "house": "368",
      "postcode": "4830-571",
      "city": "PÓVOA DE LANHOSO",
      "lon": "-8.270304044379305",
      "lat": "41.581182857715035"
    },
    {
      "id": "pt.ine.add.PTCONT.620944",
      "street": "R VETERANOS GUERRA",
      "house": "367",
      "postcode": "4830-571",
      "city": "PÓVOA DE LANHOSO",
      "lon": "-8.270304044379305",
      "lat": "41.581182857715035"
    },
    {
      "id": "pt.ine.add.PTCONT.620945",
      "street": "R VETERANOS DE GUERRA",
      "house": "368",
      "postcode": "4830-571",
      "city": "PÓVOA DE LANHOSO",
      "lon": "-8.270304044379305",
      "lat": "41.581182857715035"
    },
    {
      "id": "pt.ine.add.PTCONT.620946",
      "street": "R VETERANOS DE GUERRA",
      "house": "368",
      "postcode": "4830-571",
      "city": "PÓVOA DE LANHOSO",
      "lon": "-8.270304044379305",
      "lat": "41.581182857715035"
    },
    {
      "id": "pt.ine.add.PTCONT.687708",
      "street": "TV RUA DA REQUEZENDA",
      "house": "20",
      "postcode": "4830-596",
      "city": "PÓVOA DE LANHOSO",
      "lon": "-8.269569849239009",
      "lat": "41.57989619923529"
    },
    {
      "id": "pt.ine.add.PTCONT.696585",
      "street": "R ARLINDO LOPES",
      "house": "13",
      "postcode": "4830-502",
      "city": "PÓVOA DE LANHOSO",
      "lon": "-8.267064390243362",
      "lat": "41.58025029068474"
    },
    {
      "id": "pt.ine.add.PTCONT.696586",
      "street": "R ARLINDO LOPES",
      "house": "13",
      "postcode": "4830-502",
      "city": "PÓVOA DE LANHOSO",
      "lon": "-8.267064390243362",
      "lat": "41.58025029068474"
    },
    {
      "id": "pt.ine.add.PTCONT.696587",
      "street": "R ARLINDO LOPES",
      "house": "13",
      "postcode": "4830-502",
      "city": "PÓVOA DE LANHOSO",
      "lon": "-8.267064390243362",
      "lat": "41.58025029068474"
    },
    {
      "id": "pt.ine.add.PTCONT.696696",
      "street": "R ARLINDO LOPES",
      "house": "13",
      "postcode": "4830-502",
      "city": "PÓVOA DE LANHOSO",
      "lon": "-8.267064390243362",
      "lat": "41.58025029068474"
    },
    {
      "id": "pt.ine.add.PTCONT.714541",
      "street": "R VETERANOS DE GUERRA",
      "house": "314",
      "postcode": "4830-571",
      "city": "PÓVOA DE LANHOSO",
      "lon": "-8.270363392049038",
      "lat": "41.58089466781744"
    },
    {
      "id": "pt.ine.add.PTCONT.714542",
      "street": "R VETERANOS DE GUERRA",
      "house": "314",
      "postcode": "4830-571",
      "city": "PÓVOA DE LANHOSO",
      "lon": "-8.270363392049038",
      "lat": "41.58089466781744"
    },
    {
      "id": "pt.ine.add.PTCONT.714543",
      "street": "R VETERANOS DE GUERRA",
      "house": "314",
      "postcode": "4830-571",
      "city": "PÓVOA DE LANHOSO",
      "lon": "-8.270363392049038",
      "lat": "41.58089466781744"
    },
    {
      "id": "pt.ine.add.PTCONT.714544",
      "street": "R VETERANOS DE GUERRA",
      "house": "314",
      "postcode": "4830-571",
      "city": "PÓVOA DE LANHOSO",
      "lon": "-8.270363392049038",
      "lat": "41.58089466781744"
    },
    {
      "id": "pt.ine.add.PTCONT.714545",
      "street": "R VETERANOS DE GUERRA",
      "house": "314",
      "postcode": "4830-571",
      "city": "PÓVOA DE LANHOSO",
      "lon": "-8.270363392049038",
      "lat": "41.58089466781744"
    },
    {
      "id": "pt.ine.add.PTCONT.714546",
      "street": "R VETERANOS DE GUERRA",
      "house": "314",
      "postcode": "4830-571",
      "city": "PÓVOA DE LANHOSO",
      "lon": "-8.270363392049038",
      "lat": "41.58089466781744"
    },
    {
      "id": "pt.ine.add.PTCONT.714547",
      "street": "R VETERANOS DE GUERRA",
      "house": "314",
      "postcode": "4830-571",
      "city": "PÓVOA DE LANHOSO",
      "lon": "-8.270363392049038",
      "lat": "41.58089466781744"
    },
    {
      "id": "pt.ine.add.PTCONT.714548",
      "street": "R VETERANOS DE GUERRA",
      "house": "314",
      "postcode": "4830-571",
      "city": "PÓVOA DE LANHOSO",
      "lon": "-8.270363392049038",
      "lat": "41.58089466781744"
    },
    {
      "id": "pt.ine.add.PTCONT.714549",
      "street": "R VETERANOS DE GUERRA",
      "house": "314",
      "postcode": "4830-571",
      "city": "PÓVOA DE LANHOSO",
      "lon": "-8.270363392049038",
      "lat": "41.58089466781744"
    },
    {
      "id": "pt.ine.add.PTCONT.714550",
      "street": "R VETERANOS DE GUERRA",
      "house": "314",
      "postcode": "4830-571",
      "city": "PÓVOA DE LANHOSO",
      "lon": "-8.270363392049038",
      "lat": "41.58089466781744"
    },
    {
      "id": "pt.ine.add.PTCONT.714552",
      "street": "R VETERANOS DE GUERRA",
      "house": "314",
      "postcode": "4830-571",
      "city": "PÓVOA DE LANHOSO",
      "lon": "-8.270363392049038",
      "lat": "41.58089466781744"
    },
    {
      "id": "pt.ine.add.PTCONT.714553",
      "street": "R VETERANOS DE GUERRA",
      "house": "314",
      "postcode": "4830-571",
      "city": "PÓVOA DE LANHOSO",
      "lon": "-8.270363392049038",
      "lat": "41.58089466781744"
    },
    {
      "id": "pt.ine.add.PTCONT.714554",
      "street": "R VETERANOS DE GUERRA",
      "house": "314",
      "postcode": "4830-571",
      "city": "PÓVOA DE LANHOSO",
      "lon": "-8.270363392049038",
      "lat": "41.58089466781744"
    },
    {
      "id": "pt.ine.add.PTCONT.714555",
      "street": "R VETERANOS DE GUERRA",
      "house": "314",
      "postcode": "4830-571",
      "city": "PÓVOA DE LANHOSO",
      "lon": "-8.270363392049038",
      "lat": "41.58089466781744"
    },
    {
      "id": "pt.ine.add.PTCONT.714556",
      "street": "R VETERANOS DE GUERRA",
      "house": "314",
      "postcode": "4830-571",
      "city": "PÓVOA DE LANHOSO",
      "lon": "-8.270363392049038",
      "lat": "41.58089466781744"
    },
    {
      "id": "pt.ine.add.PTCONT.715199",
      "street": "R VETERANOS DE GUERRA",
      "house": "314",
      "postcode": "4830-571",
      "city": "PÓVOA DE LANHOSO",
      "lon": "-8.270363392049038",
      "lat": "41.58089466781744"
    },
    {
      "id": "pt.ine.add.PTCONT.750460",
      "street": "R VETERANOS DE GUERRA",
      "house": "304",
      "postcode": "4830-571",
      "city": "PÓVOA DE LANHOSO",
      "lon": "-8.270326597984827",
      "lat": "41.580507551715044"
    },
    {
      "id": "pt.ine.add.PTCONT.750461",
      "street": "R VETERANOS DE GUERRA",
      "house": "304",
      "postcode": "4830-571",
      "city": "PÓVOA DE LANHOSO",
      "lon": "-8.270326597984827",
      "lat": "41.580507551715044"
    },
    {
      "id": "pt.ine.add.PTCONT.750462",
      "street": "R VETERANOS DE GUERRA",
      "house": "304",
      "postcode": "4830-571",
      "city": "PÓVOA DE LANHOSO",
      "lon": "-8.270326597984827",
      "lat": "41.580507551715044"
    },
    {
      "id": "pt.ine.add.PTCONT.750463",
      "street": "R VETERANOS DE GUERRA",
      "house": "304",
      "postcode": "4830-571",
      "city": "PÓVOA DE LANHOSO",
      "lon": "-8.270326597984827",
      "lat": "41.580507551715044"
    },
    {
      "id": "pt.ine.add.PTCONT.750464",
      "street": "R VETERANOS DE GUERRA",
      "house": "304",
      "postcode": "4830-571",
      "city": "PÓVOA DE LANHOSO",
      "lon": "-8.270326597984827",
      "lat": "41.580507551715044"
    },
    {
      "id": "pt.ine.add.PTCONT.750465",
      "street": "R VETERANOS DE GUERRA",
      "house": "304",
      "postcode": "4830-571",
      "city": "PÓVOA DE LANHOSO",
      "lon": "-8.270326597984827",
      "lat": "41.580507551715044"
    },
    {
      "id": "pt.ine.add.PTCONT.750466",
      "street": "R VETERANOS DE GUERRA",
      "house": "304",
      "postcode": "4830-571",
      "city": "PÓVOA DE LANHOSO",
      "lon": "-8.270326597984827",
      "lat": "41.580507551715044"
    },
    {
      "id": "pt.ine.add.PTCONT.750467",
      "street": "R VETERANOS DE GUERRA",
      "house": "304",
      "postcode": "4830-571",
      "city": "PÓVOA DE LANHOSO",
      "lon": "-8.270326597984827",
      "lat": "41.580507551715044"
    },
    {
      "id": "pt.ine.add.PTCONT.750471",
      "street": "R VETERANOS DE GUERRA",
      "house": "304",
      "postcode": "4830-571",
      "city": "PÓVOA DE LANHOSO",
      "lon": "-8.270326597984827",
      "lat": "41.580507551715044"
    },
    {
      "id": "pt.ine.add.PTCONT.750472",
      "street": "R VETERANOS DE GUERRA",
      "house": "304",
      "postcode": "4830-571",
      "city": "PÓVOA DE LANHOSO",
      "lon": "-8.270326597984827",
      "lat": "41.580507551715044"
    },
    {
      "id": "pt.ine.add.PTCONT.750473",
      "street": "R VETERANOS DE GUERRA",
      "house": "304",
      "postcode": "4830-571",
      "city": "PÓVOA DE LANHOSO",
      "lon": "-8.270326597984827",
      "lat": "41.580507551715044"
    },
    {
      "id": "pt.ine.add.PTCONT.750474",
      "street": "R VETERANOS DE GUERRA",
      "house": "304",
      "postcode": "4830-571",
      "city": "PÓVOA DE LANHOSO",
      "lon": "-8.270326597984827",
      "lat": "41.580507551715044"
    },
    {
      "id": "pt.ine.add.PTCONT.750475",
      "street": "R VETERANOS DE GUERRA",
      "house": "304",
      "postcode": "4830-571",
      "city": "PÓVOA DE LANHOSO",
      "lon": "-8.270326597984827",
      "lat": "41.580507551715044"
    },
    {
      "id": "pt.ine.add.PTCONT.750476",
      "street": "R VETERANOS DE GUERRA",
      "house": "304",
      "postcode": "4830-571",
      "city": "PÓVOA DE LANHOSO",
      "lon": "-8.270326597984827",
      "lat": "41.580507551715044"
    },
    {
      "id": "pt.ine.add.PTCONT.751167",
      "street": "R VETERANOS DE GUERRA",
      "house": "304",
      "postcode": "4830-571",
      "city": "PÓVOA DE LANHOSO",
      "lon": "-8.270326597984827",
      "lat": "41.580507551715044"
    },
    {
      "id": "pt.ine.add.PTCONT.759936",
      "street": "BAGÃES",
      "house": "",
      "postcode": "4830-578",
      "city": "PÓVOA DE LANHOSO",
      "lon": "-8.26880217901007",
      "lat": "41.57978906309787"
    },
    {
      "id": "pt.ine.add.PTCONT.764885",
      "street": "R ARLINDO LOPES",
      "house": "",
      "postcode": "4830-502",
      "city": "PÓVOA DE LANHOSO",
      "lon": "-8.267580486522569",
      "lat": "41.58047478130069"
    },
    {
      "id": "pt.ine.add.PTCONT.766104",
      "street": "BAGÃES",
      "house": "",
      "postcode": "4830-578",
      "city": "PÓVOA DE LANHOSO",
      "lon": "-8.268574212717777",
      "lat": "41.57972630584782"
    },
    {
      "id": "pt.ine.add.PTCONT.775270",
      "street": "BAGÃES",
      "house": "",
      "postcode": "4830-999",
      "city": "PÓVOA DE LANHOSO",
      "lon": "-8.268502227412897",
      "lat": "41.57970838319063"
    },
    {
      "id": "pt.ine.add.PTCONT.777354",
      "street": "R REQUEZENDA",
      "house": "61",
      "postcode": "4830-596",
      "city": "PÓVOA DE LANHOSO",
      "lon": "-8.267999661640731",
      "lat": "41.58022218607881"
    },
    {
      "id": "pt.ine.add.PTCONT.789145",
      "street": "LG FEIRA",
      "house": "",
      "postcode": "4830-596",
      "city": "PÓVOA DE LANHOSO",
      "lon": "-8.269269555774057",
      "lat": "41.57965345472457"
    },
    {
      "id": "pt.ine.add.PTCONT.805355",
      "street": "R DR CUSTODIO LOPES SILVA",
      "house": "191",
      "postcode": "4830-505",
      "city": "PÓVOA DE LANHOSO",
      "lon": "-8.267182330052517",
      "lat": "41.57929575858345"
    },
    {
      "id": "pt.ine.add.PTCONT.810850",
      "street": "R ARLINDO LOPES",
      "house": "27",
      "postcode": "4830-502",
      "city": "PÓVOA DE LANHOSO",
      "lon": "-8.26731643291566",
      "lat": "41.580358041432476"
    },
    {
      "id": "pt.ine.add.PTCONT.810851",
      "street": "R ARLINDO LOPES",
      "house": "27",
      "postcode": "4830-502",
      "city": "PÓVOA DE LANHOSO",
      "lon": "-8.26731643291566",
      "lat": "41.580358041432476"
    },
    {
      "id": "pt.ine.add.PTCONT.814281",
      "street": "R DR CUSTÓDIO LOPES DA SILVA",
      "house": "193",
      "postcode": "4830-505",
      "city": "PÓVOA DE LANHOSO",
      "lon": "-8.26717024574722",
      "lat": "41.57925075405513"
    },
    {
      "id": "pt.ine.add.PTCONT.846167",
      "street": "R VETERANOS DE GUERRA",
      "house": "304",
      "postcode": "4830-571",
      "city": "PÓVOA DE LANHOSO",
      "lon": "-8.270326597984827",
      "lat": "41.580507551715044"
    },
    {
      "id": "pt.ine.add.PTCONT.847978",
      "street": "R DR CUSTÓDIO LOPES DA SILVA",
      "house": "",
      "postcode": "4830-505",
      "city": "PÓVOA DE LANHOSO",
      "lon": "-8.267253718313205",
      "lat": "41.57902556359968"
    }
  ]
}