{
  "data": {
    "distrito": "Leiria",
    "concelho": "Pombal",
    "freguesia": "Pombal",
    "OBJECTID": 2569,
    "BGRI2021": "10150901525",
    "DT21": "10",
    "DTMN21": "1015",
    "DTMNFR21": "101509",
    "DTMNFRSEC21": "101509015",
    "SECNUM21": "015",
    "SSNUM21": "25",
    "SECSSNUM21": "01525",
    "OBJECTID_1": 96124,
    "DT": "10",
    "CC": "15",
    "fr": "09",
    "SEC": "015",
    "SS": "25"
  },
  "addresses": [
    {
      "id": "pt.ine.add.PTCONT.2027062",
      "street": "R MANPAIS",
      "house": "14",
      "postcode": "3100-358",
      "city": "POMBAL",
      "lon": "-8.589015281928315",
      "lat": "39.89022016536803"
    },
    {
      "id": "pt.ine.add.PTCONT.2042789",
      "street": "R PRINCIPAL",
      "house": "3",
      "postcode": "3100-358",
      "city": "POMBAL",
      "lon": "-8.588231644767855",
      "lat": "39.89194344990629"
    },
    {
      "id": "pt.ine.add.PTCONT.2047096",
      "street": "R PRINCIPAL",
      "house": "11",
      "postcode": "3100-358",
      "city": "POMBAL",
      "lon": "-8.588970665739902",
      "lat": "39.89230980634722"
    },
    {
      "id": "pt.ine.add.PTCONT.2083083",
      "street": "R GRANJA",
      "house": "",
      "postcode": "3100-358",
      "city": "POMBAL",
      "lon": "-8.59214585136197",
      "lat": "39.89330598935"
    },
    {
      "id": "pt.ine.add.PTCONT.2083084",
      "street": "R PRINCIPAL",
      "house": "",
      "postcode": "3100-358",
      "city": "POMBAL",
      "lon": "-8.58914747406486",
      "lat": "39.8925252628013"
    },
    {
      "id": "pt.ine.add.PTCONT.2085755",
      "street": "R MAMPAIS",
      "house": "4",
      "postcode": "3100-358",
      "city": "POMBAL",
      "lon": "-8.588076795040132",
      "lat": "39.891511754280394"
    },
    {
      "id": "pt.ine.add.PTCONT.2090978",
      "street": "R PRINCIPAL",
      "house": "23",
      "postcode": "3100-358",
      "city": "POMBAL",
      "lon": "-8.590894339569596",
      "lat": "39.893238885706026"
    },
    {
      "id": "pt.ine.add.PTCONT.2131274",
      "street": "R MAMPAIS",
      "house": "6",
      "postcode": "3100-358",
      "city": "POMBAL",
      "lon": "-8.587924090064343",
      "lat": "39.89140427743184"
    },
    {
      "id": "pt.ine.add.PTCONT.2152761",
      "street": "R CAMPO DE FUTEBOL",
      "house": "8",
      "postcode": "3100-358",
      "city": "POMBAL",
      "lon": "-8.585820515007972",
      "lat": "39.88977335779907"
    },
    {
      "id": "pt.ine.add.PTCONT.2224931",
      "street": "R PRINCIPAL",
      "house": "15",
      "postcode": "3100-358",
      "city": "POMBAL",
      "lon": "-8.58949828667552",
      "lat": "39.89253288910864"
    },
    {
      "id": "pt.ine.add.PTCONT.2229334",
      "street": "R PRINCIPAL",
      "house": "5",
      "postcode": "3100-358",
      "city": "POMBAL",
      "lon": "-8.588419307298748",
      "lat": "39.89203277646863"
    },
    {
      "id": "pt.ine.add.PTCONT.2261787",
      "street": "R PRINCIPAL",
      "house": "",
      "postcode": "3100-358",
      "city": "POMBAL",
      "lon": "-8.590601623388624",
      "lat": "39.893176996582326"
    }
  ]
}