{
  "data": {
    "distrito": "Porto",
    "concelho": "Penafiel",
    "freguesia": "Fonte Arcada",
    "OBJECTID": 1176,
    "BGRI2021": "13111200112",
    "DT21": "13",
    "DTMN21": "1311",
    "DTMNFR21": "131112",
    "DTMNFRSEC21": "131112001",
    "SECNUM21": "001",
    "SSNUM21": "12",
    "SECSSNUM21": "00112",
    "OBJECTID_1": 136656,
    "DT": "13",
    "CC": "11",
    "fr": "12",
    "SEC": "001",
    "SS": "12"
  },
  "addresses": [
    {
      "id": "pt.ine.add.PTCONT.3583572",
      "street": "R ENCOSTA DO OUTEIRO",
      "house": "",
      "postcode": "4560-112",
      "city": "FONTE ARCADA PNF",
      "lon": "-8.354876298611705",
      "lat": "41.14339054824749"
    },
    {
      "id": "pt.ine.add.PTCONT.3790175",
      "street": "R ALDEIA - QTA DA FONTE ARCADA",
      "house": "",
      "postcode": "4560-112",
      "city": "FONTE ARCADA PNF",
      "lon": "-8.357361516496672",
      "lat": "41.142134125132245"
    },
    {
      "id": "pt.ine.add.PTCONT.3823059",
      "street": "R OUTEIRO",
      "house": "",
      "postcode": "4560-112",
      "city": "FONTE ARCADA PNF",
      "lon": "-8.356628557819706",
      "lat": "41.14376534647032"
    },
    {
      "id": "pt.ine.add.PTCONT.3985093",
      "street": "R OUTEIRO",
      "house": "",
      "postcode": "4560-112",
      "city": "FONTE ARCADA PNF",
      "lon": "-8.356652747675316",
      "lat": "41.14387335234364"
    },
    {
      "id": "pt.ine.add.PTCONT.4042346",
      "street": "R CAMPO GRANDE",
      "house": "",
      "postcode": "4560-112",
      "city": "FONTE ARCADA PNF",
      "lon": "-8.35497043660038",
      "lat": "41.14304819970215"
    },
    {
      "id": "pt.ine.add.PTCONT.4078725",
      "street": "R OUTEIRO",
      "house": "",
      "postcode": "4560-112",
      "city": "FONTE ARCADA PNF",
      "lon": "-8.356580942536537",
      "lat": "41.143774443251154"
    }
  ]
}