{
  "data": {
    "distrito": "Porto",
    "concelho": "Penafiel",
    "freguesia": "Rio de Moinhos",
    "OBJECTID": 1541,
    "BGRI2021": "13112900112",
    "DT21": "13",
    "DTMN21": "1311",
    "DTMNFR21": "131129",
    "DTMNFRSEC21": "131129001",
    "SECNUM21": "001",
    "SSNUM21": "12",
    "SECSSNUM21": "00112",
    "OBJECTID_1": 137568,
    "DT": "13",
    "CC": "11",
    "fr": "29",
    "SEC": "001",
    "SS": "12"
  },
  "addresses": [
    {
      "id": "pt.ine.add.PTCONT.3773743",
      "street": "R AGRELA",
      "house": "490",
      "postcode": "4575-471",
      "city": "RIO DE MOINHOS PNF",
      "lon": "-8.265022551334415",
      "lat": "41.10498048616491"
    },
    {
      "id": "pt.ine.add.PTCONT.3936526",
      "street": "R MIMOSAS",
      "house": "67",
      "postcode": "4575-487",
      "city": "RIO DE MOINHOS PNF",
      "lon": "-8.263817356854295",
      "lat": "41.10355014910445"
    },
    {
      "id": "pt.ine.add.PTCONT.3961931",
      "street": "R MIMOSAS",
      "house": "253",
      "postcode": "4575-487",
      "city": "RIO DE MOINHOS PNF",
      "lon": "-8.264724722819828",
      "lat": "41.10487277315018"
    },
    {
      "id": "pt.ine.add.PTCONT.4000366",
      "street": "R AGRELA",
      "house": "260",
      "postcode": "4575-471",
      "city": "RIO DE MOINHOS PNF",
      "lon": "-8.265470963174376",
      "lat": "41.10300799307682"
    },
    {
      "id": "pt.ine.add.PTCONT.4232246",
      "street": "AGRELA",
      "house": "",
      "postcode": "4575-470",
      "city": "RIO DE MOINHOS PNF",
      "lon": "-8.26367455932017",
      "lat": "41.10357732442257"
    },
    {
      "id": "pt.ine.add.PTCONT.4348281",
      "street": "R AGRELA",
      "house": "504",
      "postcode": "4575-471",
      "city": "RIO DE MOINHOS PNF",
      "lon": "-8.265118093970619",
      "lat": "41.105133452691184"
    },
    {
      "id": "pt.ine.add.PTCONT.4348290",
      "street": "R CHAMUSCA",
      "house": "292",
      "postcode": "4575-478",
      "city": "RIO DE MOINHOS PNF",
      "lon": "-8.266893833509252",
      "lat": "41.10023297197352"
    }
  ]
}