{
  "data": {
    "distrito": "Porto",
    "concelho": "Penafiel",
    "freguesia": "Rio de Moinhos",
    "OBJECTID": 950,
    "BGRI2021": "13112900128",
    "DT21": "13",
    "DTMN21": "1311",
    "DTMNFR21": "131129",
    "DTMNFRSEC21": "131129001",
    "SECNUM21": "001",
    "SSNUM21": "28",
    "SECSSNUM21": "00128",
    "OBJECTID_1": 136476,
    "DT": "13",
    "CC": "11",
    "fr": "29",
    "SEC": "001",
    "SS": "28"
  },
  "addresses": [
    {
      "id": "pt.ine.add.PTCONT.3600129",
      "street": "R CANTARINHAS",
      "house": "",
      "postcode": "4575-481",
      "city": "RIO DE MOINHOS PNF",
      "lon": "-8.279591266501065",
      "lat": "41.10924000555677"
    },
    {
      "id": "pt.ine.add.PTCONT.3698427",
      "street": "R CANTARINHAS RIO M",
      "house": "RIO DE M",
      "postcode": "4575-481",
      "city": "RIO DE MOINHOS PNF",
      "lon": "-8.279294593332581",
      "lat": "41.10967259645065"
    },
    {
      "id": "pt.ine.add.PTCONT.3729943",
      "street": "R CANTARINHAS",
      "house": "124",
      "postcode": "4575-481",
      "city": "RIO DE MOINHOS PNF",
      "lon": "-8.279056107459892",
      "lat": "41.109501814056344"
    },
    {
      "id": "pt.ine.add.PTCONT.3782661",
      "street": "CAM CRUZEIRO VELHO",
      "house": "",
      "postcode": "4575-486",
      "city": "RIO DE MOINHOS PNF",
      "lon": "-8.280639589487238",
      "lat": "41.10421417681617"
    },
    {
      "id": "pt.ine.add.PTCONT.3833191",
      "street": "R LOPO",
      "house": "58",
      "postcode": "4575-481",
      "city": "RIO DE MOINHOS PNF",
      "lon": "-8.280386947904933",
      "lat": "41.1083565539967"
    },
    {
      "id": "pt.ine.add.PTCONT.3838991",
      "street": "R GRADE",
      "house": "233",
      "postcode": "4575-486",
      "city": "RIO DE MOINHOS PNF",
      "lon": "-8.27821082969727",
      "lat": "41.10950288170176"
    },
    {
      "id": "pt.ine.add.PTCONT.3838992",
      "street": "R GRADE",
      "house": "233",
      "postcode": "4575-486",
      "city": "RIO DE MOINHOS PNF",
      "lon": "-8.27821082969727",
      "lat": "41.10950288170176"
    },
    {
      "id": "pt.ine.add.PTCONT.3924280",
      "street": "R LAMELAS",
      "house": "114",
      "postcode": "4575-491",
      "city": "RIO DE MOINHOS PNF",
      "lon": "-8.273274481419959",
      "lat": "41.10596123428129"
    },
    {
      "id": "pt.ine.add.PTCONT.4032947",
      "street": "CC CARVALHO",
      "house": "134",
      "postcode": "4575-481",
      "city": "RIO DE MOINHOS PNF",
      "lon": "-8.2804797124608",
      "lat": "41.107248886461406"
    },
    {
      "id": "pt.ine.add.PTCONT.4059139",
      "street": "R LAMELAS",
      "house": "124",
      "postcode": "4575-491",
      "city": "RIO DE MOINHOS PNF",
      "lon": "-8.273380493042886",
      "lat": "41.105429841745405"
    },
    {
      "id": "pt.ine.add.PTCONT.4114834",
      "street": "CC CARVALHO",
      "house": "156",
      "postcode": "4575-494",
      "city": "RIO DE MOINHOS PNF",
      "lon": "-8.280526989752225",
      "lat": "41.10709575009664"
    },
    {
      "id": "pt.ine.add.PTCONT.4331236",
      "street": "R GRADE",
      "house": "121",
      "postcode": "4575-486",
      "city": "RIO DE MOINHOS PNF",
      "lon": "-8.278053506037322",
      "lat": "41.108341504242055"
    },
    {
      "id": "pt.ine.add.PTCONT.4357566",
      "street": "R AGRA",
      "house": "175",
      "postcode": "4575-518",
      "city": "RIO DE MOINHOS PNF",
      "lon": "-8.272965685630027",
      "lat": "41.106303779228675"
    },
    {
      "id": "pt.ine.add.PTCONT.4378184",
      "street": "R CANTARINHAS",
      "house": "272",
      "postcode": "4575-481",
      "city": "RIO DE MOINHOS PNF",
      "lon": "-8.279271042226762",
      "lat": "41.10978968430747"
    }
  ]
}