{
  "data": {
    "distrito": "Guarda",
    "concelho": "Aguiar da Beira",
    "freguesia": "União das freguesias de Sequeiros e Gradiz",
    "OBJECTID": 231,
    "BGRI2021": "09011500124",
    "DT21": "09",
    "DTMN21": "0901",
    "DTMNFR21": "090115",
    "DTMNFRSEC21": "090115001",
    "SECNUM21": "001",
    "SSNUM21": "24",
    "SECSSNUM21": "00124",
    "OBJECTID_1": 75097,
    "DT": "09",
    "CC": "01",
    "fr": "15",
    "SEC": "001",
    "SS": "24"
  },
  "addresses": [
    {
      "id": "pt.ine.add.PTCONT.1910677",
      "street": "LG DO RETIRO DA LAMEIRA",
      "house": "1",
      "postcode": "3570-160",
      "city": "GRADIZ",
      "lon": "-7.528944513665651",
      "lat": "40.85996974819166"
    },
    {
      "id": "pt.ine.add.PTCONT.1916125",
      "street": "ESTR DAS TRUTAS",
      "house": "",
      "postcode": "3570-160",
      "city": "GRADIZ",
      "lon": "-7.519621140962695",
      "lat": "40.865224351516"
    },
    {
      "id": "pt.ine.add.PTCONT.1917872",
      "street": "LG DO RETIRO DA LAMEIRA",
      "house": "2",
      "postcode": "3570-160",
      "city": "GRADIZ",
      "lon": "-7.5286718176730405",
      "lat": "40.859959314794686"
    },
    {
      "id": "pt.ine.add.PTCONT.1931614",
      "street": "AV DAS FONTAÍNHAS",
      "house": "2",
      "postcode": "3570-160",
      "city": "GRADIZ",
      "lon": "-7.526177515664635",
      "lat": "40.85905474415914"
    },
    {
      "id": "pt.ine.add.PTCONT.1941980",
      "street": "AV 5 DE AGOSTO",
      "house": "18",
      "postcode": "3570-160",
      "city": "GRADIZ",
      "lon": "-7.528686787972841",
      "lat": "40.859617211512"
    },
    {
      "id": "pt.ine.add.PTCONT.1950767",
      "street": "R DO ESTÁDIO",
      "house": "1",
      "postcode": "3570-160",
      "city": "GRADIZ",
      "lon": "-7.527783554573564",
      "lat": "40.859819585113776"
    },
    {
      "id": "pt.ine.add.PTCONT.1956844",
      "street": "AV 5 DE AGOSTO",
      "house": "20",
      "postcode": "3570-160",
      "city": "GRADIZ",
      "lon": "-7.528994898483261",
      "lat": "40.85964583991622"
    },
    {
      "id": "pt.ine.add.PTCONT.1959627",
      "street": "AV DAS FONTAÍNHAS",
      "house": "9",
      "postcode": "3570-160",
      "city": "GRADIZ",
      "lon": "-7.528199633328489",
      "lat": "40.85971371044809"
    },
    {
      "id": "pt.ine.add.PTCONT.1964586",
      "street": "R DO ESTÁDIO",
      "house": "3",
      "postcode": "3570-160",
      "city": "GRADIZ",
      "lon": "-7.527152519306453",
      "lat": "40.860086415331324"
    },
    {
      "id": "pt.ine.add.PTCONT.1966603",
      "street": "LG DO RETIRO DA LAMEIRA",
      "house": "3",
      "postcode": "3570-160",
      "city": "GRADIZ",
      "lon": "-7.52847339267845",
      "lat": "40.85960708836235"
    },
    {
      "id": "pt.ine.add.PTCONT.1850892",
      "street": "AV DAS FONTAÍNHAS",
      "house": "6",
      "postcode": "3570-160",
      "city": "GRADIZ",
      "lon": "-7.527287080586399",
      "lat": "40.85963688304061"
    },
    {
      "id": "pt.ine.add.PTCONT.1879902",
      "street": "AV 5 DE AGOSTO",
      "house": "22",
      "postcode": "3570-160",
      "city": "GRADIZ",
      "lon": "-7.529918823239024",
      "lat": "40.859776741978386"
    },
    {
      "id": "pt.ine.add.PTCONT.1885944",
      "street": "TV DA PONTE DA PREZA",
      "house": "4",
      "postcode": "3570-160",
      "city": "GRADIZ",
      "lon": "-7.529264322290455",
      "lat": "40.86001644671199"
    }
  ]
}