{
  "data": {
    "distrito": "Faro",
    "concelho": "Lagos",
    "freguesia": "São Gonçalo de Lagos",
    "OBJECTID": 52,
    "BGRI2021": "08070803010",
    "DT21": "08",
    "DTMN21": "0807",
    "DTMNFR21": "080708",
    "DTMNFRSEC21": "080708030",
    "SECNUM21": "030",
    "SSNUM21": "10",
    "SECSSNUM21": "03010",
    "OBJECTID_1": 67431,
    "DT": "08",
    "CC": "07",
    "fr": "08",
    "SEC": "030",
    "SS": "10"
  },
  "addresses": [
    {
      "id": "pt.ine.add.PTCONT.1495003",
      "street": "URB SITA NA ATALAIA",
      "house": "",
      "postcode": "8600-319",
      "city": "LAGOS",
      "lon": "-8.693634084172585",
      "lat": "37.09715643733338"
    },
    {
      "id": "pt.ine.add.PTCONT.1518904",
      "street": "R JOAO CRUZ CARNEIRO ALMEIDA",
      "house": "17",
      "postcode": "8600-281",
      "city": "LAGOS",
      "lon": "-8.692961110495057",
      "lat": "37.09742092267069"
    },
    {
      "id": "pt.ine.add.PTCONT.1518905",
      "street": "R JOAO CRUZ CARNEIRO ALMEIDA",
      "house": "17",
      "postcode": "8600-281",
      "city": "LAGOS",
      "lon": "-8.692961110495057",
      "lat": "37.09742092267069"
    },
    {
      "id": "pt.ine.add.PTCONT.1523576",
      "street": "",
      "house": "",
      "postcode": "8600-328",
      "city": "LAGOS",
      "lon": "-8.690583755357398",
      "lat": "37.096891489367316"
    },
    {
      "id": "pt.ine.add.PTCONT.1526773",
      "street": "R JOÃO DA CRUZ CARNEIRO DE ALMEIDA",
      "house": "22",
      "postcode": "8600-281",
      "city": "LAGOS",
      "lon": "-8.693394951201721",
      "lat": "37.09676110290381"
    },
    {
      "id": "pt.ine.add.PTCONT.1594953",
      "street": "R JOÃO DA CRUZ CARNEIRO DE ALMEIDA CHACARA",
      "house": "20",
      "postcode": "8600-281",
      "city": "LAGOS",
      "lon": "-8.69314768947379",
      "lat": "37.09678930259865"
    },
    {
      "id": "pt.ine.add.PTCONT.1623479",
      "street": "R JOÃO DA CRUZ CARNEIRO DE ALMEIDA",
      "house": "24",
      "postcode": "8600-281",
      "city": "LAGOS",
      "lon": "-8.693567789179024",
      "lat": "37.09731894071712"
    },
    {
      "id": "pt.ine.add.PTCONT.1630175",
      "street": "ESTR ATALAIA",
      "house": "16",
      "postcode": "8600-329",
      "city": "LAGOS",
      "lon": "-8.693276792864443",
      "lat": "37.09751854796829"
    },
    {
      "id": "pt.ine.add.PTCONT.1698824",
      "street": "R JOÃO DA CRUZ CARNEIRO DE ALMEIDA",
      "house": "18",
      "postcode": "8600-281",
      "city": "LAGOS",
      "lon": "-8.692982281129812",
      "lat": "37.09724061156781"
    },
    {
      "id": "pt.ine.add.PTCONT.1714602",
      "street": "",
      "house": "",
      "postcode": "8600-328",
      "city": "LAGOS",
      "lon": "-8.692288505053055",
      "lat": "37.09314407988658"
    },
    {
      "id": "pt.ine.add.PTCONT.1751152",
      "street": "R JOÃO DA CRUZ CARNEIRO DE ALMEIDA",
      "house": "23",
      "postcode": "8600-281",
      "city": "LAGOS",
      "lon": "-8.693543898912447",
      "lat": "37.09712983192311"
    },
    {
      "id": "pt.ine.add.PTCONT.1760294",
      "street": "ESTR ATALAIA",
      "house": "",
      "postcode": "8600-329",
      "city": "LAGOS",
      "lon": "-8.694256544986274",
      "lat": "37.096144310898865"
    },
    {
      "id": "pt.ine.add.PTCONT.1836587",
      "street": "ESTR ATALAIA",
      "house": "",
      "postcode": "8600-329",
      "city": "LAGOS",
      "lon": "-8.69313162572202",
      "lat": "37.097663402547035"
    }
  ]
}