{
  "data": {
    "distrito": "Braga",
    "concelho": "Braga",
    "freguesia": "Lamas",
    "OBJECTID": 1313,
    "BGRI2021": "03032200112",
    "DT21": "03",
    "DTMN21": "0303",
    "DTMNFR21": "030322",
    "DTMNFRSEC21": "030322001",
    "SECNUM21": "001",
    "SSNUM21": "12",
    "SECSSNUM21": "00112",
    "OBJECTID_1": 22310,
    "DT": "03",
    "CC": "03",
    "fr": "22",
    "SEC": "001",
    "SS": "12"
  },
  "addresses": [
    {
      "id": "pt.ine.add.PTCONT.515450",
      "street": "AV ESTRADA",
      "house": "31",
      "postcode": "4705-480",
      "city": "LAMAS BRG",
      "lon": "-8.43440395604868",
      "lat": "41.49753100847927"
    },
    {
      "id": "pt.ine.add.PTCONT.515451",
      "street": "AV ESTRADA",
      "house": "31",
      "postcode": "4705-480",
      "city": "LAMAS BRG",
      "lon": "-8.43440395604868",
      "lat": "41.49753100847927"
    },
    {
      "id": "pt.ine.add.PTCONT.515452",
      "street": "AV ESTRADA",
      "house": "31",
      "postcode": "4705-480",
      "city": "LAMAS BRG",
      "lon": "-8.43440395604868",
      "lat": "41.49753100847927"
    },
    {
      "id": "pt.ine.add.PTCONT.521052",
      "street": "R FÁBRICA",
      "house": "8",
      "postcode": "4705-480",
      "city": "LAMAS BRG",
      "lon": "-8.434009665627805",
      "lat": "41.49773012514428"
    },
    {
      "id": "pt.ine.add.PTCONT.542759",
      "street": "R VALADOS",
      "house": "4",
      "postcode": "4705-480",
      "city": "LAMAS BRG",
      "lon": "-8.434618446687708",
      "lat": "41.49988044809038"
    },
    {
      "id": "pt.ine.add.PTCONT.577694",
      "street": "AV ESTRADA",
      "house": "41",
      "postcode": "4705-480",
      "city": "LAMAS BRG",
      "lon": "-8.434149125134336",
      "lat": "41.496811368517655"
    },
    {
      "id": "pt.ine.add.PTCONT.625512",
      "street": "AV ESTRADA",
      "house": "NO 17",
      "postcode": "4705-480",
      "city": "LAMAS BRG",
      "lon": "-8.435188042510438",
      "lat": "41.498744470065596"
    },
    {
      "id": "pt.ine.add.PTCONT.637060",
      "street": "AV ESTRADA",
      "house": "33",
      "postcode": "4705-480",
      "city": "LAMAS BRG",
      "lon": "-8.434403163218265",
      "lat": "41.49735993759874"
    },
    {
      "id": "pt.ine.add.PTCONT.637061",
      "street": "AV ESTRADA",
      "house": "33",
      "postcode": "4705-480",
      "city": "LAMAS BRG",
      "lon": "-8.434403163218265",
      "lat": "41.49735993759874"
    },
    {
      "id": "pt.ine.add.PTCONT.637062",
      "street": "AV ESTRADA",
      "house": "33",
      "postcode": "4705-480",
      "city": "LAMAS BRG",
      "lon": "-8.434403163218265",
      "lat": "41.49735993759874"
    },
    {
      "id": "pt.ine.add.PTCONT.637063",
      "street": "AV ESTRADA",
      "house": "33",
      "postcode": "4705-480",
      "city": "LAMAS BRG",
      "lon": "-8.434403163218265",
      "lat": "41.49735993759874"
    },
    {
      "id": "pt.ine.add.PTCONT.637229",
      "street": "AV ESTRADA",
      "house": "33",
      "postcode": "4705-480",
      "city": "LAMAS BRG",
      "lon": "-8.434403163218265",
      "lat": "41.49735993759874"
    },
    {
      "id": "pt.ine.add.PTCONT.641496",
      "street": "PIJURADA",
      "house": "",
      "postcode": "4705-480",
      "city": "LAMAS BRG",
      "lon": "-8.434644111869234",
      "lat": "41.5002495380725"
    },
    {
      "id": "pt.ine.add.PTCONT.665682",
      "street": "AV ESTRADA",
      "house": "21",
      "postcode": "4705-480",
      "city": "LAMAS BRG",
      "lon": "-8.43512586088262",
      "lat": "41.49824942226455"
    },
    {
      "id": "pt.ine.add.PTCONT.665683",
      "street": "AV ESTRADA",
      "house": "21",
      "postcode": "4705-480",
      "city": "LAMAS BRG",
      "lon": "-8.43512586088262",
      "lat": "41.49824942226455"
    },
    {
      "id": "pt.ine.add.PTCONT.665684",
      "street": "AV ESTRADA",
      "house": "21",
      "postcode": "4705-480",
      "city": "LAMAS BRG",
      "lon": "-8.43512586088262",
      "lat": "41.49824942226455"
    },
    {
      "id": "pt.ine.add.PTCONT.667896",
      "street": "AV ESTRADA",
      "house": "21",
      "postcode": "4705-480",
      "city": "LAMAS BRG",
      "lon": "-8.43512586088262",
      "lat": "41.49824942226455"
    },
    {
      "id": "pt.ine.add.PTCONT.680012",
      "street": "R VALADOS",
      "house": "1",
      "postcode": "4705-480",
      "city": "LAMAS BRG",
      "lon": "-8.43497999677823",
      "lat": "41.500365706857544"
    },
    {
      "id": "pt.ine.add.PTCONT.725241",
      "street": "AV ESTRADA LAMAS",
      "house": "33",
      "postcode": "4705-480",
      "city": "LAMAS BRG",
      "lon": "-8.434502226634773",
      "lat": "41.498061977529964"
    },
    {
      "id": "pt.ine.add.PTCONT.727209",
      "street": "R FABRICA",
      "house": "3",
      "postcode": "4705-480",
      "city": "LAMAS BRG",
      "lon": "-8.434502226634773",
      "lat": "41.498061977529964"
    },
    {
      "id": "pt.ine.add.PTCONT.736257",
      "street": "R VALA DOS LAMAS",
      "house": "",
      "postcode": "4705-480",
      "city": "LAMAS BRG",
      "lon": "-8.432438200924611",
      "lat": "41.49976909297083"
    },
    {
      "id": "pt.ine.add.PTCONT.737226",
      "street": "R VALADOS",
      "house": "25",
      "postcode": "4705-480",
      "city": "LAMAS BRG",
      "lon": "-8.432438118006427",
      "lat": "41.49975108551376"
    },
    {
      "id": "pt.ine.add.PTCONT.757937",
      "street": "AV ESTRADA",
      "house": "29",
      "postcode": "4705-480",
      "city": "LAMAS BRG",
      "lon": "-8.434380671694262",
      "lat": "41.49767513090567"
    },
    {
      "id": "pt.ine.add.PTCONT.757938",
      "street": "AV ESTRADA",
      "house": "29",
      "postcode": "4705-480",
      "city": "LAMAS BRG",
      "lon": "-8.434380671694262",
      "lat": "41.49767513090567"
    },
    {
      "id": "pt.ine.add.PTCONT.757939",
      "street": "AV ESTRADA",
      "house": "29",
      "postcode": "4705-480",
      "city": "LAMAS BRG",
      "lon": "-8.434380671694262",
      "lat": "41.49767513090567"
    },
    {
      "id": "pt.ine.add.PTCONT.757940",
      "street": "AV ESTRADA",
      "house": "29",
      "postcode": "4705-480",
      "city": "LAMAS BRG",
      "lon": "-8.434380671694262",
      "lat": "41.49767513090567"
    },
    {
      "id": "pt.ine.add.PTCONT.757941",
      "street": "AV ESTRADA",
      "house": "29",
      "postcode": "4705-480",
      "city": "LAMAS BRG",
      "lon": "-8.434380671694262",
      "lat": "41.49767513090567"
    },
    {
      "id": "pt.ine.add.PTCONT.793437",
      "street": "AV ESTRADA",
      "house": "27",
      "postcode": "4705-480",
      "city": "LAMAS BRG",
      "lon": "-8.434668346355652",
      "lat": "41.49772840005784"
    },
    {
      "id": "pt.ine.add.PTCONT.793438",
      "street": "AV ESTRADA",
      "house": "27",
      "postcode": "4705-480",
      "city": "LAMAS BRG",
      "lon": "-8.434668346355652",
      "lat": "41.49772840005784"
    },
    {
      "id": "pt.ine.add.PTCONT.793439",
      "street": "AV ESTRADA",
      "house": "27",
      "postcode": "4705-480",
      "city": "LAMAS BRG",
      "lon": "-8.434668346355652",
      "lat": "41.49772840005784"
    },
    {
      "id": "pt.ine.add.PTCONT.793440",
      "street": "AV ESTRADA",
      "house": "27",
      "postcode": "4705-480",
      "city": "LAMAS BRG",
      "lon": "-8.434668346355652",
      "lat": "41.49772840005784"
    },
    {
      "id": "pt.ine.add.PTCONT.793441",
      "street": "AV ESTRADA",
      "house": "27",
      "postcode": "4705-480",
      "city": "LAMAS BRG",
      "lon": "-8.434668346355652",
      "lat": "41.49772840005784"
    },
    {
      "id": "pt.ine.add.PTCONT.795953",
      "street": "AV ESTRADA",
      "house": "27",
      "postcode": "4705-480",
      "city": "LAMAS BRG",
      "lon": "-8.434668346355652",
      "lat": "41.49772840005784"
    },
    {
      "id": "pt.ine.add.PTCONT.826612",
      "street": "R FÁBRICA",
      "house": "1",
      "postcode": "4705-480",
      "city": "LAMAS BRG",
      "lon": "-8.43482549706068",
      "lat": "41.49804312229193"
    },
    {
      "id": "pt.ine.add.PTCONT.826647",
      "street": "R FÁBRICA",
      "house": "1",
      "postcode": "4705-480",
      "city": "LAMAS BRG",
      "lon": "-8.43482549706068",
      "lat": "41.49804312229193"
    },
    {
      "id": "pt.ine.add.PTCONT.846341",
      "street": "AV ESTRADA",
      "house": "29",
      "postcode": "4705-480",
      "city": "LAMAS BRG",
      "lon": "-8.434380671694262",
      "lat": "41.49767513090567"
    },
    {
      "id": "pt.ine.add.PTCONT.847493",
      "street": "AV ESTRADA",
      "house": "31",
      "postcode": "4705-480",
      "city": "LAMAS BRG",
      "lon": "-8.43440395604868",
      "lat": "41.49753100847927"
    }
  ]
}