{
  "data": {
    "distrito": "Braga",
    "concelho": "Braga",
    "freguesia": "Lamas",
    "OBJECTID": 1257,
    "BGRI2021": "03032200115",
    "DT21": "03",
    "DTMN21": "0303",
    "DTMNFR21": "030322",
    "DTMNFRSEC21": "030322001",
    "SECNUM21": "001",
    "SSNUM21": "15",
    "SECSSNUM21": "00115",
    "OBJECTID_1": 21901,
    "DT": "03",
    "CC": "03",
    "fr": "22",
    "SEC": "001",
    "SS": "15"
  },
  "addresses": [
    {
      "id": "pt.ine.add.PTCONT.515449",
      "street": "R MAMOA",
      "house": "8",
      "postcode": "4705-480",
      "city": "LAMAS BRG",
      "lon": "-8.431158539130129",
      "lat": "41.502779696789695"
    },
    {
      "id": "pt.ine.add.PTCONT.592366",
      "street": "AV IGREJA",
      "house": "31",
      "postcode": "4705-480",
      "city": "LAMAS BRG",
      "lon": "-8.430460210324092",
      "lat": "41.50198016322664"
    },
    {
      "id": "pt.ine.add.PTCONT.637058",
      "street": "R MAMOA",
      "house": "14",
      "postcode": "4705-480",
      "city": "LAMAS BRG",
      "lon": "-8.430871092391886",
      "lat": "41.50278044132125"
    },
    {
      "id": "pt.ine.add.PTCONT.639460",
      "street": "R MONTE",
      "house": "1",
      "postcode": "4705-480",
      "city": "LAMAS BRG",
      "lon": "-8.430532812699996",
      "lat": "41.50214204449753"
    },
    {
      "id": "pt.ine.add.PTCONT.656604",
      "street": "R MAMOA",
      "house": "44",
      "postcode": "4705-480",
      "city": "LAMAS BRG",
      "lon": "-8.431242129973345",
      "lat": "41.5027254571504"
    },
    {
      "id": "pt.ine.add.PTCONT.668696",
      "street": "R MAMOA",
      "house": "10",
      "postcode": "4705-480",
      "city": "LAMAS BRG",
      "lon": "-8.431038604578754",
      "lat": "41.502743992198596"
    },
    {
      "id": "pt.ine.add.PTCONT.730900",
      "street": "R CRUZEIRO",
      "house": "3",
      "postcode": "4705-480",
      "city": "LAMAS BRG",
      "lon": "-8.431133346756694",
      "lat": "41.502509647109015"
    },
    {
      "id": "pt.ine.add.PTCONT.730901",
      "street": "R CRUZEIRO",
      "house": "3",
      "postcode": "4705-480",
      "city": "LAMAS BRG",
      "lon": "-8.431133346756694",
      "lat": "41.502509647109015"
    },
    {
      "id": "pt.ine.add.PTCONT.733135",
      "street": "R CRUZEIRO",
      "house": "3",
      "postcode": "4705-480",
      "city": "LAMAS BRG",
      "lon": "-8.431133346756694",
      "lat": "41.502509647109015"
    },
    {
      "id": "pt.ine.add.PTCONT.773330",
      "street": "R CRUZEIRO",
      "house": "5",
      "postcode": "4705-480",
      "city": "LAMAS BRG",
      "lon": "-8.431084407279638",
      "lat": "41.502284678098654"
    },
    {
      "id": "pt.ine.add.PTCONT.802666",
      "street": "R MAMOA",
      "house": "12",
      "postcode": "4705-480",
      "city": "LAMAS BRG",
      "lon": "-8.430979049965533",
      "lat": "41.50281617710597"
    },
    {
      "id": "pt.ine.add.PTCONT.809672",
      "street": "R MAMOA",
      "house": "16",
      "postcode": "4705-480",
      "city": "LAMAS BRG",
      "lon": "-8.430763547251509",
      "lat": "41.50283474268613"
    }
  ]
}