{
  "data": {
    "distrito": "Braga",
    "concelho": "Braga",
    "freguesia": "Lamas",
    "OBJECTID": 1260,
    "BGRI2021": "03032200116",
    "DT21": "03",
    "DTMN21": "0303",
    "DTMNFR21": "030322",
    "DTMNFRSEC21": "030322001",
    "SECNUM21": "001",
    "SSNUM21": "16",
    "SECSSNUM21": "00116",
    "OBJECTID_1": 22313,
    "DT": "03",
    "CC": "03",
    "fr": "22",
    "SEC": "001",
    "SS": "16"
  },
  "addresses": [
    {
      "id": "pt.ine.add.PTCONT.473288",
      "street": "R MONTE",
      "house": "",
      "postcode": "4705-480",
      "city": "LAMAS BRG",
      "lon": "-8.432618564874565",
      "lat": "41.502523796712396"
    },
    {
      "id": "pt.ine.add.PTCONT.497795",
      "street": "R MONTE",
      "house": "43",
      "postcode": "4705-480",
      "city": "LAMAS BRG",
      "lon": "-8.432736383158472",
      "lat": "41.50210030971868"
    },
    {
      "id": "pt.ine.add.PTCONT.527777",
      "street": "PCT PADRE SEBASTIÃO MOTA LOPES",
      "house": "1",
      "postcode": "4705-480",
      "city": "LAMAS BRG",
      "lon": "-8.432532030652933",
      "lat": "41.501938772907096"
    },
    {
      "id": "pt.ine.add.PTCONT.628158",
      "street": "AV IGREIJA",
      "house": "",
      "postcode": "4705-480",
      "city": "LAMAS BRG",
      "lon": "-8.431189597739598",
      "lat": "41.50171716404547"
    },
    {
      "id": "pt.ine.add.PTCONT.639284",
      "street": "R CRUZEIRO",
      "house": "6",
      "postcode": "4705-480",
      "city": "LAMAS BRG",
      "lon": "-8.431359090013032",
      "lat": "41.502112893313274"
    },
    {
      "id": "pt.ine.add.PTCONT.639285",
      "street": "R MONTE",
      "house": "40",
      "postcode": "4705-480",
      "city": "LAMAS BRG",
      "lon": "-8.432831284349103",
      "lat": "41.50190197812741"
    },
    {
      "id": "pt.ine.add.PTCONT.639286",
      "street": "R MONTE",
      "house": "35",
      "postcode": "4705-480",
      "city": "LAMAS BRG",
      "lon": "-8.432524574597132",
      "lat": "41.50292021003242"
    },
    {
      "id": "pt.ine.add.PTCONT.650541",
      "street": "R MONTE",
      "house": "47",
      "postcode": "4705-480",
      "city": "LAMAS BRG",
      "lon": "-8.43280762137564",
      "lat": "41.501965066620194"
    },
    {
      "id": "pt.ine.add.PTCONT.783458",
      "street": "R MONTE",
      "house": "45",
      "postcode": "4705-480",
      "city": "LAMAS BRG",
      "lon": "-8.432783875336032",
      "lat": "41.50201014765817"
    },
    {
      "id": "pt.ine.add.PTCONT.805311",
      "street": "LOTEAM AGRAS",
      "house": "",
      "postcode": "4705-480",
      "city": "LAMAS BRG",
      "lon": "-8.432578776329999",
      "lat": "41.50168654387301"
    },
    {
      "id": "pt.ine.add.PTCONT.809382",
      "street": "AV IGREIJA",
      "house": "",
      "postcode": "4705-480",
      "city": "LAMAS BRG",
      "lon": "-8.430986240528373",
      "lat": "41.50177171389991"
    },
    {
      "id": "pt.ine.add.PTCONT.814963",
      "street": "R CRUZEIRO",
      "house": "2",
      "postcode": "4705-480",
      "city": "LAMAS BRG",
      "lon": "-8.4313846550137",
      "lat": "41.50246397648756"
    },
    {
      "id": "pt.ine.add.PTCONT.843837",
      "street": "R JOSE GONÇALVES PINHEIRO",
      "house": "1",
      "postcode": "4705-480",
      "city": "LAMAS BRG",
      "lon": "-8.432400120125578",
      "lat": "41.50190310090685"
    }
  ]
}