{
  "data": {
    "distrito": "Leiria",
    "concelho": "Caldas da Rainha",
    "freguesia": "União das freguesias de Tornada e Salir do Porto",
    "OBJECTID": 287,
    "BGRI2021": "10061900210",
    "DT21": "10",
    "DTMN21": "1006",
    "DTMNFR21": "100619",
    "DTMNFRSEC21": "100619002",
    "SECNUM21": "002",
    "SSNUM21": "10",
    "SECSSNUM21": "00210",
    "OBJECTID_1": 87819,
    "DT": "10",
    "CC": "06",
    "fr": "19",
    "SEC": "002",
    "SS": "10"
  },
  "addresses": [
    {
      "id": "pt.ine.add.PTCONT.1991372",
      "street": "R DR GAGLIARDINI GRAÇA",
      "house": "11",
      "postcode": "2500-672",
      "city": "SALIR DO PORTO",
      "lon": "-9.152291582141432",
      "lat": "39.49628194491925"
    },
    {
      "id": "pt.ine.add.PTCONT.1991373",
      "street": "R DR GAGLIARDINI GRAÇA",
      "house": "11",
      "postcode": "2500-672",
      "city": "SALIR DO PORTO",
      "lon": "-9.152291582141432",
      "lat": "39.49628194491925"
    },
    {
      "id": "pt.ine.add.PTCONT.2021122",
      "street": "R ANGOLA",
      "house": "12",
      "postcode": "2500-897",
      "city": "SALIR DO PORTO",
      "lon": "-9.152445320139739",
      "lat": "39.49646073123737"
    },
    {
      "id": "pt.ine.add.PTCONT.2101561",
      "street": "R DR GAGLIARDINI GRAÇA",
      "house": "",
      "postcode": "2500-672",
      "city": "SALIR DO PORTO",
      "lon": "-9.152219210139892",
      "lat": "39.49610244518304"
    },
    {
      "id": "pt.ine.add.PTCONT.2112978",
      "street": "R ANGOLA",
      "house": "14",
      "postcode": "2500-897",
      "city": "SALIR DO PORTO",
      "lon": "-9.15232947812457",
      "lat": "39.49648876697218"
    },
    {
      "id": "pt.ine.add.PTCONT.2112979",
      "street": "R ANGOLA",
      "house": "14",
      "postcode": "2500-897",
      "city": "SALIR DO PORTO",
      "lon": "-9.15232947812457",
      "lat": "39.49648876697218"
    },
    {
      "id": "pt.ine.add.PTCONT.2113017",
      "street": "R ANGOLA",
      "house": "14",
      "postcode": "2500-897",
      "city": "SALIR DO PORTO",
      "lon": "-9.15232947812457",
      "lat": "39.49648876697218"
    },
    {
      "id": "pt.ine.add.PTCONT.2140505",
      "street": "R GEN HUMBERTO DELGADO",
      "house": "28",
      "postcode": "2500-689",
      "city": "SALIR DO PORTO",
      "lon": "-9.152000991374939",
      "lat": "39.496284491988135"
    },
    {
      "id": "pt.ine.add.PTCONT.2140506",
      "street": "R GEN HUMBERTO DELGADO",
      "house": "28",
      "postcode": "2500-689",
      "city": "SALIR DO PORTO",
      "lon": "-9.152000991374939",
      "lat": "39.496284491988135"
    },
    {
      "id": "pt.ine.add.PTCONT.2146894",
      "street": "R 25 ABRIL",
      "house": "7",
      "postcode": "2500-668",
      "city": "SALIR DO PORTO",
      "lon": "-9.152505674772879",
      "lat": "39.49661331606917"
    },
    {
      "id": "pt.ine.add.PTCONT.2146895",
      "street": "R 25 ABRIL",
      "house": "7",
      "postcode": "2500-668",
      "city": "SALIR DO PORTO",
      "lon": "-9.152505674772879",
      "lat": "39.49661331606917"
    },
    {
      "id": "pt.ine.add.PTCONT.2170893",
      "street": "R ANGOLA",
      "house": "16",
      "postcode": "2500-897",
      "city": "SALIR DO PORTO",
      "lon": "-9.15209739931794",
      "lat": "39.49651782143442"
    },
    {
      "id": "pt.ine.add.PTCONT.2266388",
      "street": "R 25 DE ABRIL",
      "house": "5A",
      "postcode": "2500-668",
      "city": "SALIR DO PORTO",
      "lon": "-9.15229684301399",
      "lat": "39.496642167092155"
    }
  ]
}