{
  "data": {
    "distrito": "Porto",
    "concelho": "Penafiel",
    "freguesia": "Penafiel",
    "OBJECTID": 779,
    "BGRI2021": "13113900316",
    "DT21": "13",
    "DTMN21": "1311",
    "DTMNFR21": "131139",
    "DTMNFRSEC21": "131139003",
    "SECNUM21": "003",
    "SSNUM21": "16",
    "SECSSNUM21": "00316",
    "OBJECTID_1": 137633,
    "DT": "13",
    "CC": "11",
    "fr": "39",
    "SEC": "003",
    "SS": "16"
  },
  "addresses": [
    {
      "id": "pt.ine.add.PTCONT.3664227",
      "street": "LG FONTE",
      "house": "61",
      "postcode": "4560-765",
      "city": "SANTA MARTA",
      "lon": "-8.259820709912693",
      "lat": "41.21655960668984"
    },
    {
      "id": "pt.ine.add.PTCONT.3839203",
      "street": "R FONTE",
      "house": "43",
      "postcode": "4560-765",
      "city": "SANTA MARTA",
      "lon": "-8.260130595869228",
      "lat": "41.216478226656754"
    },
    {
      "id": "pt.ine.add.PTCONT.3873147",
      "street": "LG FONTE",
      "house": "19",
      "postcode": "4560-765",
      "city": "SANTA MARTA",
      "lon": "-8.25979708632804",
      "lat": "41.21667668849307"
    },
    {
      "id": "pt.ine.add.PTCONT.3876158",
      "street": "R FONTE",
      "house": "44",
      "postcode": "4560-765",
      "city": "SANTA MARTA",
      "lon": "-8.260035354880129",
      "lat": "41.216559370310215"
    },
    {
      "id": "pt.ine.add.PTCONT.3904447",
      "street": "AGRA",
      "house": "645",
      "postcode": "4560-765",
      "city": "SANTA MARTA",
      "lon": "-8.258735594772057",
      "lat": "41.21657880414537"
    },
    {
      "id": "pt.ine.add.PTCONT.4098897",
      "street": "FONTE SANTA MARTA",
      "house": "625",
      "postcode": "4560-765",
      "city": "SANTA MARTA",
      "lon": "-8.258508818643302",
      "lat": "41.21647099979185"
    },
    {
      "id": "pt.ine.add.PTCONT.4196734",
      "street": "R AGRA",
      "house": "661",
      "postcode": "4560-765",
      "city": "SANTA MARTA",
      "lon": "-8.258795235630467",
      "lat": "41.2165877433608"
    },
    {
      "id": "pt.ine.add.PTCONT.4294259",
      "street": "QUELHO ABADE",
      "house": "683",
      "postcode": "4560-456",
      "city": "PENAFIEL",
      "lon": "-8.258974210084913",
      "lat": "41.21664157364471"
    },
    {
      "id": "pt.ine.add.PTCONT.4294260",
      "street": "R FONTE",
      "house": "43",
      "postcode": "4560-765",
      "city": "SANTA MARTA",
      "lon": "-8.260535266968928",
      "lat": "41.21608159066266"
    },
    {
      "id": "pt.ine.add.PTCONT.4353685",
      "street": "R AGRA",
      "house": "745",
      "postcode": "4560-765",
      "city": "SANTA MARTA",
      "lon": "-8.259451615339119",
      "lat": "41.21685715389537"
    },
    {
      "id": "pt.ine.add.PTCONT.4353686",
      "street": "R AGRA",
      "house": "",
      "postcode": "4560-765",
      "city": "SANTA MARTA",
      "lon": "-8.259451615339119",
      "lat": "41.21685715389537"
    },
    {
      "id": "pt.ine.add.PTCONT.4353687",
      "street": "R AGRA",
      "house": "745",
      "postcode": "4560-765",
      "city": "SANTA MARTA",
      "lon": "-8.259451615339119",
      "lat": "41.21685715389537"
    },
    {
      "id": "pt.ine.add.PTCONT.4353688",
      "street": "R AGRA",
      "house": "745",
      "postcode": "4560-765",
      "city": "SANTA MARTA",
      "lon": "-8.259451615339119",
      "lat": "41.21685715389537"
    },
    {
      "id": "pt.ine.add.PTCONT.4353689",
      "street": "EDF DA FONTE",
      "house": "745",
      "postcode": "4560-765",
      "city": "SANTA MARTA",
      "lon": "-8.259451615339119",
      "lat": "41.21685715389537"
    },
    {
      "id": "pt.ine.add.PTCONT.4353690",
      "street": "AGRA",
      "house": "745",
      "postcode": "4560-765",
      "city": "SANTA MARTA",
      "lon": "-8.259451615339119",
      "lat": "41.21685715389537"
    },
    {
      "id": "pt.ine.add.PTCONT.4353691",
      "street": "R AGRA",
      "house": "754",
      "postcode": "4560-765",
      "city": "SANTA MARTA",
      "lon": "-8.259451615339119",
      "lat": "41.21685715389537"
    },
    {
      "id": "pt.ine.add.PTCONT.4353692",
      "street": "AV ESTRADA SANTA MARTA",
      "house": "456",
      "postcode": "4560-765",
      "city": "SANTA MARTA",
      "lon": "-8.259451615339119",
      "lat": "41.21685715389537"
    },
    {
      "id": "pt.ine.add.PTCONT.4353693",
      "street": "R AGRA",
      "house": "745",
      "postcode": "4560-765",
      "city": "SANTA MARTA",
      "lon": "-8.259451615339119",
      "lat": "41.21685715389537"
    },
    {
      "id": "pt.ine.add.PTCONT.4353694",
      "street": "R AGRA",
      "house": "",
      "postcode": "4560-765",
      "city": "SANTA MARTA",
      "lon": "-8.259451615339119",
      "lat": "41.21685715389537"
    },
    {
      "id": "pt.ine.add.PTCONT.4353695",
      "street": "R AGRA",
      "house": "",
      "postcode": "4560-765",
      "city": "SANTA MARTA",
      "lon": "-8.259451615339119",
      "lat": "41.21685715389537"
    }
  ]
}