{
  "data": {
    "distrito": "Viseu",
    "concelho": "Sátão",
    "freguesia": "Rio de Moinhos",
    "OBJECTID": 38,
    "BGRI2021": "18170700106",
    "DT21": "18",
    "DTMN21": "1817",
    "DTMNFR21": "181707",
    "DTMNFRSEC21": "181707001",
    "SECNUM21": "001",
    "SSNUM21": "06",
    "SECSSNUM21": "00106",
    "OBJECTID_1": 197555,
    "DT": "18",
    "CC": "17",
    "fr": "07",
    "SEC": "001",
    "SS": "06"
  },
  "addresses": [
    {
      "id": "pt.ine.add.PTCONT.5446148",
      "street": "R CARREIRAS",
      "house": "2",
      "postcode": "3560-099",
      "city": "RIO DE MOINHOS SAT",
      "lon": "-7.706464309944804",
      "lat": "40.70386987036966"
    },
    {
      "id": "pt.ine.add.PTCONT.5449068",
      "street": "R BARROCA",
      "house": "3",
      "postcode": "3560-099",
      "city": "RIO DE MOINHOS SAT",
      "lon": "-7.706617615534066",
      "lat": "40.70395148239693"
    },
    {
      "id": "pt.ine.add.PTCONT.5449070",
      "street": "R CAPELA",
      "house": "3",
      "postcode": "3560-104",
      "city": "RIO DE MOINHOS SAT",
      "lon": "-7.707165788758157",
      "lat": "40.69405693489962"
    },
    {
      "id": "pt.ine.add.PTCONT.5489627",
      "street": "R STA EUFEMIA",
      "house": "2",
      "postcode": "3560-104",
      "city": "RIO DE MOINHOS SAT",
      "lon": "-7.705960775727853",
      "lat": "40.69378233046153"
    },
    {
      "id": "pt.ine.add.PTCONT.5493973",
      "street": "R CAPELA",
      "house": "5",
      "postcode": "3560-104",
      "city": "RIO DE MOINHOS SAT",
      "lon": "-7.707105831942561",
      "lat": "40.69418278475547"
    },
    {
      "id": "pt.ine.add.PTCONT.5500392",
      "street": "TV STA EUFEMIA",
      "house": "8",
      "postcode": "3560-104",
      "city": "RIO DE MOINHOS SAT",
      "lon": "-7.707239812216875",
      "lat": "40.69357993887064"
    },
    {
      "id": "pt.ine.add.PTCONT.5509915",
      "street": "R EUCALIPTOS",
      "house": "",
      "postcode": "3560-104",
      "city": "RIO DE MOINHOS SAT",
      "lon": "-7.7066613176332295",
      "lat": "40.69524374263152"
    },
    {
      "id": "pt.ine.add.PTCONT.5527253",
      "street": "R CARREIRAS",
      "house": "4",
      "postcode": "3560-099",
      "city": "RIO DE MOINHOS SAT",
      "lon": "-7.706476602125242",
      "lat": "40.70379787530264"
    },
    {
      "id": "pt.ine.add.PTCONT.5537617",
      "street": "R CAPELA",
      "house": "1",
      "postcode": "3560-104",
      "city": "RIO DE MOINHOS SAT",
      "lon": "-7.707298048388867",
      "lat": "40.69372423492281"
    },
    {
      "id": "pt.ine.add.PTCONT.5558503",
      "street": "R PROF DR LUCIO DE ALMEIDA",
      "house": "4",
      "postcode": "3560-099",
      "city": "RIO DE MOINHOS SAT",
      "lon": "-7.706593490944211",
      "lat": "40.70402343376189"
    },
    {
      "id": "pt.ine.add.PTCONT.5568108",
      "street": "TV PROF DR LUCIO DE ALMEIDA",
      "house": "",
      "postcode": "3560-099",
      "city": "RIO DE MOINHOS SAT",
      "lon": "-7.7066739064559995",
      "lat": "40.70440194341084"
    },
    {
      "id": "pt.ine.add.PTCONT.5601405",
      "street": "R EUCALIPTOS",
      "house": "32",
      "postcode": "3560-104",
      "city": "RIO DE MOINHOS SAT",
      "lon": "-7.705686367377815",
      "lat": "40.69414151793974"
    },
    {
      "id": "pt.ine.add.PTCONT.5603140",
      "street": "R BARROCA",
      "house": "1",
      "postcode": "3560-099",
      "city": "RIO DE MOINHOS SAT",
      "lon": "-7.70662979268736",
      "lat": "40.70389749701301"
    },
    {
      "id": "pt.ine.add.PTCONT.5606657",
      "street": "R CAPELA",
      "house": "7",
      "postcode": "3560-104",
      "city": "RIO DE MOINHOS SAT",
      "lon": "-7.706986319231864",
      "lat": "40.69437145030821"
    },
    {
      "id": "pt.ine.add.PTCONT.5606658",
      "street": "R CAPELA",
      "house": "9",
      "postcode": "3560-104",
      "city": "RIO DE MOINHOS SAT",
      "lon": "-7.706950138239037",
      "lat": "40.694479377677"
    },
    {
      "id": "pt.ine.add.PTCONT.5634116",
      "street": "QTA ENCOSTEIRA",
      "house": "24",
      "postcode": "3560-107",
      "city": "RIO DE MOINHOS SAT",
      "lon": "-7.705198694776504",
      "lat": "40.69824602493586"
    },
    {
      "id": "pt.ine.add.PTCONT.5648054",
      "street": "R EUCALIPTOS",
      "house": "30",
      "postcode": "3560-104",
      "city": "RIO DE MOINHOS SAT",
      "lon": "-7.706214844245175",
      "lat": "40.69475581848695"
    },
    {
      "id": "pt.ine.add.PTCONT.5654644",
      "street": "QTA LAMEIRAS",
      "house": "9",
      "postcode": "3560-108",
      "city": "RIO DE MOINHOS SAT",
      "lon": "-7.706134866289485",
      "lat": "40.69987040358169"
    }
  ]
}