{
  "data": {
    "distrito": "Setúbal",
    "concelho": "Seixal",
    "freguesia": "União das freguesias do Seixal, Arrentela e Aldeia de Paio Pires",
    "OBJECTID": 194,
    "BGRI2021": "15100700902",
    "DT21": "15",
    "DTMN21": "1510",
    "DTMNFR21": "151007",
    "DTMNFRSEC21": "151007009",
    "SECNUM21": "009",
    "SSNUM21": "02",
    "SECSSNUM21": "00902",
    "OBJECTID_1": 168295,
    "DT": "15",
    "CC": "10",
    "fr": "07",
    "SEC": "009",
    "SS": "02"
  },
  "addresses": [
    {
      "id": "pt.ine.add.PTCONT.4713320",
      "street": "AV 25 DE ABRIL",
      "house": "153",
      "postcode": "2840-605",
      "city": "ALDEIA DE PAIO PIRES",
      "lon": "-9.094004142826726",
      "lat": "38.60986410260394"
    },
    {
      "id": "pt.ine.add.PTCONT.4715614",
      "street": "R VENCESLAU SOUSA LIMA",
      "house": "15",
      "postcode": "2840-203",
      "city": "SEIXAL",
      "lon": "-9.094616818350218",
      "lat": "38.609318585303186"
    },
    {
      "id": "pt.ine.add.PTCONT.4729851",
      "street": "AV 25 DE ABRIL",
      "house": "159",
      "postcode": "2840-605",
      "city": "ALDEIA DE PAIO PIRES",
      "lon": "-9.094090210723488",
      "lat": "38.60943100828132"
    },
    {
      "id": "pt.ine.add.PTCONT.4768325",
      "street": "AV 25 DE ABRIL",
      "house": "155",
      "postcode": "2840-605",
      "city": "ALDEIA DE PAIO PIRES",
      "lon": "-9.094048258253828",
      "lat": "38.60972861922711"
    },
    {
      "id": "pt.ine.add.PTCONT.4774327",
      "street": "R VENCESLAU SOUSA LIMA",
      "house": "9",
      "postcode": "2840-203",
      "city": "SEIXAL",
      "lon": "-9.0945990290757",
      "lat": "38.60970607860744"
    },
    {
      "id": "pt.ine.add.PTCONT.4779905",
      "street": "R QUINTA DO ALMEIDA",
      "house": "3",
      "postcode": "2840-197",
      "city": "SEIXAL",
      "lon": "-9.094417642462211",
      "lat": "38.60987872232453"
    },
    {
      "id": "pt.ine.add.PTCONT.4903767",
      "street": "R VENCESLAU SOUSA LIMA",
      "house": "",
      "postcode": "2840-203",
      "city": "SEIXAL",
      "lon": "-9.094608825382563",
      "lat": "38.60957988509427"
    },
    {
      "id": "pt.ine.add.PTCONT.5024951",
      "street": "R VENCESLAU SOUSA LIMA",
      "house": "7",
      "postcode": "2840-203",
      "city": "SEIXAL",
      "lon": "-9.094590314712217",
      "lat": "38.609913335876364"
    }
  ]
}