{
  "data": {
    "distrito": "Lisboa",
    "concelho": "Sintra",
    "freguesia": "União das freguesias de São João das Lampas e Terrugem",
    "OBJECTID": 2333,
    "BGRI2021": "11112700803",
    "DT21": "11",
    "DTMN21": "1111",
    "DTMNFR21": "111127",
    "DTMNFRSEC21": "111127008",
    "SECNUM21": "008",
    "SSNUM21": "03",
    "SECSSNUM21": "00803",
    "OBJECTID_1": 113452,
    "DT": "11",
    "CC": "11",
    "fr": "27",
    "SEC": "008",
    "SS": "03"
  },
  "addresses": [
    {
      "id": "pt.ine.add.PTCONT.2354041",
      "street": "R COXOS",
      "house": "3",
      "postcode": "2705-661",
      "city": "SÃO JOÃO DAS LAMPAS",
      "lon": "-9.437406005101472",
      "lat": "38.86569912879929"
    },
    {
      "id": "pt.ine.add.PTCONT.2382495",
      "street": "R BAIRRO DO JUNCAL DA FONTE",
      "house": "7",
      "postcode": "2705-654",
      "city": "SÃO JOÃO DAS LAMPAS",
      "lon": "-9.435424064645584",
      "lat": "38.86568521959165"
    },
    {
      "id": "pt.ine.add.PTCONT.2443265",
      "street": "R REGATEIRAS",
      "house": "",
      "postcode": "2705-689",
      "city": "SÃO JOÃO DAS LAMPAS",
      "lon": "-9.436138741241738",
      "lat": "38.865704269276236"
    },
    {
      "id": "pt.ine.add.PTCONT.2481801",
      "street": "R REGATEIRAS",
      "house": "23",
      "postcode": "2705-689",
      "city": "SÃO JOÃO DAS LAMPAS",
      "lon": "-9.437571551697651",
      "lat": "38.86593147352253"
    },
    {
      "id": "pt.ine.add.PTCONT.2641943",
      "street": "R BAIRRO DO JUNCAL DA FONTE",
      "house": "",
      "postcode": "2705-654",
      "city": "SÃO JOÃO DAS LAMPAS",
      "lon": "-9.434458759760796",
      "lat": "38.86582208572521"
    },
    {
      "id": "pt.ine.add.PTCONT.2661698",
      "street": "R BAIRRO DO JUNCAL DA FONTE QUINTA DA ARMADA",
      "house": "9",
      "postcode": "2705-654",
      "city": "SÃO JOÃO DAS LAMPAS",
      "lon": "-9.434755957379043",
      "lat": "38.86569266881843"
    },
    {
      "id": "pt.ine.add.PTCONT.2661699",
      "street": "R COXOS",
      "house": "7",
      "postcode": "2705-661",
      "city": "SÃO JOÃO DAS LAMPAS",
      "lon": "-9.436781511744968",
      "lat": "38.86494046835466"
    },
    {
      "id": "pt.ine.add.PTCONT.2714679",
      "street": "R BAIRRO DO JUNCAL DA FONTE",
      "house": "8",
      "postcode": "2705-654",
      "city": "SÃO JOÃO DAS LAMPAS",
      "lon": "-9.435136908840821",
      "lat": "38.86573345907858"
    },
    {
      "id": "pt.ine.add.PTCONT.2930541",
      "street": "R COXOS",
      "house": "3",
      "postcode": "2705-661",
      "city": "SÃO JOÃO DAS LAMPAS",
      "lon": "-9.43711506637999",
      "lat": "38.86554024383324"
    },
    {
      "id": "pt.ine.add.PTCONT.2937008",
      "street": "R CARREGADOURO SOLAR DO MAGOITO",
      "house": "2",
      "postcode": "2705-658",
      "city": "SÃO JOÃO DAS LAMPAS",
      "lon": "-9.434480509222139",
      "lat": "38.865119261331515"
    },
    {
      "id": "pt.ine.add.PTCONT.3003413",
      "street": "R BAIRRO DO JUNCAL DA FONTE",
      "house": "",
      "postcode": "2705-654",
      "city": "SÃO JOÃO DAS LAMPAS",
      "lon": "-9.434114827861805",
      "lat": "38.86591599272944"
    },
    {
      "id": "pt.ine.add.PTCONT.3003414",
      "street": "R BAIRRO DO JUNCAL DA FONTE",
      "house": "",
      "postcode": "2705-654",
      "city": "SÃO JOÃO DAS LAMPAS",
      "lon": "-9.434114827861805",
      "lat": "38.86591599272944"
    },
    {
      "id": "pt.ine.add.PTCONT.3031650",
      "street": "R CARREGADOURO",
      "house": "2A",
      "postcode": "2705-658",
      "city": "SÃO JOÃO DAS LAMPAS",
      "lon": "-9.435442337398845",
      "lat": "38.865423799438695"
    },
    {
      "id": "pt.ine.add.PTCONT.3438769",
      "street": "R REGATEIRAS",
      "house": "",
      "postcode": "2705-689",
      "city": "SÃO JOÃO DAS LAMPAS",
      "lon": "-9.436582058525046",
      "lat": "38.86600557519766"
    }
  ]
}