{
  "data": {
    "distrito": "Évora",
    "concelho": "Évora",
    "freguesia": "Canaviais",
    "OBJECTID": 1136,
    "BGRI2021": "07051500107",
    "DT21": "07",
    "DTMN21": "0705",
    "DTMNFR21": "070515",
    "DTMNFRSEC21": "070515001",
    "SECNUM21": "001",
    "SSNUM21": "07",
    "SECSSNUM21": "00107",
    "OBJECTID_1": 61386,
    "DT": "07",
    "CC": "05",
    "fr": "15",
    "SEC": "001",
    "SS": "07"
  },
  "addresses": [
    {
      "id": "pt.ine.add.PTCONT.1375458",
      "street": "R DOS CAÇADORES",
      "house": "52-54",
      "postcode": "7005-459",
      "city": "ÉVORA",
      "lon": "-7.901208493260383",
      "lat": "38.61882251805338"
    },
    {
      "id": "pt.ine.add.PTCONT.1375942",
      "street": "R DOS CAÇADORES",
      "house": "52-54",
      "postcode": "7005-459",
      "city": "ÉVORA",
      "lon": "-7.901208493260383",
      "lat": "38.61882251805338"
    },
    {
      "id": "pt.ine.add.PTCONT.1379101",
      "street": "R BOA ESPERANCA",
      "house": "47",
      "postcode": "7005-349",
      "city": "ÉVORA",
      "lon": "-7.900966695514523",
      "lat": "38.61902923008179"
    },
    {
      "id": "pt.ine.add.PTCONT.1379611",
      "street": "R BOA ESPERANCA",
      "house": "49",
      "postcode": "7005-349",
      "city": "ÉVORA",
      "lon": "-7.900966695514523",
      "lat": "38.61902923008179"
    },
    {
      "id": "pt.ine.add.PTCONT.1386887",
      "street": "R BOA ESPERANCA",
      "house": "51",
      "postcode": "7005-349",
      "city": "ÉVORA",
      "lon": "-7.901138583473219",
      "lat": "38.61913767086789"
    },
    {
      "id": "pt.ine.add.PTCONT.1387039",
      "street": "R BOA ESPERANCA",
      "house": "53",
      "postcode": "7005-349",
      "city": "ÉVORA",
      "lon": "-7.901138583473219",
      "lat": "38.61913767086789"
    },
    {
      "id": "pt.ine.add.PTCONT.1388800",
      "street": "R BOA ESPERANCA",
      "house": "55",
      "postcode": "7005-349",
      "city": "ÉVORA",
      "lon": "-7.901287478064837",
      "lat": "38.61925507417338"
    },
    {
      "id": "pt.ine.add.PTCONT.1388801",
      "street": "R BOA ESPERANCA",
      "house": "57",
      "postcode": "7005-349",
      "city": "ÉVORA",
      "lon": "-7.901287478064837",
      "lat": "38.61925507417338"
    },
    {
      "id": "pt.ine.add.PTCONT.1404693",
      "street": "R BOA ESPERANCA",
      "house": "43",
      "postcode": "7005-349",
      "city": "ÉVORA",
      "lon": "-7.900817743802535",
      "lat": "38.61892984290201"
    },
    {
      "id": "pt.ine.add.PTCONT.1404694",
      "street": "R BOA ESPERANCA",
      "house": "45",
      "postcode": "7005-349",
      "city": "ÉVORA",
      "lon": "-7.900817743802535",
      "lat": "38.61892984290201"
    },
    {
      "id": "pt.ine.add.PTCONT.1416980",
      "street": "R CACADORES",
      "house": "48",
      "postcode": "7005-459",
      "city": "ÉVORA",
      "lon": "-7.901048088304826",
      "lat": "38.61871410013865"
    },
    {
      "id": "pt.ine.add.PTCONT.1416981",
      "street": "R CACADORES",
      "house": "50",
      "postcode": "7005-459",
      "city": "ÉVORA",
      "lon": "-7.901048088304826",
      "lat": "38.61871410013865"
    },
    {
      "id": "pt.ine.add.PTCONT.1428525",
      "street": "R DOS CAÇADORES",
      "house": "56-58",
      "postcode": "7005-459",
      "city": "ÉVORA",
      "lon": "-7.901368898699177",
      "lat": "38.61893093574769"
    },
    {
      "id": "pt.ine.add.PTCONT.1436420",
      "street": "R CACADORES",
      "house": "60A",
      "postcode": "7005-459",
      "city": "ÉVORA",
      "lon": "-7.901483461891874",
      "lat": "38.619012237509274"
    },
    {
      "id": "pt.ine.add.PTCONT.1436920",
      "street": "R CAÇADORES",
      "house": "60",
      "postcode": "7005-459",
      "city": "ÉVORA",
      "lon": "-7.901483461891874",
      "lat": "38.619012237509274"
    },
    {
      "id": "pt.ine.add.PTCONT.1447706",
      "street": "R BOA ESPERANCA",
      "house": "59",
      "postcode": "7005-349",
      "city": "ÉVORA",
      "lon": "-7.901447913560067",
      "lat": "38.6193544834874"
    },
    {
      "id": "pt.ine.add.PTCONT.1448287",
      "street": "R BOA ESPERANÇA",
      "house": "59 61",
      "postcode": "7005-349",
      "city": "ÉVORA",
      "lon": "-7.901447913560067",
      "lat": "38.6193544834874"
    },
    {
      "id": "pt.ine.add.PTCONT.1465647",
      "street": "R DOS CAÇADORES",
      "house": "56-58",
      "postcode": "7005-459",
      "city": "ÉVORA",
      "lon": "-7.901368898699177",
      "lat": "38.61893093574769"
    }
  ]
}