{
  "data": {
    "distrito": "Viseu",
    "concelho": "Lamego",
    "freguesia": "Lazarim",
    "OBJECTID": 849,
    "BGRI2021": "18051100106",
    "DT21": "18",
    "DTMN21": "1805",
    "DTMNFR21": "180511",
    "DTMNFRSEC21": "180511001",
    "SECNUM21": "001",
    "SSNUM21": "06",
    "SECSSNUM21": "00106",
    "OBJECTID_1": 191148,
    "DT": "18",
    "CC": "05",
    "fr": "11",
    "SEC": "001",
    "SS": "06"
  },
  "addresses": [
    {
      "id": "pt.ine.add.PTCONT.5432545",
      "street": "R SENHORA DA ENCARNAÇÃO",
      "house": "",
      "postcode": "5100-583",
      "city": "LAZARIM",
      "lon": "-7.849892919811207",
      "lat": "41.014977807704135"
    },
    {
      "id": "pt.ine.add.PTCONT.5438232",
      "street": "R CALVÁRIO",
      "house": "",
      "postcode": "5100-583",
      "city": "LAZARIM",
      "lon": "-7.850062052210125",
      "lat": "41.014347901330616"
    },
    {
      "id": "pt.ine.add.PTCONT.5442181",
      "street": "R CALVÁRIO",
      "house": "",
      "postcode": "5100-583",
      "city": "LAZARIM",
      "lon": "-7.8501454998528475",
      "lat": "41.014294078625504"
    },
    {
      "id": "pt.ine.add.PTCONT.5469117",
      "street": "R SENHORA DA ENCARNAÇÃO",
      "house": "",
      "postcode": "5100-583",
      "city": "LAZARIM",
      "lon": "-7.849893382582838",
      "lat": "41.014869753677544"
    },
    {
      "id": "pt.ine.add.PTCONT.5471563",
      "street": "R FIDALGO DO CASTELO",
      "house": "",
      "postcode": "5100-583",
      "city": "LAZARIM",
      "lon": "-7.848933653296912",
      "lat": "41.01412000997972"
    },
    {
      "id": "pt.ine.add.PTCONT.5484241",
      "street": "R CALVÁRIO",
      "house": "",
      "postcode": "5100-583",
      "city": "LAZARIM",
      "lon": "-7.850085520044873",
      "lat": "41.01441999573815"
    },
    {
      "id": "pt.ine.add.PTCONT.5489002",
      "street": "R CALVÁRIO",
      "house": "",
      "postcode": "5100-583",
      "city": "LAZARIM",
      "lon": "-7.850228639218053",
      "lat": "41.01431229188697"
    },
    {
      "id": "pt.ine.add.PTCONT.5489003",
      "street": "R CALVÁRIO",
      "house": "",
      "postcode": "5100-583",
      "city": "LAZARIM",
      "lon": "-7.850312895310427",
      "lat": "41.01406937448195"
    },
    {
      "id": "pt.ine.add.PTCONT.5502010",
      "street": "R CALVÁRIO",
      "house": "",
      "postcode": "5100-583",
      "city": "LAZARIM",
      "lon": "-7.850180817305703",
      "lat": "41.0143752067008"
    },
    {
      "id": "pt.ine.add.PTCONT.5504051",
      "street": "R COSTINHA",
      "house": "",
      "postcode": "5100-583",
      "city": "LAZARIM",
      "lon": "-7.849739029424857",
      "lat": "41.014824351334774"
    },
    {
      "id": "pt.ine.add.PTCONT.5505426",
      "street": "R FIDALGO CASTELO",
      "house": "",
      "postcode": "5100-583",
      "city": "LAZARIM",
      "lon": "-7.848933653296912",
      "lat": "41.01412000997972"
    },
    {
      "id": "pt.ine.add.PTCONT.5512325",
      "street": "R CALVÁRIO",
      "house": "",
      "postcode": "5100-583",
      "city": "LAZARIM",
      "lon": "-7.848933653296912",
      "lat": "41.01412000997972"
    },
    {
      "id": "pt.ine.add.PTCONT.5516735",
      "street": "R CALVÁRIO",
      "house": "",
      "postcode": "5100-583",
      "city": "LAZARIM",
      "lon": "-7.848933653296912",
      "lat": "41.01412000997972"
    },
    {
      "id": "pt.ine.add.PTCONT.5552641",
      "street": "R EIRA VELHA",
      "house": "",
      "postcode": "5100-583",
      "city": "LAZARIM",
      "lon": "-7.850045731681579",
      "lat": "41.01538338991702"
    },
    {
      "id": "pt.ine.add.PTCONT.5556378",
      "street": "R MOINHOS",
      "house": "",
      "postcode": "5100-583",
      "city": "LAZARIM",
      "lon": "-7.849974170840924",
      "lat": "41.01543724173742"
    },
    {
      "id": "pt.ine.add.PTCONT.5569287",
      "street": "R CALVÁRIO",
      "house": "",
      "postcode": "5100-583",
      "city": "LAZARIM",
      "lon": "-7.848933653296912",
      "lat": "41.01412000997972"
    },
    {
      "id": "pt.ine.add.PTCONT.5574727",
      "street": "R COSTINHA",
      "house": "",
      "postcode": "5100-583",
      "city": "LAZARIM",
      "lon": "-7.8496429978491165",
      "lat": "41.015040225537795"
    },
    {
      "id": "pt.ine.add.PTCONT.5589631",
      "street": "R CALVÁRIO",
      "house": "",
      "postcode": "5100-583",
      "city": "LAZARIM",
      "lon": "-7.850288772692773",
      "lat": "41.014150356681455"
    },
    {
      "id": "pt.ine.add.PTCONT.5602467",
      "street": "R FIDALGO DO CASTELO",
      "house": "",
      "postcode": "5100-583",
      "city": "LAZARIM",
      "lon": "-7.848933653296912",
      "lat": "41.01412000997972"
    },
    {
      "id": "pt.ine.add.PTCONT.5606030",
      "street": "R SENHORA DA ENCARNAÇÃO",
      "house": "",
      "postcode": "5100-583",
      "city": "LAZARIM",
      "lon": "-7.849990184104757",
      "lat": "41.01447378919893"
    },
    {
      "id": "pt.ine.add.PTCONT.5611782",
      "street": "R ESCOLA",
      "house": "",
      "postcode": "5100-583",
      "city": "LAZARIM",
      "lon": "-7.848933653296912",
      "lat": "41.01412000997972"
    },
    {
      "id": "pt.ine.add.PTCONT.5622963",
      "street": "TV EIRA VELHA",
      "house": "",
      "postcode": "5100-583",
      "city": "LAZARIM",
      "lon": "-7.848933653296912",
      "lat": "41.01412000997972"
    },
    {
      "id": "pt.ine.add.PTCONT.5627936",
      "street": "R EIRA VELHA",
      "house": "",
      "postcode": "5100-583",
      "city": "LAZARIM",
      "lon": "-7.848933653296912",
      "lat": "41.01412000997972"
    },
    {
      "id": "pt.ine.add.PTCONT.5645456",
      "street": "MAZES",
      "house": "",
      "postcode": "5100-588",
      "city": "LAZARIM",
      "lon": "-7.849917428830004",
      "lat": "41.014806780578226"
    },
    {
      "id": "pt.ine.add.PTCONT.5651349",
      "street": "R GRANJAL",
      "house": "",
      "postcode": "5100-583",
      "city": "LAZARIM",
      "lon": "-7.849834674651343",
      "lat": "41.01469852206755"
    },
    {
      "id": "pt.ine.add.PTCONT.5656715",
      "street": "R CALVÁRIO",
      "house": "",
      "postcode": "5100-583",
      "city": "LAZARIM",
      "lon": "-7.8504440098910875",
      "lat": "41.01398865469869"
    },
    {
      "id": "pt.ine.add.PTCONT.5663414",
      "street": "R SENHORA DA ENCARNAÇÃO",
      "house": "",
      "postcode": "5100-583",
      "city": "LAZARIM",
      "lon": "-7.850000453126538",
      "lat": "41.01485200751177"
    },
    {
      "id": "pt.ine.add.PTCONT.5667569",
      "street": "R MOINHOS",
      "house": "",
      "postcode": "5100-583",
      "city": "LAZARIM",
      "lon": "-7.8498225550799985",
      "lat": "41.014752519866"
    }
  ]
}