{
  "data": {
    "distrito": "Faro",
    "concelho": "Tavira",
    "freguesia": "Santa Catarina da Fonte do Bispo",
    "OBJECTID": 340,
    "BGRI2021": "08140400137",
    "DT21": "08",
    "DTMN21": "0814",
    "DTMNFR21": "081404",
    "DTMNFRSEC21": "081404001",
    "SECNUM21": "001",
    "SSNUM21": "37",
    "SECSSNUM21": "00137",
    "OBJECTID_1": 73367,
    "DT": "08",
    "CC": "14",
    "fr": "04",
    "SEC": "001",
    "SS": "37"
  },
  "addresses": [
    {
      "id": "pt.ine.add.PTCONT.1494586",
      "street": "STA CATARINA F BISPO",
      "house": "",
      "postcode": "8800-166",
      "city": "STA CATARINA FONTE BISPO",
      "lon": "-7.790023844002586",
      "lat": "37.15368835230203"
    },
    {
      "id": "pt.ine.add.PTCONT.1561972",
      "street": "R 1 DE MAIO",
      "house": "60",
      "postcode": "8800-166",
      "city": "STA CATARINA FONTE BISPO",
      "lon": "-7.789832556866645",
      "lat": "37.15366977732649"
    },
    {
      "id": "pt.ine.add.PTCONT.1591060",
      "street": "R 1 DE MAIO",
      "house": "72",
      "postcode": "8800-166",
      "city": "STA CATARINA FONTE BISPO",
      "lon": "-7.79119452911582",
      "lat": "37.15370074591413"
    },
    {
      "id": "pt.ine.add.PTCONT.1622488",
      "street": "R FRANCISCO SA CARNEIRO",
      "house": "",
      "postcode": "8800-166",
      "city": "STA CATARINA FONTE BISPO",
      "lon": "-7.788953941234133",
      "lat": "37.15379337691073"
    },
    {
      "id": "pt.ine.add.PTCONT.1631072",
      "street": "STA CATARINA F BISPO",
      "house": "",
      "postcode": "8800-166",
      "city": "STA CATARINA FONTE BISPO",
      "lon": "-7.793119513305702",
      "lat": "37.15369727308032"
    },
    {
      "id": "pt.ine.add.PTCONT.1638106",
      "street": "R 1 DE MAIO",
      "house": "",
      "postcode": "8800-166",
      "city": "STA CATARINA FONTE BISPO",
      "lon": "-7.792962440270236",
      "lat": "37.153579685284555"
    },
    {
      "id": "pt.ine.add.PTCONT.1664579",
      "street": "R GAGO COUTINHO",
      "house": "3",
      "postcode": "8800-166",
      "city": "STA CATARINA FONTE BISPO",
      "lon": "-7.7888081314688735",
      "lat": "37.153675816330065"
    },
    {
      "id": "pt.ine.add.PTCONT.1669033",
      "street": "FRANCISCO SA CARNEIRO",
      "house": "2",
      "postcode": "8800-166",
      "city": "STA CATARINA FONTE BISPO",
      "lon": "-7.7892021663610445",
      "lat": "37.15366794980609"
    },
    {
      "id": "pt.ine.add.PTCONT.1706063",
      "street": "R 1 MAIO",
      "house": "38",
      "postcode": "8800-166",
      "city": "STA CATARINA FONTE BISPO",
      "lon": "-7.789314695295048",
      "lat": "37.153677286822244"
    },
    {
      "id": "pt.ine.add.PTCONT.1719993",
      "street": "R 1 MAIO",
      "house": "",
      "postcode": "8800-166",
      "city": "STA CATARINA FONTE BISPO",
      "lon": "-7.789483549911945",
      "lat": "37.153677776505205"
    },
    {
      "id": "pt.ine.add.PTCONT.1722991",
      "street": "R 1 MAIO",
      "house": "48",
      "postcode": "8800-166",
      "city": "STA CATARINA FONTE BISPO",
      "lon": "-7.789370490706031",
      "lat": "37.153785575203976"
    },
    {
      "id": "pt.ine.add.PTCONT.1752641",
      "street": "R 1 MAIO",
      "house": "58",
      "postcode": "8800-166",
      "city": "STA CATARINA FONTE BISPO",
      "lon": "-7.789933910353261",
      "lat": "37.15366106029449"
    },
    {
      "id": "pt.ine.add.PTCONT.1791547",
      "street": "STA CATARINA F BISPO",
      "house": "",
      "postcode": "8800-166",
      "city": "STA CATARINA FONTE BISPO",
      "lon": "-7.788841412175273",
      "lat": "37.15378403955159"
    },
    {
      "id": "pt.ine.add.PTCONT.1819641",
      "street": "STA CATARINA F BISPO",
      "house": "",
      "postcode": "8800-166",
      "city": "STA CATARINA FONTE BISPO",
      "lon": "-7.789078339661271",
      "lat": "37.15366759043491"
    },
    {
      "id": "pt.ine.add.PTCONT.1832264",
      "street": "R 1 MAIO",
      "house": "8",
      "postcode": "8800-166",
      "city": "STA CATARINA FONTE BISPO",
      "lon": "-7.789393575686971",
      "lat": "37.1536594945161"
    },
    {
      "id": "pt.ine.add.PTCONT.1845113",
      "street": "R GAGO COTINHO",
      "house": "3",
      "postcode": "8800-166",
      "city": "STA CATARINA FONTE BISPO",
      "lon": "-7.788988283881",
      "lat": "37.15366732899276"
    }
  ]
}