{
  "data": {
    "distrito": "Castelo Branco",
    "concelho": "Castelo Branco",
    "freguesia": "Sarzedas",
    "OBJECTID": 413,
    "BGRI2021": "05022300343",
    "DT21": "05",
    "DTMN21": "0502",
    "DTMNFR21": "050223",
    "DTMNFRSEC21": "050223003",
    "SECNUM21": "003",
    "SSNUM21": "43",
    "SECSSNUM21": "00343",
    "OBJECTID_1": 41678,
    "DT": "05",
    "CC": "02",
    "fr": "23",
    "SEC": "003",
    "SS": "43"
  },
  "addresses": [
    {
      "id": "pt.ine.add.PTCONT.953184",
      "street": "R PRINCIPAL",
      "house": "",
      "postcode": "6000-704",
      "city": "SARZEDAS",
      "lon": "-7.686450819468703",
      "lat": "39.87380158493614"
    },
    {
      "id": "pt.ine.add.PTCONT.968665",
      "street": "TV RUA PRINCIPAL",
      "house": "",
      "postcode": "6000-704",
      "city": "SARZEDAS",
      "lon": "-7.685908698761468",
      "lat": "39.874483978293235"
    },
    {
      "id": "pt.ine.add.PTCONT.986056",
      "street": "R PRINCIPAL",
      "house": "",
      "postcode": "6000-704",
      "city": "SARZEDAS",
      "lon": "-7.684992876443116",
      "lat": "39.875110887762844"
    },
    {
      "id": "pt.ine.add.PTCONT.992561",
      "street": "R PRINCIPAL",
      "house": "",
      "postcode": "6000-704",
      "city": "SARZEDAS",
      "lon": "-7.6873797569714455",
      "lat": "39.87294955547006"
    },
    {
      "id": "pt.ine.add.PTCONT.993023",
      "street": "R MALHAO",
      "house": "",
      "postcode": "6000-704",
      "city": "SARZEDAS",
      "lon": "-7.684417297149122",
      "lat": "39.87374870450807"
    },
    {
      "id": "pt.ine.add.PTCONT.1020859",
      "street": "R PRINCIPAL",
      "house": "",
      "postcode": "6000-704",
      "city": "SARZEDAS",
      "lon": "-7.686609320829139",
      "lat": "39.87459475362481"
    },
    {
      "id": "pt.ine.add.PTCONT.1069825",
      "street": "R PRINCIPAL",
      "house": "",
      "postcode": "6000-704",
      "city": "SARZEDAS",
      "lon": "-7.686421424741629",
      "lat": "39.87472912533339"
    },
    {
      "id": "pt.ine.add.PTCONT.1078327",
      "street": "R SANTO ANTÃ“NIO",
      "house": "",
      "postcode": "6000-704",
      "city": "SARZEDAS",
      "lon": "-7.685231690688427",
      "lat": "39.87433726453607"
    },
    {
      "id": "pt.ine.add.PTCONT.1094686",
      "street": "R PRINCIPAL",
      "house": "",
      "postcode": "6000-704",
      "city": "SARZEDAS",
      "lon": "-7.687357487718382",
      "lat": "39.872778349278704"
    }
  ]
}