{
  "data": {
    "distrito": "Lisboa",
    "concelho": "Mafra",
    "freguesia": "Santo Isidoro",
    "OBJECTID": 1706,
    "BGRI2021": "11091300325",
    "DT21": "11",
    "DTMN21": "1109",
    "DTMNFR21": "110913",
    "DTMNFRSEC21": "110913003",
    "SECNUM21": "003",
    "SSNUM21": "25",
    "SECSSNUM21": "00325",
    "OBJECTID_1": 109690,
    "DT": "11",
    "CC": "09",
    "fr": "13",
    "SEC": "003",
    "SS": "25"
  },
  "addresses": [
    {
      "id": "pt.ine.add.PTCONT.2454021",
      "street": "R MARMORES",
      "house": "",
      "postcode": "2640-066",
      "city": "SANTO ISIDORO MFR",
      "lon": "-9.368572962421437",
      "lat": "38.99044378971364"
    },
    {
      "id": "pt.ine.add.PTCONT.2642796",
      "street": "R NSA SRA CONCEIÇÃO",
      "house": "",
      "postcode": "2640-066",
      "city": "SANTO ISIDORO MFR",
      "lon": "-9.36855146399036",
      "lat": "38.98854347118436"
    },
    {
      "id": "pt.ine.add.PTCONT.2813657",
      "street": "ESTR 24 MAIO",
      "house": "",
      "postcode": "2640-066",
      "city": "SANTO ISIDORO MFR",
      "lon": "-9.369335154674804",
      "lat": "38.99179582190381"
    },
    {
      "id": "pt.ine.add.PTCONT.3189242",
      "street": "ESTR 24 MAIO",
      "house": "",
      "postcode": "2640-066",
      "city": "SANTO ISIDORO MFR",
      "lon": "-9.369012040292214",
      "lat": "38.99179924528646"
    },
    {
      "id": "pt.ine.add.PTCONT.3202146",
      "street": "R NSA SRA DA CONCEIÇÃO",
      "house": "4",
      "postcode": "2640-066",
      "city": "SANTO ISIDORO MFR",
      "lon": "-9.368983898985586",
      "lat": "38.98885414767608"
    },
    {
      "id": "pt.ine.add.PTCONT.3263898",
      "street": "R NSA SRA CONCEIÇÃO",
      "house": "",
      "postcode": "2640-066",
      "city": "SANTO ISIDORO MFR",
      "lon": "-9.368627384924238",
      "lat": "38.98826343999133"
    },
    {
      "id": "pt.ine.add.PTCONT.3271562",
      "street": "R MARMORES",
      "house": "",
      "postcode": "2640-066",
      "city": "SANTO ISIDORO MFR",
      "lon": "-9.36750420568572",
      "lat": "38.98871668822681"
    }
  ]
}