{
  "data": {
    "distrito": "Santarém",
    "concelho": "Tomar",
    "freguesia": "União das freguesias de Serra e Junceira",
    "OBJECTID": 1004,
    "BGRI2021": "14182000103",
    "DT21": "14",
    "DTMN21": "1418",
    "DTMNFR21": "141820",
    "DTMNFRSEC21": "141820001",
    "SECNUM21": "001",
    "SSNUM21": "03",
    "SECSSNUM21": "00103",
    "OBJECTID_1": 156199,
    "DT": "14",
    "CC": "18",
    "fr": "20",
    "SEC": "001",
    "SS": "03"
  },
  "addresses": [
    {
      "id": "pt.ine.add.PTCONT.4394074",
      "street": "SEM DESIGNACAO",
      "house": "6A",
      "postcode": "2300-238",
      "city": "SERRA",
      "lon": "-8.299461294280315",
      "lat": "39.605182000213325"
    },
    {
      "id": "pt.ine.add.PTCONT.4398305",
      "street": "SEM DESIGNACAO",
      "house": "1B",
      "postcode": "2300-238",
      "city": "SERRA",
      "lon": "-8.302557155974318",
      "lat": "39.60462811126821"
    },
    {
      "id": "pt.ine.add.PTCONT.4410723",
      "street": "R PRINCIPAL MACIEIRA",
      "house": "4",
      "postcode": "2300-238",
      "city": "SERRA",
      "lon": "-8.299240216285389",
      "lat": "39.60524536417626"
    },
    {
      "id": "pt.ine.add.PTCONT.4414892",
      "street": "SEM DESIGNACAO",
      "house": "13",
      "postcode": "2300-238",
      "city": "SERRA",
      "lon": "-8.301986601671452",
      "lat": "39.604619935149714"
    },
    {
      "id": "pt.ine.add.PTCONT.4449685",
      "street": "SEM DESIGNACAO",
      "house": "5",
      "postcode": "2300-238",
      "city": "SERRA",
      "lon": "-8.299310078029144",
      "lat": "39.605245264263736"
    },
    {
      "id": "pt.ine.add.PTCONT.4493761",
      "street": "ESTR ABADIA QTA DA ABADIA",
      "house": "",
      "postcode": "2300-211",
      "city": "SERRA",
      "lon": "-8.299313733489349",
      "lat": "39.60190373289249"
    },
    {
      "id": "pt.ine.add.PTCONT.4538781",
      "street": "ESTR ABADIA",
      "house": "1",
      "postcode": "2300-211",
      "city": "SERRA",
      "lon": "-8.29938626274763",
      "lat": "39.603020473651185"
    },
    {
      "id": "pt.ine.add.PTCONT.4548847",
      "street": "R PRINCIPAL MACIEIRA",
      "house": "3",
      "postcode": "2300-238",
      "city": "SERRA",
      "lon": "-8.299262771665468",
      "lat": "39.60493910049707"
    },
    {
      "id": "pt.ine.add.PTCONT.4580237",
      "street": "MACIEIRA TI ZE E DA TI ZEFA",
      "house": "",
      "postcode": "2300-238",
      "city": "SERRA",
      "lon": "-8.299368209991682",
      "lat": "39.605209153868756"
    },
    {
      "id": "pt.ine.add.PTCONT.4599012",
      "street": "SEM DESIGNACAO",
      "house": "6",
      "postcode": "2300-238",
      "city": "SERRA",
      "lon": "-8.300030793320294",
      "lat": "39.60474885671277"
    },
    {
      "id": "pt.ine.add.PTCONT.4625107",
      "street": "MACIEIRA",
      "house": "17A",
      "postcode": "2300-238",
      "city": "SERRA",
      "lon": "-8.301401155503987",
      "lat": "39.60326976336981"
    }
  ]
}