{
  "data": {
    "distrito": "Faro",
    "concelho": "Silves",
    "freguesia": "São Marcos da Serra",
    "OBJECTID": 899,
    "BGRI2021": "08130600149",
    "DT21": "08",
    "DTMN21": "0813",
    "DTMNFR21": "081306",
    "DTMNFRSEC21": "081306001",
    "SECNUM21": "001",
    "SSNUM21": "49",
    "SECSSNUM21": "00149",
    "OBJECTID_1": 72883,
    "DT": "08",
    "CC": "13",
    "fr": "06",
    "SEC": "001",
    "SS": "49"
  },
  "addresses": [
    {
      "id": "pt.ine.add.PTCONT.1474132",
      "street": "SIT ESTIBEIRAS",
      "house": "",
      "postcode": "8375-215",
      "city": "SÃO MARCOS DA SERRA",
      "lon": "-8.369821616219678",
      "lat": "37.41929481962483"
    },
    {
      "id": "pt.ine.add.PTCONT.1494542",
      "street": "SIT SEICEIRO",
      "house": "",
      "postcode": "8375-215",
      "city": "SÃO MARCOS DA SERRA",
      "lon": "-8.38564833614451",
      "lat": "37.419271080559916"
    },
    {
      "id": "pt.ine.add.PTCONT.1506403",
      "street": "SIT ESTIBEIRAS",
      "house": "",
      "postcode": "8375-262",
      "city": "SÃO MARCOS DA SERRA",
      "lon": "-8.369660510105923",
      "lat": "37.425539182682385"
    },
    {
      "id": "pt.ine.add.PTCONT.1528916",
      "street": "SIT CADAVAIS",
      "house": "",
      "postcode": "8375-215",
      "city": "SÃO MARCOS DA SERRA",
      "lon": "-8.374934013823399",
      "lat": "37.41069778053823"
    },
    {
      "id": "pt.ine.add.PTCONT.1702851",
      "street": "SIT SEICEIRO",
      "house": "",
      "postcode": "8375-215",
      "city": "SÃO MARCOS DA SERRA",
      "lon": "-8.384140762028107",
      "lat": "37.41774256368265"
    },
    {
      "id": "pt.ine.add.PTCONT.1705527",
      "street": "SIT CADAVAIS",
      "house": "",
      "postcode": "8375-215",
      "city": "SÃO MARCOS DA SERRA",
      "lon": "-8.374910525204363",
      "lat": "37.41041851309977"
    },
    {
      "id": "pt.ine.add.PTCONT.1773841",
      "street": "SIT SEICEIRO",
      "house": "",
      "postcode": "8375-215",
      "city": "SÃO MARCOS DA SERRA",
      "lon": "-8.38113266100103",
      "lat": "37.41676680475766"
    },
    {
      "id": "pt.ine.add.PTCONT.1803405",
      "street": "SIT MALHEIRO DE BAIXO",
      "house": "",
      "postcode": "8375-215",
      "city": "SÃO MARCOS DA SERRA",
      "lon": "-8.388043626902846",
      "lat": "37.41271554878139"
    },
    {
      "id": "pt.ine.add.PTCONT.1816753",
      "street": "SIT ESTIBEIRAS",
      "house": "",
      "postcode": "8375-215",
      "city": "SÃO MARCOS DA SERRA",
      "lon": "-8.368387165538932",
      "lat": "37.42298283927259"
    },
    {
      "id": "pt.ine.add.PTCONT.1842179",
      "street": "SIT JOIOS",
      "house": "",
      "postcode": "8375-210",
      "city": "SÃO MARCOS DA SERRA",
      "lon": "-8.389763001673089",
      "lat": "37.406801153797495"
    }
  ]
}