{
  "data": {
    "distrito": "Viseu",
    "concelho": "Sátão",
    "freguesia": "São Miguel de Vila Boa",
    "OBJECTID": 286,
    "BGRI2021": "18170900212",
    "DT21": "18",
    "DTMN21": "1817",
    "DTMNFR21": "181709",
    "DTMNFRSEC21": "181709002",
    "SECNUM21": "002",
    "SSNUM21": "12",
    "SECSSNUM21": "00212",
    "OBJECTID_1": 197718,
    "DT": "18",
    "CC": "17",
    "fr": "09",
    "SEC": "002",
    "SS": "12"
  },
  "addresses": [
    {
      "id": "pt.ine.add.PTCONT.5435757",
      "street": "ESTR PRINCIPAL",
      "house": "",
      "postcode": "3560-130",
      "city": "SÃO MIGUEL DE VILA BOA",
      "lon": "-7.746061268937016",
      "lat": "40.71127650379723"
    },
    {
      "id": "pt.ine.add.PTCONT.5440611",
      "street": "QTA REGADA",
      "house": "",
      "postcode": "3560-124",
      "city": "SÃO MIGUEL DE VILA BOA",
      "lon": "-7.753132934856249",
      "lat": "40.70593298019607"
    },
    {
      "id": "pt.ine.add.PTCONT.5458848",
      "street": "ESTR MUNICIPAL",
      "house": "",
      "postcode": "3560-130",
      "city": "SÃO MIGUEL DE VILA BOA",
      "lon": "-7.749284640330721",
      "lat": "40.70843266229145"
    },
    {
      "id": "pt.ine.add.PTCONT.5480546",
      "street": "ESTR MUNICIPAL",
      "house": "",
      "postcode": "3560-130",
      "city": "SÃO MIGUEL DE VILA BOA",
      "lon": "-7.746181744817121",
      "lat": "40.710907700322025"
    },
    {
      "id": "pt.ine.add.PTCONT.5512165",
      "street": "ESTR MUNICIPAL",
      "house": "",
      "postcode": "3560-130",
      "city": "SÃO MIGUEL DE VILA BOA",
      "lon": "-7.748239052293139",
      "lat": "40.7091675961406"
    },
    {
      "id": "pt.ine.add.PTCONT.5555186",
      "street": "R PRINCIPAL",
      "house": "",
      "postcode": "3560-130",
      "city": "SÃO MIGUEL DE VILA BOA",
      "lon": "-7.748829205235155",
      "lat": "40.71149286734537"
    },
    {
      "id": "pt.ine.add.PTCONT.5569797",
      "street": "ESTR MUNICIPAL",
      "house": "",
      "postcode": "3560-130",
      "city": "SÃO MIGUEL DE VILA BOA",
      "lon": "-7.746062885325884",
      "lat": "40.710997352444615"
    },
    {
      "id": "pt.ine.add.PTCONT.5594142",
      "street": "ESTR MUNICIPAL",
      "house": "",
      "postcode": "3560-130",
      "city": "SÃO MIGUEL DE VILA BOA",
      "lon": "-7.746647912482499",
      "lat": "40.71215195968871"
    },
    {
      "id": "pt.ine.add.PTCONT.5664634",
      "street": "R PRINCIPAL",
      "house": "",
      "postcode": "3560-130",
      "city": "SÃO MIGUEL DE VILA BOA",
      "lon": "-7.750852753618913",
      "lat": "40.71150859076487"
    },
    {
      "id": "pt.ine.add.PTCONT.5669147",
      "street": "ESTR MUNICIPAL",
      "house": "",
      "postcode": "3560-130",
      "city": "SÃO MIGUEL DE VILA BOA",
      "lon": "-7.746554385944871",
      "lat": "40.71195353531823"
    }
  ]
}