{
  "data": {
    "distrito": "Viseu",
    "concelho": "Sátão",
    "freguesia": "São Miguel de Vila Boa",
    "OBJECTID": 486,
    "BGRI2021": "18170900227",
    "DT21": "18",
    "DTMN21": "1817",
    "DTMNFR21": "181709",
    "DTMNFRSEC21": "181709002",
    "SECNUM21": "002",
    "SSNUM21": "27",
    "SECSSNUM21": "00227",
    "OBJECTID_1": 197246,
    "DT": "18",
    "CC": "17",
    "fr": "09",
    "SEC": "002",
    "SS": "27"
  },
  "addresses": [
    {
      "id": "pt.ine.add.PTCONT.5429669",
      "street": "R CARVALHINHOS",
      "house": "",
      "postcode": "3560-128",
      "city": "SÃO MIGUEL DE VILA BOA",
      "lon": "-7.7452231728171",
      "lat": "40.717027919203076"
    },
    {
      "id": "pt.ine.add.PTCONT.5442575",
      "street": "R PRINCIPAL",
      "house": "",
      "postcode": "3560-128",
      "city": "SÃO MIGUEL DE VILA BOA",
      "lon": "-7.744407247983773",
      "lat": "40.71487296785122"
    },
    {
      "id": "pt.ine.add.PTCONT.5446207",
      "street": "CAM MARTIN CAVALEIRO",
      "house": "",
      "postcode": "3560-128",
      "city": "SÃO MIGUEL DE VILA BOA",
      "lon": "-7.744597699368825",
      "lat": "40.71468450290946"
    },
    {
      "id": "pt.ine.add.PTCONT.5462709",
      "street": "R PRINCIPAL",
      "house": "",
      "postcode": "3560-128",
      "city": "SÃO MIGUEL DE VILA BOA",
      "lon": "-7.744715730139055",
      "lat": "40.71473893039779"
    },
    {
      "id": "pt.ine.add.PTCONT.5496775",
      "street": "R CARVALHINHOS",
      "house": "",
      "postcode": "3560-128",
      "city": "SÃO MIGUEL DE VILA BOA",
      "lon": "-7.745459922864626",
      "lat": "40.71701970943723"
    },
    {
      "id": "pt.ine.add.PTCONT.5500405",
      "street": "R FONTE",
      "house": "",
      "postcode": "3560-128",
      "city": "SÃO MIGUEL DE VILA BOA",
      "lon": "-7.744098607355784",
      "lat": "40.71503401909399"
    },
    {
      "id": "pt.ine.add.PTCONT.5533623",
      "street": "R MARTIN CAVALEIRO",
      "house": "",
      "postcode": "3560-128",
      "city": "SÃO MIGUEL DE VILA BOA",
      "lon": "-7.742481276115171",
      "lat": "40.71434417364482"
    },
    {
      "id": "pt.ine.add.PTCONT.5537708",
      "street": "R SAMORAO",
      "house": "",
      "postcode": "3560-128",
      "city": "SÃO MIGUEL DE VILA BOA",
      "lon": "-7.744614044544375",
      "lat": "40.71798040579333"
    },
    {
      "id": "pt.ine.add.PTCONT.5549961",
      "street": "R OUTEIRINHO",
      "house": "",
      "postcode": "3560-128",
      "city": "SÃO MIGUEL DE VILA BOA",
      "lon": "-7.7446563483668065",
      "lat": "40.71477475079507"
    },
    {
      "id": "pt.ine.add.PTCONT.5595740",
      "street": "R FONTE",
      "house": "",
      "postcode": "3560-128",
      "city": "SÃO MIGUEL DE VILA BOA",
      "lon": "-7.7448581624367145",
      "lat": "40.71466736911853"
    },
    {
      "id": "pt.ine.add.PTCONT.5610444",
      "street": "CAM MARTIN CAVALEIRO",
      "house": "",
      "postcode": "3560-128",
      "city": "SÃO MIGUEL DE VILA BOA",
      "lon": "-7.744305556804119",
      "lat": "40.714044160632845"
    },
    {
      "id": "pt.ine.add.PTCONT.5617003",
      "street": "R CARVALHINHOS",
      "house": "",
      "postcode": "3560-128",
      "city": "SÃO MIGUEL DE VILA BOA",
      "lon": "-7.745186988630924",
      "lat": "40.71714486323253"
    },
    {
      "id": "pt.ine.add.PTCONT.5642780",
      "street": "R OUTEIRINHO",
      "house": "",
      "postcode": "3560-128",
      "city": "SÃO MIGUEL DE VILA BOA",
      "lon": "-7.744205851761723",
      "lat": "40.714908309734234"
    },
    {
      "id": "pt.ine.add.PTCONT.5665018",
      "street": "R SAMORAO",
      "house": "",
      "postcode": "3560-128",
      "city": "SÃO MIGUEL DE VILA BOA",
      "lon": "-7.745459139359112",
      "lat": "40.71715478252309"
    }
  ]
}