{
  "data": {
    "distrito": "Portalegre",
    "concelho": "Avis",
    "freguesia": "União das freguesias de Benavila e Valongo",
    "OBJECTID": 281,
    "BGRI2021": "12031000223",
    "DT21": "12",
    "DTMN21": "1203",
    "DTMNFR21": "120310",
    "DTMNFRSEC21": "120310002",
    "SECNUM21": "002",
    "SSNUM21": "23",
    "SECSSNUM21": "00223",
    "OBJECTID_1": 120741,
    "DT": "12",
    "CC": "03",
    "fr": "10",
    "SEC": "002",
    "SS": "23"
  },
  "addresses": [
    {
      "id": "pt.ine.add.PTCONT.3537346",
      "street": "TV LATINO COELHO",
      "house": "8",
      "postcode": "7480-233",
      "city": "BENAVILA",
      "lon": "-7.869833974601874",
      "lat": "39.11053569646155"
    },
    {
      "id": "pt.ine.add.PTCONT.3539572",
      "street": "LG REPUBLICA",
      "house": "17",
      "postcode": "7480-205",
      "city": "BENAVILA",
      "lon": "-7.870260553464796",
      "lat": "39.110860931229176"
    },
    {
      "id": "pt.ine.add.PTCONT.3458235",
      "street": "TV LATINO COELHO",
      "house": "10",
      "postcode": "7480-233",
      "city": "BENAVILA",
      "lon": "-7.869938091393151",
      "lat": "39.110543677140754"
    },
    {
      "id": "pt.ine.add.PTCONT.3467435",
      "street": "R DA MISERICÓRDIA",
      "house": "5",
      "postcode": "7480-211",
      "city": "BENAVILA",
      "lon": "-7.870017387980625",
      "lat": "39.11095946590638"
    },
    {
      "id": "pt.ine.add.PTCONT.3476145",
      "street": "R DA MISERICÓRDIA",
      "house": "3",
      "postcode": "7480-211",
      "city": "BENAVILA",
      "lon": "-7.869913231429829",
      "lat": "39.11098625349352"
    },
    {
      "id": "pt.ine.add.PTCONT.3507504",
      "street": "R DA MISERICÓRDIA",
      "house": "13",
      "postcode": "7480-211",
      "city": "BENAVILA",
      "lon": "-7.87009842089704",
      "lat": "39.1109326260613"
    },
    {
      "id": "pt.ine.add.PTCONT.3516417",
      "street": "R FRANCISCO ABREU CALADO",
      "house": "30",
      "postcode": "7480-216",
      "city": "BENAVILA",
      "lon": "-7.869739737581564",
      "lat": "39.111003876808354"
    },
    {
      "id": "pt.ine.add.PTCONT.3520331",
      "street": "R DA MISERICÓRDIA",
      "house": "1",
      "postcode": "7480-211",
      "city": "BENAVILA",
      "lon": "-7.869834278468493",
      "lat": "39.111018037653146"
    },
    {
      "id": "pt.ine.add.PTCONT.3521925",
      "street": "R FRANCISCO ABREU CALADO",
      "house": "40",
      "postcode": "7480-216",
      "city": "BENAVILA",
      "lon": "-7.869648081700709",
      "lat": "39.11077848068228"
    },
    {
      "id": "pt.ine.add.PTCONT.3527263",
      "street": "TV LATINO COELHO",
      "house": "6",
      "postcode": "7480-233",
      "city": "BENAVILA",
      "lon": "-7.869733875484719",
      "lat": "39.110524009146566"
    }
  ]
}