{
  "data": {
    "ilha": "Ilha de São Miguel (Açores)",
    "concelho": "Povoação",
    "freguesia": "Povoação",
    "OBJECTID": 123,
    "BGRI2021": "42040500206",
    "DT21": "42",
    "DTMN21": "4204",
    "DTMNFR21": "420405",
    "DTMNFRSEC21": "420405002",
    "SECNUM21": "002",
    "SSNUM21": "06",
    "SECSSNUM21": "00206",
    "OBJECTID_1": 207268,
    "DT": "42",
    "CC": "04",
    "fr": "05",
    "SEC": "002",
    "SS": "06",
    "BGRI2021_1": "42040500206"
  },
  "addresses": [
    {
      "id": "pt.ine.add.AC26.37899",
      "street": "R DR CAETANO TRAVASSOS LIMA",
      "house": "13",
      "postcode": "9650-421",
      "city": "POVOAÇÃO",
      "lon": "-25.244770938541762",
      "lat": "37.74770272483292"
    },
    {
      "id": "pt.ine.add.AC26.37900",
      "street": "LG D JOÃO I",
      "house": "9",
      "postcode": "9650-412",
      "city": "POVOAÇÃO",
      "lon": "-25.245218742636254",
      "lat": "37.74748408911952"
    },
    {
      "id": "pt.ine.add.AC26.37901",
      "street": "LG D JOÃO I",
      "house": "9",
      "postcode": "9650-412",
      "city": "POVOAÇÃO",
      "lon": "-25.245218742636254",
      "lat": "37.74748408911952"
    },
    {
      "id": "pt.ine.add.AC26.37902",
      "street": "LG D JOÃO I",
      "house": "9",
      "postcode": "9650-412",
      "city": "POVOAÇÃO",
      "lon": "-25.245218742636254",
      "lat": "37.74748408911952"
    },
    {
      "id": "pt.ine.add.AC26.37903",
      "street": "LG D JOÃO I",
      "house": "9",
      "postcode": "9650-412",
      "city": "POVOAÇÃO",
      "lon": "-25.245218742636254",
      "lat": "37.74748408911952"
    },
    {
      "id": "pt.ine.add.AC26.38692",
      "street": "LG JARDIM MUNICIPAL",
      "house": "22",
      "postcode": "9650-410",
      "city": "POVOAÇÃO",
      "lon": "-25.24504344938439",
      "lat": "37.747697771688436"
    },
    {
      "id": "pt.ine.add.AC26.64664",
      "street": "LG D JOÃO I",
      "house": "20",
      "postcode": "9650-412",
      "city": "POVOAÇÃO",
      "lon": "-25.244989061636826",
      "lat": "37.747597827228724"
    },
    {
      "id": "pt.ine.add.AC26.70803",
      "street": "R MANUEL JOSE DE MEDEIROS",
      "house": "6 A",
      "postcode": "9650-425",
      "city": "POVOAÇÃO",
      "lon": "-25.245632294332463",
      "lat": "37.747273953913755"
    },
    {
      "id": "pt.ine.add.AC26.78893",
      "street": "R DR CAETANO TRAVASSOS LIMA",
      "house": "7",
      "postcode": "9650-421",
      "city": "POVOAÇÃO",
      "lon": "-25.244817385741747",
      "lat": "37.74765835562324"
    },
    {
      "id": "pt.ine.add.AC26.78894",
      "street": "R DR CAETANO TRAVASSOS LIMA",
      "house": "7",
      "postcode": "9650-421",
      "city": "POVOAÇÃO",
      "lon": "-25.244817385741747",
      "lat": "37.74765835562324"
    },
    {
      "id": "pt.ine.add.AC26.79773",
      "street": "LG JARDIM MUNICIPAL",
      "house": "",
      "postcode": "9650-410",
      "city": "POVOAÇÃO",
      "lon": "-25.245200587559545",
      "lat": "37.747772209735345"
    },
    {
      "id": "pt.ine.add.AC26.97205",
      "street": "R MANUEL JOSE DE MEDEIROS",
      "house": "14",
      "postcode": "9650-425",
      "city": "POVOAÇÃO",
      "lon": "-25.245487423055728",
      "lat": "37.74764129783446"
    },
    {
      "id": "pt.ine.add.AC26.97206",
      "street": "R MANUEL JOSE MEDEIROS",
      "house": "16",
      "postcode": "9650-425",
      "city": "POVOAÇÃO",
      "lon": "-25.245487423055728",
      "lat": "37.74764129783446"
    },
    {
      "id": "pt.ine.add.AC26.98615",
      "street": "R DR CAETANO TRAVASSOS LIMA",
      "house": "19",
      "postcode": "9650-421",
      "city": "POVOAÇÃO",
      "lon": "-25.244654713867362",
      "lat": "37.74781815229282"
    },
    {
      "id": "pt.ine.add.AC26.102670",
      "street": "LG D JOAO I",
      "house": "1",
      "postcode": "9650-412",
      "city": "POVOAÇÃO",
      "lon": "-25.24514513554714",
      "lat": "37.74771731058792"
    },
    {
      "id": "pt.ine.add.AC26.104104",
      "street": "R MANUEL JOSE MEDEIROS",
      "house": "8",
      "postcode": "9650-425",
      "city": "POVOAÇÃO",
      "lon": "-25.245487423055728",
      "lat": "37.74764129783446"
    }
  ]
}