{
  "data": {
    "distrito": "Braga",
    "concelho": "Guimarães",
    "freguesia": "União das freguesias de Arosa e Castelões",
    "OBJECTID": 2101,
    "BGRI2021": "03087700124",
    "DT21": "03",
    "DTMN21": "0308",
    "DTMNFR21": "030877",
    "DTMNFRSEC21": "030877001",
    "SECNUM21": "001",
    "SSNUM21": "24",
    "SECSSNUM21": "00124",
    "OBJECTID_1": 27893,
    "DT": "03",
    "CC": "08",
    "fr": "77",
    "SEC": "001",
    "SS": "24"
  },
  "addresses": [
    {
      "id": "pt.ine.add.PTCONT.489913",
      "street": "R SANTA IRIA",
      "house": "772",
      "postcode": "4800-405",
      "city": "CASTELÕES GMR",
      "lon": "-8.205814562070257",
      "lat": "41.5502148101504"
    },
    {
      "id": "pt.ine.add.PTCONT.696184",
      "street": "R LUIS CAMOES",
      "house": "1043",
      "postcode": "4800-405",
      "city": "CASTELÕES GMR",
      "lon": "-8.207529715916364",
      "lat": "41.551240142785105"
    },
    {
      "id": "pt.ine.add.PTCONT.736080",
      "street": "R S IRIA GUIMARAE",
      "house": "GUIMARAE",
      "postcode": "4800-405",
      "city": "CASTELÕES GMR",
      "lon": "-8.206089659444524",
      "lat": "41.54970142088767"
    },
    {
      "id": "pt.ine.add.PTCONT.746157",
      "street": "R LUIS DE CAMÕES",
      "house": "1321",
      "postcode": "4800-405",
      "city": "CASTELÕES GMR",
      "lon": "-8.20782794652826",
      "lat": "41.55000643278505"
    },
    {
      "id": "pt.ine.add.PTCONT.750095",
      "street": "R LUIS DE CAMÕES",
      "house": "",
      "postcode": "4800-405",
      "city": "CASTELÕES GMR",
      "lon": "-8.20760034012976",
      "lat": "41.550114625712865"
    },
    {
      "id": "pt.ine.add.PTCONT.800954",
      "street": "R JUIZ",
      "house": "149",
      "postcode": "4800-405",
      "city": "CASTELÕES GMR",
      "lon": "-8.207372836015876",
      "lat": "41.550312855836246"
    }
  ]
}