{
  "data": {
    "distrito": "Braga",
    "concelho": "Guimarães",
    "freguesia": "União das freguesias de Arosa e Castelões",
    "OBJECTID": 2109,
    "BGRI2021": "03087700132",
    "DT21": "03",
    "DTMN21": "0308",
    "DTMNFR21": "030877",
    "DTMNFRSEC21": "030877001",
    "SECNUM21": "001",
    "SSNUM21": "32",
    "SECSSNUM21": "00132",
    "OBJECTID_1": 28450,
    "DT": "03",
    "CC": "08",
    "fr": "77",
    "SEC": "001",
    "SS": "32"
  },
  "addresses": [
    {
      "id": "pt.ine.add.PTCONT.468884",
      "street": "R D MARIA DA CONCEIÇÃO",
      "house": "13",
      "postcode": "4800-219",
      "city": "AROSA",
      "lon": "-8.217382964137686",
      "lat": "41.55179157748102"
    },
    {
      "id": "pt.ine.add.PTCONT.543423",
      "street": "R ARMANDO RIBEIRO DA SILVA",
      "house": "20",
      "postcode": "4800-215",
      "city": "AROSA",
      "lon": "-8.216379779851845",
      "lat": "41.55463749853315"
    },
    {
      "id": "pt.ine.add.PTCONT.551925",
      "street": "R D MARIA DA CONCEIÇÃO",
      "house": "7",
      "postcode": "4800-219",
      "city": "AROSA",
      "lon": "-8.217527348365275",
      "lat": "41.55221464869045"
    },
    {
      "id": "pt.ine.add.PTCONT.558801",
      "street": "R S MARINHA",
      "house": "55",
      "postcode": "4800-220",
      "city": "AROSA",
      "lon": "-8.216554982637316",
      "lat": "41.551062875986965"
    },
    {
      "id": "pt.ine.add.PTCONT.569678",
      "street": "R D MARIA DA CONCEIÇÃO",
      "house": "5",
      "postcode": "4800-219",
      "city": "AROSA",
      "lon": "-8.217875172145215",
      "lat": "41.55238546440818"
    },
    {
      "id": "pt.ine.add.PTCONT.570310",
      "street": "R OUTEIRO",
      "house": "246",
      "postcode": "4800-405",
      "city": "CASTELÕES GMR",
      "lon": "-8.213535602977599",
      "lat": "41.551947396803925"
    },
    {
      "id": "pt.ine.add.PTCONT.596058",
      "street": "R ÁGUAS DE SANDE",
      "house": "127",
      "postcode": "4800-405",
      "city": "CASTELÕES GMR",
      "lon": "-8.215344533073129",
      "lat": "41.551171793238574"
    },
    {
      "id": "pt.ine.add.PTCONT.671336",
      "street": "R ÁGUAS DE SANDE",
      "house": "97",
      "postcode": "4800-405",
      "city": "CASTELÕES GMR",
      "lon": "-8.215704274275307",
      "lat": "41.5512975881852"
    },
    {
      "id": "pt.ine.add.PTCONT.696108",
      "street": "R ARMANDO RIBEIRO DA SILVA",
      "house": "18",
      "postcode": "4800-215",
      "city": "AROSA",
      "lon": "-8.216643556036404",
      "lat": "41.55469132980134"
    },
    {
      "id": "pt.ine.add.PTCONT.751198",
      "street": "R ARMANDO RIBEIRO DA SILVA",
      "house": "22",
      "postcode": "4800-215",
      "city": "AROSA",
      "lon": "-8.216056128383107",
      "lat": "41.554628728687106"
    },
    {
      "id": "pt.ine.add.PTCONT.758742",
      "street": "R OUTEIRO",
      "house": "228",
      "postcode": "4800-405",
      "city": "CASTELÕES GMR",
      "lon": "-8.213151967821037",
      "lat": "41.55188463810284"
    },
    {
      "id": "pt.ine.add.PTCONT.761450",
      "street": "R ÁGUAS DE SANDE",
      "house": "145",
      "postcode": "4800-405",
      "city": "CASTELÕES GMR",
      "lon": "-8.21506887723937",
      "lat": "41.551189997580686"
    },
    {
      "id": "pt.ine.add.PTCONT.820038",
      "street": "R OUTEIRO",
      "house": "386",
      "postcode": "4800-405",
      "city": "CASTELÕES GMR",
      "lon": "-8.214326521066884",
      "lat": "41.551811784375204"
    },
    {
      "id": "pt.ine.add.PTCONT.840999",
      "street": "R ARMANDO RIBEIRO DA SILVA",
      "house": "12",
      "postcode": "4800-215",
      "city": "AROSA",
      "lon": "-8.217266489397183",
      "lat": "41.5544027551236"
    }
  ]
}