{
  "data": {
    "distrito": "Setúbal",
    "concelho": "Santiago do Cacém",
    "freguesia": "União das freguesias de Santiago do Cacém, Santa Cruz e São Bartolomeu da Serra",
    "OBJECTID": 254,
    "BGRI2021": "15091200801",
    "DT21": "15",
    "DTMN21": "1509",
    "DTMNFR21": "150912",
    "DTMNFRSEC21": "150912008",
    "SECNUM21": "008",
    "SSNUM21": "01",
    "SECSSNUM21": "00801",
    "OBJECTID_1": 166466,
    "DT": "15",
    "CC": "09",
    "fr": "12",
    "SEC": "008",
    "SS": "01"
  },
  "addresses": [
    {
      "id": "pt.ine.add.PTCONT.4684887",
      "street": "MTE FONTAÍNHAS",
      "house": "",
      "postcode": "7540-300",
      "city": "SÃO BARTOLOMEU DA SERRA",
      "lon": "-8.605933691858686",
      "lat": "38.00625922340695"
    },
    {
      "id": "pt.ine.add.PTCONT.4787766",
      "street": "MTE PERAL VILHENA",
      "house": "",
      "postcode": "7540-300",
      "city": "SÃO BARTOLOMEU DA SERRA",
      "lon": "-8.609994653705954",
      "lat": "38.00741402254502"
    },
    {
      "id": "pt.ine.add.PTCONT.4944347",
      "street": "MTE CASA BRANCA",
      "house": "",
      "postcode": "7540-300",
      "city": "SÃO BARTOLOMEU DA SERRA",
      "lon": "-8.615332882693828",
      "lat": "38.00537419109572"
    },
    {
      "id": "pt.ine.add.PTCONT.4948621",
      "street": "MTE BOAVISTA",
      "house": "",
      "postcode": "7540-300",
      "city": "SÃO BARTOLOMEU DA SERRA",
      "lon": "-8.609751451251054",
      "lat": "38.0085411593654"
    },
    {
      "id": "pt.ine.add.PTCONT.4948622",
      "street": "MTE BOAVISTA",
      "house": "",
      "postcode": "7540-300",
      "city": "SÃO BARTOLOMEU DA SERRA",
      "lon": "-8.609751451251054",
      "lat": "38.0085411593654"
    },
    {
      "id": "pt.ine.add.PTCONT.4973222",
      "street": "MTE PERALINHO",
      "house": "",
      "postcode": "7540-300",
      "city": "SÃO BARTOLOMEU DA SERRA",
      "lon": "-8.61361193076271",
      "lat": "38.0051199683217"
    },
    {
      "id": "pt.ine.add.PTCONT.5002357",
      "street": "MTE FONTAINHAS",
      "house": "CP 517",
      "postcode": "7540-300",
      "city": "SÃO BARTOLOMEU DA SERRA",
      "lon": "-8.605182569560025",
      "lat": "38.006316296292376"
    },
    {
      "id": "pt.ine.add.PTCONT.5002361",
      "street": "MTE FONTAINHAS",
      "house": "CP 517",
      "postcode": "7540-300",
      "city": "SÃO BARTOLOMEU DA SERRA",
      "lon": "-8.605182569560025",
      "lat": "38.006316296292376"
    }
  ]
}