{
  "data": {
    "ilha": "Ilha de São Miguel (Açores)",
    "concelho": "Nordeste",
    "freguesia": "Santo António de Nordestinho",
    "OBJECTID": 25,
    "BGRI2021": "42020900106",
    "DT21": "42",
    "DTMN21": "4202",
    "DTMNFR21": "420209",
    "DTMNFRSEC21": "420209001",
    "SECNUM21": "001",
    "SSNUM21": "06",
    "SECSSNUM21": "00106",
    "OBJECTID_1": 206284,
    "DT": "42",
    "CC": "02",
    "fr": "09",
    "SEC": "001",
    "SS": "06",
    "BGRI2021_1": "42020900106"
  },
  "addresses": [
    {
      "id": "pt.ine.add.AC26.96039",
      "street": "R VILA NOVA",
      "house": "23",
      "postcode": "9630-232",
      "city": "SANTO ANTÓNIO NORDESTINHO",
      "lon": "-25.208216032788616",
      "lat": "37.8519452328413"
    },
    {
      "id": "pt.ine.add.AC26.96043",
      "street": "R ESPIGAO",
      "house": "",
      "postcode": "9630-250",
      "city": "SÃO PEDRO NORDESTINHO",
      "lon": "-25.20470075877089",
      "lat": "37.84926917573695"
    },
    {
      "id": "pt.ine.add.AC26.96520",
      "street": "R ESPIGAO",
      "house": "",
      "postcode": "9630-250",
      "city": "SÃO PEDRO NORDESTINHO",
      "lon": "-25.204272965451874",
      "lat": "37.850037685322484"
    },
    {
      "id": "pt.ine.add.AC26.96529",
      "street": "R ESPIGAO",
      "house": "",
      "postcode": "9630-250",
      "city": "SÃO PEDRO NORDESTINHO",
      "lon": "-25.204786403396767",
      "lat": "37.849486770476645"
    },
    {
      "id": "pt.ine.add.AC26.96696",
      "street": "R VILA NOVA",
      "house": "15",
      "postcode": "9630-232",
      "city": "SANTO ANTÓNIO NORDESTINHO",
      "lon": "-25.20719130354292",
      "lat": "37.85155112610697"
    },
    {
      "id": "pt.ine.add.AC26.96784",
      "street": "R IGREJA",
      "house": "3",
      "postcode": "9630-235",
      "city": "SANTO ANTÓNIO NORDESTINHO",
      "lon": "-25.209069399744",
      "lat": "37.850966895273004"
    },
    {
      "id": "pt.ine.add.AC26.96884",
      "street": "R VILA NOVA",
      "house": "17",
      "postcode": "9630-232",
      "city": "SANTO ANTÓNIO NORDESTINHO",
      "lon": "-25.207450434255005",
      "lat": "37.851645192501365"
    },
    {
      "id": "pt.ine.add.AC26.97036",
      "street": "R IGREJA",
      "house": "5",
      "postcode": "9630-235",
      "city": "SANTO ANTÓNIO NORDESTINHO",
      "lon": "-25.20908375975237",
      "lat": "37.84990369399294"
    },
    {
      "id": "pt.ine.add.AC26.98529",
      "street": "R ESPIGAO",
      "house": "14",
      "postcode": "9630-250",
      "city": "SÃO PEDRO NORDESTINHO",
      "lon": "-25.204425247002302",
      "lat": "37.85031938094054"
    },
    {
      "id": "pt.ine.add.AC26.101965",
      "street": "R IGREJA",
      "house": "1",
      "postcode": "9630-235",
      "city": "SANTO ANTÓNIO NORDESTINHO",
      "lon": "-25.208824489352395",
      "lat": "37.85122451799918"
    }
  ]
}