{
  "data": {
    "distrito": "Santarém",
    "concelho": "Santarém",
    "freguesia": "União das freguesias de Romeira e Várzea",
    "OBJECTID": 641,
    "BGRI2021": "14163200317",
    "DT21": "14",
    "DTMN21": "1416",
    "DTMNFR21": "141632",
    "DTMNFRSEC21": "141632003",
    "SECNUM21": "003",
    "SSNUM21": "17",
    "SECSSNUM21": "00317",
    "OBJECTID_1": 153808,
    "DT": "14",
    "CC": "16",
    "fr": "32",
    "SEC": "003",
    "SS": "17"
  },
  "addresses": [
    {
      "id": "pt.ine.add.PTCONT.4402431",
      "street": "R CARVALHO",
      "house": "",
      "postcode": "2005-076",
      "city": "ROMEIRA",
      "lon": "-8.748248848064042",
      "lat": "39.32761930613213"
    },
    {
      "id": "pt.ine.add.PTCONT.4412905",
      "street": "ROMEIRA CASA DAS ALAGOAS",
      "house": "",
      "postcode": "2005-076",
      "city": "ROMEIRA",
      "lon": "-8.745168309057773",
      "lat": "39.31215224656262"
    },
    {
      "id": "pt.ine.add.PTCONT.4420984",
      "street": "EN 362",
      "house": "",
      "postcode": "2005-076",
      "city": "ROMEIRA",
      "lon": "-8.746771563674043",
      "lat": "39.327113696582344"
    },
    {
      "id": "pt.ine.add.PTCONT.4460604",
      "street": "R 5 DE OUTUBRO",
      "house": "41",
      "postcode": "2005-076",
      "city": "ROMEIRA",
      "lon": "-8.738423739706807",
      "lat": "39.307188530992896"
    },
    {
      "id": "pt.ine.add.PTCONT.4576150",
      "street": "R 5 DE OUTUBRO",
      "house": "45",
      "postcode": "2005-076",
      "city": "ROMEIRA",
      "lon": "-8.738694348661129",
      "lat": "39.30764648960467"
    },
    {
      "id": "pt.ine.add.PTCONT.4597743",
      "street": "R CARVALHO",
      "house": "",
      "postcode": "2005-076",
      "city": "ROMEIRA",
      "lon": "-8.75123654661733",
      "lat": "39.32711709321738"
    },
    {
      "id": "pt.ine.add.PTCONT.4605647",
      "street": "R 5 DE OUTUBRO CASAL DAS ALAGOAS",
      "house": "",
      "postcode": "2005-076",
      "city": "ROMEIRA",
      "lon": "-8.741308323345208",
      "lat": "39.310938494857076"
    },
    {
      "id": "pt.ine.add.PTCONT.4624211",
      "street": "R 5 OUTUBRO",
      "house": "",
      "postcode": "2005-076",
      "city": "ROMEIRA",
      "lon": "-8.741080592386362",
      "lat": "39.31275913235313"
    },
    {
      "id": "pt.ine.add.PTCONT.4658273",
      "street": "SIT SITIO DOS RIBEIROS CASAL DA AZINHEIRA",
      "house": "",
      "postcode": "2005-076",
      "city": "ROMEIRA",
      "lon": "-8.73901424667769",
      "lat": "39.311130600884304"
    }
  ]
}