{
  "data": {
    "distrito": "Viseu",
    "concelho": "Vouzela",
    "freguesia": "Campia",
    "OBJECTID": 147,
    "BGRI2021": "18240300180",
    "DT21": "18",
    "DTMN21": "1824",
    "DTMNFR21": "182403",
    "DTMNFRSEC21": "182403001",
    "SECNUM21": "001",
    "SSNUM21": "80",
    "SECSSNUM21": "00180",
    "OBJECTID_1": 202944,
    "DT": "18",
    "CC": "24",
    "fr": "03",
    "SEC": "001",
    "SS": "80"
  },
  "addresses": [
    {
      "id": "pt.ine.add.PTCONT.5444980",
      "street": "",
      "house": "",
      "postcode": "3670-057",
      "city": "CAMPIA",
      "lon": "-8.234119772140126",
      "lat": "40.68459568603449"
    },
    {
      "id": "pt.ine.add.PTCONT.5456017",
      "street": "R ANTÓNIO CAPELAS",
      "house": "",
      "postcode": "3670-057",
      "city": "CAMPIA",
      "lon": "-8.23209623768013",
      "lat": "40.684120166875985"
    },
    {
      "id": "pt.ine.add.PTCONT.5457853",
      "street": "LG CAPELA SANTIAGO",
      "house": "",
      "postcode": "3670-053",
      "city": "CAMPIA",
      "lon": "-8.233939725465964",
      "lat": "40.6828668586414"
    },
    {
      "id": "pt.ine.add.PTCONT.5468582",
      "street": "R ZE LAMEIRO",
      "house": "",
      "postcode": "3670-057",
      "city": "CAMPIA",
      "lon": "-8.230710788301453",
      "lat": "40.68314879242502"
    },
    {
      "id": "pt.ine.add.PTCONT.5481280",
      "street": "",
      "house": "",
      "postcode": "3670-057",
      "city": "CAMPIA",
      "lon": "-8.233726693342721",
      "lat": "40.68279500344654"
    },
    {
      "id": "pt.ine.add.PTCONT.5493301",
      "street": "",
      "house": "",
      "postcode": "3670-057",
      "city": "CAMPIA",
      "lon": "-8.233718086934555",
      "lat": "40.68493823160687"
    },
    {
      "id": "pt.ine.add.PTCONT.5498281",
      "street": "",
      "house": "",
      "postcode": "3670-057",
      "city": "CAMPIA",
      "lon": "-8.233932767904644",
      "lat": "40.68609970561602"
    },
    {
      "id": "pt.ine.add.PTCONT.5528943",
      "street": "",
      "house": "",
      "postcode": "3670-057",
      "city": "CAMPIA",
      "lon": "-8.232271795693626",
      "lat": "40.682850292969334"
    },
    {
      "id": "pt.ine.add.PTCONT.5548845",
      "street": "R CLARA",
      "house": "",
      "postcode": "3670-057",
      "city": "CAMPIA",
      "lon": "-8.235625638890856",
      "lat": "40.686899670955924"
    },
    {
      "id": "pt.ine.add.PTCONT.5557848",
      "street": "ESTR SANTIAGO",
      "house": "",
      "postcode": "3670-057",
      "city": "CAMPIA",
      "lon": "-8.235423967440948",
      "lat": "40.6865306397559"
    },
    {
      "id": "pt.ine.add.PTCONT.5598361",
      "street": "",
      "house": "",
      "postcode": "3670-057",
      "city": "CAMPIA",
      "lon": "-8.23491398654322",
      "lat": "40.68567560366952"
    },
    {
      "id": "pt.ine.add.PTCONT.5579817",
      "street": "",
      "house": "",
      "postcode": "3670-057",
      "city": "CAMPIA",
      "lon": "-8.234129494101488",
      "lat": "40.68319988257081"
    },
    {
      "id": "pt.ine.add.PTCONT.5579818",
      "street": "CAM TOJAL",
      "house": "",
      "postcode": "3670-057",
      "city": "CAMPIA",
      "lon": "-8.233270495062452",
      "lat": "40.68622635381605"
    },
    {
      "id": "pt.ine.add.PTCONT.5598362",
      "street": "R ABILIO COUTINHO",
      "house": "",
      "postcode": "3670-057",
      "city": "CAMPIA",
      "lon": "-8.235803542229414",
      "lat": "40.68719668193531"
    },
    {
      "id": "pt.ine.add.PTCONT.5618822",
      "street": "CAM TOJAL",
      "house": "S N",
      "postcode": "3670-057",
      "city": "CAMPIA",
      "lon": "-8.233683140006974",
      "lat": "40.685298467129414"
    },
    {
      "id": "pt.ine.add.PTCONT.5620657",
      "street": "R ANTÓNIO VALTER",
      "house": "",
      "postcode": "3670-057",
      "city": "CAMPIA",
      "lon": "-8.235245393934763",
      "lat": "40.68579237760429"
    },
    {
      "id": "pt.ine.add.PTCONT.5627173",
      "street": "R RAPOSEIRA",
      "house": "",
      "postcode": "3670-057",
      "city": "CAMPIA",
      "lon": "-8.232638377145374",
      "lat": "40.68276893136547"
    },
    {
      "id": "pt.ine.add.PTCONT.5661947",
      "street": "",
      "house": "",
      "postcode": "3670-057",
      "city": "CAMPIA",
      "lon": "-8.234617522524326",
      "lat": "40.68519859300681"
    }
  ]
}