{
  "data": {
    "distrito": "Leiria",
    "concelho": "Porto de Mós",
    "freguesia": "União das freguesias de Alvados e Alcaria",
    "OBJECTID": 242,
    "BGRI2021": "10161500111",
    "DT21": "10",
    "DTMN21": "1016",
    "DTMNFR21": "101615",
    "DTMNFRSEC21": "101615001",
    "SECNUM21": "001",
    "SSNUM21": "11",
    "SECSSNUM21": "00111",
    "OBJECTID_1": 97866,
    "DT": "10",
    "CC": "16",
    "fr": "15",
    "SEC": "001",
    "SS": "11"
  },
  "addresses": [
    {
      "id": "pt.ine.add.PTCONT.2010087",
      "street": "R CARRASCO",
      "house": "665",
      "postcode": "2480-032",
      "city": "ALVADOS",
      "lon": "-8.761642543668861",
      "lat": "39.548488669558374"
    },
    {
      "id": "pt.ine.add.PTCONT.2010088",
      "street": "R SA CARDEIRO",
      "house": "1070",
      "postcode": "2480-032",
      "city": "ALVADOS",
      "lon": "-8.768108453721817",
      "lat": "39.54820133314772"
    },
    {
      "id": "pt.ine.add.PTCONT.2025276",
      "street": "R CARRASCO",
      "house": "739",
      "postcode": "2480-032",
      "city": "ALVADOS",
      "lon": "-8.761599896613028",
      "lat": "39.550209198353315"
    },
    {
      "id": "pt.ine.add.PTCONT.2031974",
      "street": "R NOGUEIRAS",
      "house": "155",
      "postcode": "2480-032",
      "city": "ALVADOS",
      "lon": "-8.76350416601074",
      "lat": "39.54979357967385"
    },
    {
      "id": "pt.ine.add.PTCONT.2049375",
      "street": "R SA CARNEIRO",
      "house": "978",
      "postcode": "2480-032",
      "city": "ALVADOS",
      "lon": "-8.766880471650424",
      "lat": "39.54749649864571"
    },
    {
      "id": "pt.ine.add.PTCONT.2056538",
      "street": "R NOGUEIRAS",
      "house": "41",
      "postcode": "2480-032",
      "city": "ALVADOS",
      "lon": "-8.761213221100213",
      "lat": "39.54990505759379"
    },
    {
      "id": "pt.ine.add.PTCONT.2158991",
      "street": "R GALEGA",
      "house": "309",
      "postcode": "2480-032",
      "city": "ALVADOS",
      "lon": "-8.763036143755535",
      "lat": "39.55078686464382"
    },
    {
      "id": "pt.ine.add.PTCONT.2158992",
      "street": "R SA CARDEIRO",
      "house": "1736",
      "postcode": "2480-032",
      "city": "ALVADOS",
      "lon": "-8.76840314951723",
      "lat": "39.548623042137976"
    },
    {
      "id": "pt.ine.add.PTCONT.2172016",
      "street": "R CARRASCO",
      "house": "587",
      "postcode": "2480-032",
      "city": "ALVADOS",
      "lon": "-8.761229666690431",
      "lat": "39.54914839780511"
    },
    {
      "id": "pt.ine.add.PTCONT.2203153",
      "street": "R NOGUEIRAS",
      "house": "209",
      "postcode": "2480-032",
      "city": "ALVADOS",
      "lon": "-8.767561847147979",
      "lat": "39.548222331791735"
    },
    {
      "id": "pt.ine.add.PTCONT.2216512",
      "street": "R CARRASCO I",
      "house": "777",
      "postcode": "2480-032",
      "city": "ALVADOS",
      "lon": "-8.761146223749032",
      "lat": "39.54763570659851"
    },
    {
      "id": "pt.ine.add.PTCONT.2223024",
      "street": "R SA CARNEIRO",
      "house": "1008",
      "postcode": "2480-032",
      "city": "ALVADOS",
      "lon": "-8.767512360735326",
      "lat": "39.54789835722994"
    }
  ]
}