{
  "data": {
    "distrito": "Faro",
    "concelho": "Faro",
    "freguesia": "União das freguesias de Conceição e Estoi",
    "OBJECTID": 150,
    "BGRI2021": "08050700301",
    "DT21": "08",
    "DTMN21": "0805",
    "DTMNFR21": "080507",
    "DTMNFRSEC21": "080507003",
    "SECNUM21": "003",
    "SSNUM21": "01",
    "SECSSNUM21": "00301",
    "OBJECTID_1": 66386,
    "DT": "08",
    "CC": "05",
    "fr": "07",
    "SEC": "003",
    "SS": "01"
  },
  "addresses": [
    {
      "id": "pt.ine.add.PTCONT.1533597",
      "street": "R JOGO",
      "house": "14",
      "postcode": "8005-468",
      "city": "FARO",
      "lon": "-7.891729465969492",
      "lat": "37.094270846309236"
    },
    {
      "id": "pt.ine.add.PTCONT.1624425",
      "street": "R JOGO",
      "house": "",
      "postcode": "8005-468",
      "city": "FARO",
      "lon": "-7.891359846965032",
      "lat": "37.09377450716676"
    },
    {
      "id": "pt.ine.add.PTCONT.1718478",
      "street": "R JOAO DE DEUS",
      "house": "",
      "postcode": "8005-475",
      "city": "FARO",
      "lon": "-7.8927750157064684",
      "lat": "37.094444172356084"
    },
    {
      "id": "pt.ine.add.PTCONT.1718479",
      "street": "R JOAO DEUS",
      "house": "381",
      "postcode": "8005-475",
      "city": "FARO",
      "lon": "-7.8927750157064684",
      "lat": "37.094444172356084"
    },
    {
      "id": "pt.ine.add.PTCONT.1718480",
      "street": "R JOAO DEUS",
      "house": "38 A",
      "postcode": "8005-475",
      "city": "FARO",
      "lon": "-7.8927750157064684",
      "lat": "37.094444172356084"
    },
    {
      "id": "pt.ine.add.PTCONT.1735512",
      "street": "R JOGO",
      "house": "",
      "postcode": "8005-468",
      "city": "FARO",
      "lon": "-7.890965844249574",
      "lat": "37.09387282057189"
    },
    {
      "id": "pt.ine.add.PTCONT.1772314",
      "street": "R JOÃO DE DEUS",
      "house": "32",
      "postcode": "8005-475",
      "city": "FARO",
      "lon": "-7.892876506503654",
      "lat": "37.09436328206944"
    },
    {
      "id": "pt.ine.add.PTCONT.1793004",
      "street": "R JOGO",
      "house": "4",
      "postcode": "8005-468",
      "city": "FARO",
      "lon": "-7.891640737715585",
      "lat": "37.093874196690855"
    },
    {
      "id": "pt.ine.add.PTCONT.1793005",
      "street": "R JOGO",
      "house": "12",
      "postcode": "8005-468",
      "city": "FARO",
      "lon": "-7.891808003953438",
      "lat": "37.094334080750876"
    }
  ]
}