{
  "data": {
    "distrito": "Faro",
    "concelho": "Faro",
    "freguesia": "União das freguesias de Conceição e Estoi",
    "OBJECTID": 933,
    "BGRI2021": "08050700303",
    "DT21": "08",
    "DTMN21": "0805",
    "DTMNFR21": "080507",
    "DTMNFRSEC21": "080507003",
    "SECNUM21": "003",
    "SSNUM21": "03",
    "SECSSNUM21": "00303",
    "OBJECTID_1": 66737,
    "DT": "08",
    "CC": "05",
    "fr": "07",
    "SEC": "003",
    "SS": "03"
  },
  "addresses": [
    {
      "id": "pt.ine.add.PTCONT.1502342",
      "street": "R ARCO SANTANA",
      "house": "7",
      "postcode": "8005-456",
      "city": "FARO",
      "lon": "-7.893977678871563",
      "lat": "37.09473494466412"
    },
    {
      "id": "pt.ine.add.PTCONT.1519669",
      "street": "R CÂNDIDO DOS REIS",
      "house": "6",
      "postcode": "8005-457",
      "city": "FARO",
      "lon": "-7.894438578789236",
      "lat": "37.09482597974645"
    },
    {
      "id": "pt.ine.add.PTCONT.1649968",
      "street": "TV FARMACIA",
      "house": "",
      "postcode": "8005-456",
      "city": "FARO",
      "lon": "-7.89430331560958",
      "lat": "37.094915814019274"
    },
    {
      "id": "pt.ine.add.PTCONT.1666453",
      "street": "TV FARMACIA",
      "house": "3",
      "postcode": "8005-456",
      "city": "FARO",
      "lon": "-7.894224774945266",
      "lat": "37.094852581226974"
    },
    {
      "id": "pt.ine.add.PTCONT.1670229",
      "street": "R VISC DE ESTOI",
      "house": "6",
      "postcode": "8005-480",
      "city": "FARO",
      "lon": "-7.894224096078001",
      "lat": "37.09506883564825"
    },
    {
      "id": "pt.ine.add.PTCONT.1684744",
      "street": "R CÂNDIDO DOS REIS",
      "house": "10",
      "postcode": "8005-457",
      "city": "FARO",
      "lon": "-7.894426680392715",
      "lat": "37.095033200932065"
    },
    {
      "id": "pt.ine.add.PTCONT.1741764",
      "street": "R VISC DE ESTOI",
      "house": "10",
      "postcode": "8005-480",
      "city": "FARO",
      "lon": "-7.8941005051444755",
      "lat": "37.09502353333243"
    },
    {
      "id": "pt.ine.add.PTCONT.1748219",
      "street": "R VISC DE ESTOI",
      "house": "1D",
      "postcode": "8005-480",
      "city": "FARO",
      "lon": "-7.893976829412217",
      "lat": "37.09500526269003"
    },
    {
      "id": "pt.ine.add.PTCONT.1767557",
      "street": "R VISC DE ESTOI",
      "house": "4",
      "postcode": "8005-480",
      "city": "FARO",
      "lon": "-7.894302806626042",
      "lat": "37.09507800483518"
    },
    {
      "id": "pt.ine.add.PTCONT.1792999",
      "street": "R VISC DE ESTOI",
      "house": "8",
      "postcode": "8005-480",
      "city": "FARO",
      "lon": "-7.894167938939297",
      "lat": "37.09504169053831"
    }
  ]
}