{
  "data": {
    "distrito": "Lisboa",
    "concelho": "Cascais",
    "freguesia": "União das freguesias de Cascais e Estoril",
    "OBJECTID": 622,
    "BGRI2021": "11050803626",
    "DT21": "11",
    "DTMN21": "1105",
    "DTMNFR21": "110508",
    "DTMNFRSEC21": "110508036",
    "SECNUM21": "036",
    "SSNUM21": "26",
    "SECSSNUM21": "03626",
    "OBJECTID_1": 101283,
    "DT": "11",
    "CC": "05",
    "fr": "08",
    "SEC": "036",
    "SS": "26"
  },
  "addresses": [
    {
      "id": "pt.ine.add.PTCONT.2981847",
      "street": "LG DR PASSOS VELLA",
      "house": "9",
      "postcode": "2750-464",
      "city": "CASCAIS",
      "lon": "-9.422808132401462",
      "lat": "38.69768949946444"
    },
    {
      "id": "pt.ine.add.PTCONT.3017628",
      "street": "TV NAVEGANTES",
      "house": "16",
      "postcode": "2750-443",
      "city": "CASCAIS",
      "lon": "-9.422492134275744",
      "lat": "38.697715091384374"
    },
    {
      "id": "pt.ine.add.PTCONT.3158384",
      "street": "R JOÃO LUIS DE MOURA",
      "house": "3",
      "postcode": "2750-387",
      "city": "CASCAIS",
      "lon": "-9.42312057076226",
      "lat": "38.69774844105005"
    },
    {
      "id": "pt.ine.add.PTCONT.3158385",
      "street": "R JOÃO LUIS DE MOURA",
      "house": "3",
      "postcode": "2750-387",
      "city": "CASCAIS",
      "lon": "-9.42312057076226",
      "lat": "38.69774844105005"
    },
    {
      "id": "pt.ine.add.PTCONT.3158386",
      "street": "R JOÃO LUIS DE MOURA",
      "house": "3",
      "postcode": "2750-387",
      "city": "CASCAIS",
      "lon": "-9.42312057076226",
      "lat": "38.69774844105005"
    },
    {
      "id": "pt.ine.add.PTCONT.3213576",
      "street": "AV VASCO DA GAMA",
      "house": "36",
      "postcode": "2750-509",
      "city": "CASCAIS",
      "lon": "-9.423243559865083",
      "lat": "38.6973052176927"
    },
    {
      "id": "pt.ine.add.PTCONT.3213579",
      "street": "AV VASCO DA GAMA",
      "house": "36",
      "postcode": "2750-509",
      "city": "CASCAIS",
      "lon": "-9.423243559865083",
      "lat": "38.6973052176927"
    },
    {
      "id": "pt.ine.add.PTCONT.3213580",
      "street": "AV VASCO DA GAMA",
      "house": "36",
      "postcode": "2750-509",
      "city": "CASCAIS",
      "lon": "-9.423243559865083",
      "lat": "38.6973052176927"
    },
    {
      "id": "pt.ine.add.PTCONT.3376663",
      "street": "R NAVEGANTES",
      "house": "67",
      "postcode": "2750-445",
      "city": "CASCAIS",
      "lon": "-9.422692107530514",
      "lat": "38.69792738400943"
    },
    {
      "id": "pt.ine.add.PTCONT.3379759",
      "street": "LG DR PASSOS VELLA",
      "house": "12",
      "postcode": "2750-464",
      "city": "CASCAIS",
      "lon": "-9.42259176967794",
      "lat": "38.69767466849665"
    },
    {
      "id": "pt.ine.add.PTCONT.3415898",
      "street": "LG DR PASSOS VELLA",
      "house": "8",
      "postcode": "2750-464",
      "city": "CASCAIS",
      "lon": "-9.422915812665227",
      "lat": "38.69759840382833"
    },
    {
      "id": "pt.ine.add.PTCONT.3415899",
      "street": "LG DR PASSOS VELLA",
      "house": "8",
      "postcode": "2750-464",
      "city": "CASCAIS",
      "lon": "-9.422915812665227",
      "lat": "38.69759840382833"
    },
    {
      "id": "pt.ine.add.PTCONT.2273044",
      "street": "R NAVEGANTES",
      "house": "65",
      "postcode": "2750-445",
      "city": "CASCAIS",
      "lon": "-9.422619988082491",
      "lat": "38.69789123698118"
    },
    {
      "id": "pt.ine.add.PTCONT.2339847",
      "street": "R JOÃO LUIS DE MOURA",
      "house": "7",
      "postcode": "2750-387",
      "city": "CASCAIS",
      "lon": "-9.423344443800723",
      "lat": "38.697598206429994"
    },
    {
      "id": "pt.ine.add.PTCONT.2339848",
      "street": "R JOÃO LUIS DE MOURA",
      "house": "7",
      "postcode": "2750-387",
      "city": "CASCAIS",
      "lon": "-9.423344443800723",
      "lat": "38.697598206429994"
    },
    {
      "id": "pt.ine.add.PTCONT.2340325",
      "street": "R JOÃO LUIS DE MOURA",
      "house": "7",
      "postcode": "2750-387",
      "city": "CASCAIS",
      "lon": "-9.423344443800723",
      "lat": "38.697598206429994"
    },
    {
      "id": "pt.ine.add.PTCONT.2653418",
      "street": "BC TERRAS",
      "house": "1",
      "postcode": "2750-503",
      "city": "CASCAIS",
      "lon": "-9.422733990991366",
      "lat": "38.6978887887813"
    },
    {
      "id": "pt.ine.add.PTCONT.2666643",
      "street": "LG DR PASSOS VELLA",
      "house": "7",
      "postcode": "2750-464",
      "city": "CASCAIS",
      "lon": "-9.423011764771173",
      "lat": "38.69752227229018"
    },
    {
      "id": "pt.ine.add.PTCONT.2719551",
      "street": "R NAVEGANTES",
      "house": "63",
      "postcode": "2750-445",
      "city": "CASCAIS",
      "lon": "-9.422483160129646",
      "lat": "38.697808139178285"
    },
    {
      "id": "pt.ine.add.PTCONT.2791330",
      "street": "LG DR PASSOS VELLA",
      "house": "6",
      "postcode": "2750-464",
      "city": "CASCAIS",
      "lon": "-9.423028446090369",
      "lat": "38.69743509713201"
    },
    {
      "id": "pt.ine.add.PTCONT.2856682",
      "street": "R NAVEGANTES",
      "house": "69",
      "postcode": "2750-445",
      "city": "CASCAIS",
      "lon": "-9.422794683791665",
      "lat": "38.69797606527154"
    }
  ]
}