{
  "data": {
    "distrito": "Lisboa",
    "concelho": "Alenquer",
    "freguesia": "União das freguesias de Alenquer (Santo Estêvão e Triana)",
    "OBJECTID": 104,
    "BGRI2021": "11011900317",
    "DT21": "11",
    "DTMN21": "1101",
    "DTMNFR21": "110119",
    "DTMNFRSEC21": "110119003",
    "SECNUM21": "003",
    "SSNUM21": "17",
    "SECSSNUM21": "00317",
    "OBJECTID_1": 99361,
    "DT": "11",
    "CC": "01",
    "fr": "19",
    "SEC": "003",
    "SS": "17"
  },
  "addresses": [
    {
      "id": "pt.ine.add.PTCONT.2286764",
      "street": "R PRINCIPAL",
      "house": "",
      "postcode": "2580-377",
      "city": "ALENQUER",
      "lon": "-9.007705135021574",
      "lat": "39.071946065721406"
    },
    {
      "id": "pt.ine.add.PTCONT.2311504",
      "street": "QTA MOITA",
      "house": "",
      "postcode": "2580-381",
      "city": "ALENQUER",
      "lon": "-9.004001406462523",
      "lat": "39.089313054152086"
    },
    {
      "id": "pt.ine.add.PTCONT.2405535",
      "street": "R PRINCIPAL DA CARAPINHA",
      "house": "",
      "postcode": "2580-377",
      "city": "ALENQUER",
      "lon": "-9.008647340253647",
      "lat": "39.07619049699403"
    },
    {
      "id": "pt.ine.add.PTCONT.2405536",
      "street": "R PRINCIPAL DA CARAPINHA",
      "house": "",
      "postcode": "2580-377",
      "city": "ALENQUER",
      "lon": "-9.008647340253647",
      "lat": "39.07619049699403"
    },
    {
      "id": "pt.ine.add.PTCONT.2414334",
      "street": "CSL LAMEIRAS",
      "house": "",
      "postcode": "2580-381",
      "city": "ALENQUER",
      "lon": "-8.99899976139836",
      "lat": "39.073488252450765"
    },
    {
      "id": "pt.ine.add.PTCONT.2438719",
      "street": "",
      "house": "",
      "postcode": "2580-377",
      "city": "ALENQUER",
      "lon": "-9.011011618358793",
      "lat": "39.07767695846793"
    },
    {
      "id": "pt.ine.add.PTCONT.2499238",
      "street": "ESTR CARAPINHA",
      "house": "",
      "postcode": "2580-377",
      "city": "ALENQUER",
      "lon": "-9.00270756328909",
      "lat": "39.0639488133658"
    },
    {
      "id": "pt.ine.add.PTCONT.2505148",
      "street": "",
      "house": "",
      "postcode": "2580-377",
      "city": "ALENQUER",
      "lon": "-9.004417392051828",
      "lat": "39.069574703295046"
    },
    {
      "id": "pt.ine.add.PTCONT.2522946",
      "street": "IC 2",
      "house": "",
      "postcode": "2580-381",
      "city": "ALENQUER",
      "lon": "-8.993165484176606",
      "lat": "39.08977180119006"
    },
    {
      "id": "pt.ine.add.PTCONT.2522949",
      "street": "",
      "house": "",
      "postcode": "2580-377",
      "city": "ALENQUER",
      "lon": "-9.004725024276068",
      "lat": "39.06922111452625"
    },
    {
      "id": "pt.ine.add.PTCONT.2571323",
      "street": "CSL AUGUSTO POREM",
      "house": "",
      "postcode": "2580-381",
      "city": "ALENQUER",
      "lon": "-8.997213583641066",
      "lat": "39.071997262266315"
    },
    {
      "id": "pt.ine.add.PTCONT.2586169",
      "street": "",
      "house": "",
      "postcode": "2580-377",
      "city": "ALENQUER",
      "lon": "-9.010182257269507",
      "lat": "39.07882714121199"
    },
    {
      "id": "pt.ine.add.PTCONT.2597021",
      "street": "CSL LAMEIRAS",
      "house": "",
      "postcode": "2580-381",
      "city": "ALENQUER",
      "lon": "-9.000326472233253",
      "lat": "39.0751988108215"
    },
    {
      "id": "pt.ine.add.PTCONT.2683377",
      "street": "QTA DE S PAULO",
      "house": "",
      "postcode": "2580-377",
      "city": "ALENQUER",
      "lon": "-9.004712820616227",
      "lat": "39.07198648573658"
    },
    {
      "id": "pt.ine.add.PTCONT.2683378",
      "street": "QTA DE S PAULO",
      "house": "",
      "postcode": "2580-377",
      "city": "ALENQUER",
      "lon": "-9.004712820616227",
      "lat": "39.07198648573658"
    },
    {
      "id": "pt.ine.add.PTCONT.2683379",
      "street": "QTA DE S PAULO",
      "house": "",
      "postcode": "2580-377",
      "city": "ALENQUER",
      "lon": "-9.004712820616227",
      "lat": "39.07198648573658"
    },
    {
      "id": "pt.ine.add.PTCONT.2710155",
      "street": "CSL POREM",
      "house": "",
      "postcode": "2580-381",
      "city": "ALENQUER",
      "lon": "-8.996866266128425",
      "lat": "39.06909944284768"
    },
    {
      "id": "pt.ine.add.PTCONT.2710158",
      "street": "",
      "house": "",
      "postcode": "2580-377",
      "city": "ALENQUER",
      "lon": "-9.010419229752351",
      "lat": "39.078365980459544"
    },
    {
      "id": "pt.ine.add.PTCONT.2734067",
      "street": "QTA MOITA",
      "house": "",
      "postcode": "2580-381",
      "city": "ALENQUER",
      "lon": "-8.997845698224035",
      "lat": "39.08780959883269"
    },
    {
      "id": "pt.ine.add.PTCONT.2886988",
      "street": "R PRINCIPAL DA CARAPINHA CASAL VIEGAS VIV AMARELA",
      "house": "",
      "postcode": "2580-377",
      "city": "ALENQUER",
      "lon": "-9.007433942908499",
      "lat": "39.07150673569827"
    },
    {
      "id": "pt.ine.add.PTCONT.2923288",
      "street": "R PRINCIPAL CASAL DA SERRA",
      "house": "",
      "postcode": "2580-377",
      "city": "ALENQUER",
      "lon": "-9.010184737701826",
      "lat": "39.0771607511905"
    },
    {
      "id": "pt.ine.add.PTCONT.2940764",
      "street": "QTA REGEIRA",
      "house": "",
      "postcode": "2580-381",
      "city": "ALENQUER",
      "lon": "-8.997020064441267",
      "lat": "39.07034132911106"
    },
    {
      "id": "pt.ine.add.PTCONT.2947585",
      "street": "",
      "house": "",
      "postcode": "2580-377",
      "city": "ALENQUER",
      "lon": "-9.00771950306745",
      "lat": "39.075918230241406"
    },
    {
      "id": "pt.ine.add.PTCONT.3027242",
      "street": "R PRINCIPAL",
      "house": "",
      "postcode": "2580-377",
      "city": "ALENQUER",
      "lon": "-9.007587703453105",
      "lat": "39.07179382024963"
    },
    {
      "id": "pt.ine.add.PTCONT.3110909",
      "street": "CSL FORTES",
      "house": "",
      "postcode": "2580-377",
      "city": "ALENQUER",
      "lon": "-9.005059366500529",
      "lat": "39.074794210638274"
    },
    {
      "id": "pt.ine.add.PTCONT.3129570",
      "street": "CSL POREM",
      "house": "",
      "postcode": "2580-381",
      "city": "ALENQUER",
      "lon": "-8.996422597073183",
      "lat": "39.072516544536306"
    },
    {
      "id": "pt.ine.add.PTCONT.3149707",
      "street": "R PRINCIPAL DA CARAPINHA CASAL VIEGAS",
      "house": "",
      "postcode": "2580-377",
      "city": "ALENQUER",
      "lon": "-9.007259186666161",
      "lat": "39.07139094938512"
    },
    {
      "id": "pt.ine.add.PTCONT.3168724",
      "street": "R AUGUSTO ANTONIO POREM",
      "house": "",
      "postcode": "2580-381",
      "city": "ALENQUER",
      "lon": "-8.99825334693944",
      "lat": "39.07292632496548"
    },
    {
      "id": "pt.ine.add.PTCONT.3168727",
      "street": "",
      "house": "",
      "postcode": "2580-377",
      "city": "ALENQUER",
      "lon": "-9.004442639817245",
      "lat": "39.06880888317783"
    },
    {
      "id": "pt.ine.add.PTCONT.3415389",
      "street": "CSL POREM",
      "house": "",
      "postcode": "2580-381",
      "city": "ALENQUER",
      "lon": "-8.996789874532816",
      "lat": "39.07799934570878"
    }
  ]
}