{
  "data": {
    "distrito": "Viseu",
    "concelho": "Sátão",
    "freguesia": "Sátão",
    "OBJECTID": 333,
    "BGRI2021": "18171000403",
    "DT21": "18",
    "DTMN21": "1817",
    "DTMNFR21": "181710",
    "DTMNFRSEC21": "181710004",
    "SECNUM21": "004",
    "SSNUM21": "03",
    "SECSSNUM21": "00403",
    "OBJECTID_1": 197631,
    "DT": "18",
    "CC": "17",
    "fr": "10",
    "SEC": "004",
    "SS": "03"
  },
  "addresses": [
    {
      "id": "pt.ine.add.PTCONT.5475253",
      "street": "R DE MOÇAMBIQUE",
      "house": "87",
      "postcode": "3560-209",
      "city": "SÁTÃO",
      "lon": "-7.728691797264345",
      "lat": "40.74206819348819"
    },
    {
      "id": "pt.ine.add.PTCONT.5480714",
      "street": "R DR ANTÓNIO FARO",
      "house": "108",
      "postcode": "3560-218",
      "city": "SÁTÃO",
      "lon": "-7.728132783023839",
      "lat": "40.742489468700064"
    },
    {
      "id": "pt.ine.add.PTCONT.5526401",
      "street": "R MACAU",
      "house": "118",
      "postcode": "3560-219",
      "city": "SÁTÃO",
      "lon": "-7.72802469893009",
      "lat": "40.74274122955939"
    },
    {
      "id": "pt.ine.add.PTCONT.5534175",
      "street": "R DR ANTÓNIO FARO",
      "house": "148",
      "postcode": "3560-218",
      "city": "SÁTÃO",
      "lon": "-7.728288769585642",
      "lat": "40.742147825689294"
    },
    {
      "id": "pt.ine.add.PTCONT.5534176",
      "street": "R MACAU",
      "house": "90",
      "postcode": "3560-219",
      "city": "SÁTÃO",
      "lon": "-7.728356475702052",
      "lat": "40.74269736847552"
    },
    {
      "id": "pt.ine.add.PTCONT.5542744",
      "street": "R DR ANTÓNIO FARO",
      "house": "150",
      "postcode": "3560-218",
      "city": "SÁTÃO",
      "lon": "-7.7283128303664",
      "lat": "40.742084875034244"
    },
    {
      "id": "pt.ine.add.PTCONT.5594071",
      "street": "R MOÇAMBIQUE",
      "house": "113",
      "postcode": "3560-209",
      "city": "SÁTÃO",
      "lon": "-7.7284323149501635",
      "lat": "40.74190519389687"
    },
    {
      "id": "pt.ine.add.PTCONT.5601429",
      "street": "R DE CABO VERDE",
      "house": "59",
      "postcode": "3560-221",
      "city": "SÁTÃO",
      "lon": "-7.728560473745757",
      "lat": "40.74224783339483"
    },
    {
      "id": "pt.ine.add.PTCONT.5634440",
      "street": "R DR ANTÓNIO FARO",
      "house": "118",
      "postcode": "3560-218",
      "city": "SÁTÃO",
      "lon": "-7.728192853657978",
      "lat": "40.74234559936626"
    },
    {
      "id": "pt.ine.add.PTCONT.5639850",
      "street": "R DR ANTÓNIO FARO",
      "house": "116",
      "postcode": "3560-218",
      "city": "SÁTÃO",
      "lon": "-7.728168738056118",
      "lat": "40.742417554806394"
    },
    {
      "id": "pt.ine.add.PTCONT.5641506",
      "street": "R DR ANTÓNIO FARO",
      "house": "138",
      "postcode": "3560-218",
      "city": "SÁTÃO",
      "lon": "-7.728252814829971",
      "lat": "40.74221973962503"
    },
    {
      "id": "pt.ine.add.PTCONT.5667619",
      "street": "R CABO VERDE",
      "house": "35",
      "postcode": "3560-221",
      "city": "SÁTÃO",
      "lon": "-7.728452609956406",
      "lat": "40.742463575418235"
    }
  ]
}