{
  "data": {
    "distrito": "Évora",
    "concelho": "Mora",
    "freguesia": "Pavia",
    "OBJECTID": 202,
    "BGRI2021": "07070400225",
    "DT21": "07",
    "DTMN21": "0707",
    "DTMNFR21": "070704",
    "DTMNFRSEC21": "070704002",
    "SECNUM21": "002",
    "SSNUM21": "25",
    "SECSSNUM21": "00225",
    "OBJECTID_1": 62148,
    "DT": "07",
    "CC": "07",
    "fr": "04",
    "SEC": "002",
    "SS": "25"
  },
  "addresses": [
    {
      "id": "pt.ine.add.PTCONT.1370231",
      "street": "R VEREADOR JOSE CANELAS",
      "house": "2",
      "postcode": "7490-406",
      "city": "PAVIA",
      "lon": "-7.935165518160371",
      "lat": "38.938149386584044"
    },
    {
      "id": "pt.ine.add.PTCONT.1373754",
      "street": "R CENTRO CÍVICO",
      "house": "",
      "postcode": "7490-406",
      "city": "PAVIA",
      "lon": "-7.9349479819508355",
      "lat": "38.93757251589886"
    },
    {
      "id": "pt.ine.add.PTCONT.1384650",
      "street": "MTE CASCALHO",
      "house": "",
      "postcode": "7490-406",
      "city": "PAVIA",
      "lon": "-7.935637226512844",
      "lat": "38.93857355385479"
    },
    {
      "id": "pt.ine.add.PTCONT.1391847",
      "street": "R VEREADOR JOSE CANELAS",
      "house": "9",
      "postcode": "7490-406",
      "city": "PAVIA",
      "lon": "-7.93491145033478",
      "lat": "38.93826605735359"
    },
    {
      "id": "pt.ine.add.PTCONT.1396458",
      "street": "R VEREADOR JOSE CANELAS",
      "house": "",
      "postcode": "7490-406",
      "city": "PAVIA",
      "lon": "-7.935177853193848",
      "lat": "38.93786115670828"
    },
    {
      "id": "pt.ine.add.PTCONT.1404923",
      "street": "MTE TIO PEDRO 1",
      "house": "",
      "postcode": "7490-406",
      "city": "PAVIA",
      "lon": "-7.935828260754695",
      "lat": "38.94455507720634"
    },
    {
      "id": "pt.ine.add.PTCONT.1415398",
      "street": "R VEREADOR JOSE CANELAS",
      "house": "",
      "postcode": "7490-406",
      "city": "PAVIA",
      "lon": "-7.935038496880857",
      "lat": "38.938203218141275"
    },
    {
      "id": "pt.ine.add.PTCONT.1422047",
      "street": "R VEREADOR JOSE CANELAS",
      "house": "",
      "postcode": "7490-406",
      "city": "PAVIA",
      "lon": "-7.934923786418892",
      "lat": "38.93797782751319"
    },
    {
      "id": "pt.ine.add.PTCONT.1423809",
      "street": "MTE FIGUEIRAS 2",
      "house": "",
      "postcode": "7490-406",
      "city": "PAVIA",
      "lon": "-7.936152085651275",
      "lat": "38.940078732209614"
    },
    {
      "id": "pt.ine.add.PTCONT.1424233",
      "street": "MTE FIGUEIRA",
      "house": "",
      "postcode": "7490-406",
      "city": "PAVIA",
      "lon": "-7.9315746559737255",
      "lat": "38.93951243317726"
    },
    {
      "id": "pt.ine.add.PTCONT.1425188",
      "street": "MTE POMAR",
      "house": "",
      "postcode": "7490-406",
      "city": "PAVIA",
      "lon": "-7.93244125728583",
      "lat": "38.94305400409219"
    },
    {
      "id": "pt.ine.add.PTCONT.1429537",
      "street": "MTE FIGUEIRAS 1",
      "house": "",
      "postcode": "7490-406",
      "city": "PAVIA",
      "lon": "-7.936141249401554",
      "lat": "38.93982649456298"
    },
    {
      "id": "pt.ine.add.PTCONT.1431973",
      "street": "MTE BOAVISTA",
      "house": "",
      "postcode": "7490-406",
      "city": "PAVIA",
      "lon": "-7.934266416263376",
      "lat": "38.937958693896775"
    },
    {
      "id": "pt.ine.add.PTCONT.1432329",
      "street": "R CENTRO CÍVICO",
      "house": "",
      "postcode": "7490-406",
      "city": "PAVIA",
      "lon": "-7.935294516310297",
      "lat": "38.93738393906136"
    },
    {
      "id": "pt.ine.add.PTCONT.1438763",
      "street": "MTE SERRA",
      "house": "",
      "postcode": "7490-406",
      "city": "PAVIA",
      "lon": "-7.928701205532948",
      "lat": "38.94002989108933"
    },
    {
      "id": "pt.ine.add.PTCONT.1439018",
      "street": "R VEREADOR JOSE CANELAS",
      "house": "",
      "postcode": "7490-406",
      "city": "PAVIA",
      "lon": "-7.935304898782024",
      "lat": "38.9377983171992"
    },
    {
      "id": "pt.ine.add.PTCONT.1444758",
      "street": "MTE BOAVISTA",
      "house": "",
      "postcode": "7490-406",
      "city": "PAVIA",
      "lon": "-7.934220004723206",
      "lat": "38.93805770103665"
    },
    {
      "id": "pt.ine.add.PTCONT.1447946",
      "street": "MTE TIO PEDRO 2",
      "house": "",
      "postcode": "7490-406",
      "city": "PAVIA",
      "lon": "-7.935942884792794",
      "lat": "38.94481649786487"
    },
    {
      "id": "pt.ine.add.PTCONT.1449135",
      "street": "R CENTRO CÍVICO",
      "house": "",
      "postcode": "7490-406",
      "city": "PAVIA",
      "lon": "-7.9347978691787135",
      "lat": "38.93763531583577"
    },
    {
      "id": "pt.ine.add.PTCONT.1453364",
      "street": "MTE BOAVISTA",
      "house": "",
      "postcode": "7490-406",
      "city": "PAVIA",
      "lon": "-7.934196786321932",
      "lat": "38.93811170849594"
    },
    {
      "id": "pt.ine.add.PTCONT.1454801",
      "street": "R VEREADOR JOSE CANELAS",
      "house": "640",
      "postcode": "7490-406",
      "city": "PAVIA",
      "lon": "-7.935269446794647",
      "lat": "38.93810452358868"
    },
    {
      "id": "pt.ine.add.PTCONT.1455067",
      "street": "R VEREADOR JOSE CANELAS",
      "house": "",
      "postcode": "7490-406",
      "city": "PAVIA",
      "lon": "-7.935062366121397",
      "lat": "38.93791500785186"
    },
    {
      "id": "pt.ine.add.PTCONT.1457107",
      "street": "MTE MANUEL LUIS",
      "house": "",
      "postcode": "7490-406",
      "city": "PAVIA",
      "lon": "-7.931460262338222",
      "lat": "38.94325048573333"
    },
    {
      "id": "pt.ine.add.PTCONT.1462512",
      "street": "MTE LADEIRA",
      "house": "",
      "postcode": "7490-406",
      "city": "PAVIA",
      "lon": "-7.933082127821604",
      "lat": "38.94485666964433"
    },
    {
      "id": "pt.ine.add.PTCONT.1463130",
      "street": "MTE DO VALE MONTE",
      "house": "",
      "postcode": "7490-406",
      "city": "PAVIA",
      "lon": "-7.93460432038878",
      "lat": "38.94500339348791"
    },
    {
      "id": "pt.ine.add.PTCONT.1463928",
      "street": "R 25 ABRIL",
      "house": "18",
      "postcode": "7490-406",
      "city": "PAVIA",
      "lon": "-7.935363242568071",
      "lat": "38.937555204430595"
    },
    {
      "id": "pt.ine.add.PTCONT.1464872",
      "street": "MTE LARANJEIRAS",
      "house": "",
      "postcode": "7490-406",
      "city": "PAVIA",
      "lon": "-7.935670878672615",
      "lat": "38.938915908553966"
    }
  ]
}