{
  "data": {
    "distrito": "Viseu",
    "concelho": "Viseu",
    "freguesia": "União das freguesias de Boa Aldeia, Farminhão e Torredeita",
    "OBJECTID": 184,
    "BGRI2021": "18233600321",
    "DT21": "18",
    "DTMN21": "1823",
    "DTMNFR21": "182336",
    "DTMNFRSEC21": "182336003",
    "SECNUM21": "003",
    "SSNUM21": "21",
    "SECSSNUM21": "00321",
    "OBJECTID_1": 201965,
    "DT": "18",
    "CC": "23",
    "fr": "36",
    "SEC": "003",
    "SS": "21"
  },
  "addresses": [
    {
      "id": "pt.ine.add.PTCONT.5448747",
      "street": "R COMBATENTES",
      "house": "7",
      "postcode": "3510-291",
      "city": "BOA ALDEIA",
      "lon": "-8.05644296480203",
      "lat": "40.631970197015626"
    },
    {
      "id": "pt.ine.add.PTCONT.5486076",
      "street": "R NOVA",
      "house": "",
      "postcode": "3510-291",
      "city": "BOA ALDEIA",
      "lon": "-8.05572202061406",
      "lat": "40.63189767448856"
    },
    {
      "id": "pt.ine.add.PTCONT.5518084",
      "street": "R NOVA",
      "house": "",
      "postcode": "3510-291",
      "city": "BOA ALDEIA",
      "lon": "-8.050263824610383",
      "lat": "40.62971462665493"
    },
    {
      "id": "pt.ine.add.PTCONT.5519523",
      "street": "R COMBATENTES",
      "house": "9",
      "postcode": "3510-291",
      "city": "BOA ALDEIA",
      "lon": "-8.056171143369333",
      "lat": "40.63193399540699"
    },
    {
      "id": "pt.ine.add.PTCONT.5542954",
      "street": "R VARGO",
      "house": "54",
      "postcode": "3510-291",
      "city": "BOA ALDEIA",
      "lon": "-8.058024117299162",
      "lat": "40.6344206526747"
    },
    {
      "id": "pt.ine.add.PTCONT.5551480",
      "street": "R COMBATENTES",
      "house": "21",
      "postcode": "3510-291",
      "city": "BOA ALDEIA",
      "lon": "-8.05421013857823",
      "lat": "40.63096911471052"
    },
    {
      "id": "pt.ine.add.PTCONT.5560906",
      "street": "R COMBATENTES",
      "house": "",
      "postcode": "3510-291",
      "city": "BOA ALDEIA",
      "lon": "-8.054788516197846",
      "lat": "40.63165390449291"
    },
    {
      "id": "pt.ine.add.PTCONT.5620157",
      "street": "R OUTEIRO DA CRUZ",
      "house": "64",
      "postcode": "3510-291",
      "city": "BOA ALDEIA",
      "lon": "-8.05536310366679",
      "lat": "40.63561658435841"
    },
    {
      "id": "pt.ine.add.PTCONT.5639303",
      "street": "R COMBATENTES",
      "house": "",
      "postcode": "3510-291",
      "city": "BOA ALDEIA",
      "lon": "-8.058640626970956",
      "lat": "40.632764093505045"
    },
    {
      "id": "pt.ine.add.PTCONT.5665119",
      "street": "R COMBATENTES",
      "house": "35",
      "postcode": "3510-291",
      "city": "BOA ALDEIA",
      "lon": "-8.051599365551963",
      "lat": "40.62978761867393"
    }
  ]
}