{
  "data": {
    "distrito": "Braga",
    "concelho": "Guimarães",
    "freguesia": "Urgezes",
    "OBJECTID": 447,
    "BGRI2021": "03087100212",
    "DT21": "03",
    "DTMN21": "0308",
    "DTMNFR21": "030871",
    "DTMNFRSEC21": "030871002",
    "SECNUM21": "002",
    "SSNUM21": "12",
    "SECSSNUM21": "00212",
    "OBJECTID_1": 26931,
    "DT": "03",
    "CC": "08",
    "fr": "71",
    "SEC": "002",
    "SS": "12"
  },
  "addresses": [
    {
      "id": "pt.ine.add.PTCONT.502032",
      "street": "R ANTÓNIO DA COSTA GUIMARÃES",
      "house": "1544",
      "postcode": "4810-491",
      "city": "GUIMARÃES",
      "lon": "-8.298909694774265",
      "lat": "41.428485075012325"
    },
    {
      "id": "pt.ine.add.PTCONT.507797",
      "street": "R ANTONIO COSTA GUIMARAES C F",
      "house": "C F",
      "postcode": "4810-491",
      "city": "GUIMARÃES",
      "lon": "-8.299321663169966",
      "lat": "41.430528378875465"
    },
    {
      "id": "pt.ine.add.PTCONT.605240",
      "street": "R JOÃO ANTÓNIO FERNANDES",
      "house": "146",
      "postcode": "4810-491",
      "city": "GUIMARÃES",
      "lon": "-8.299798417510603",
      "lat": "41.42982538054276"
    },
    {
      "id": "pt.ine.add.PTCONT.605241",
      "street": "R JOÃO ANTÓNIO FERNANDES",
      "house": "146",
      "postcode": "4810-491",
      "city": "GUIMARÃES",
      "lon": "-8.299798417510603",
      "lat": "41.42982538054276"
    },
    {
      "id": "pt.ine.add.PTCONT.605242",
      "street": "R JOÃO ANTÓNIO FERNANDES",
      "house": "146",
      "postcode": "4810-491",
      "city": "GUIMARÃES",
      "lon": "-8.299798417510603",
      "lat": "41.42982538054276"
    },
    {
      "id": "pt.ine.add.PTCONT.605243",
      "street": "R JOÃO ANTÓNIO FERNANDES",
      "house": "146",
      "postcode": "4810-491",
      "city": "GUIMARÃES",
      "lon": "-8.299798417510603",
      "lat": "41.42982538054276"
    },
    {
      "id": "pt.ine.add.PTCONT.605244",
      "street": "R JOÃO ANTÓNIO FERNANDES",
      "house": "146",
      "postcode": "4810-491",
      "city": "GUIMARÃES",
      "lon": "-8.299798417510603",
      "lat": "41.42982538054276"
    },
    {
      "id": "pt.ine.add.PTCONT.605245",
      "street": "R JOÃO ANTÓNIO FERNANDES",
      "house": "146",
      "postcode": "4810-491",
      "city": "GUIMARÃES",
      "lon": "-8.299798417510603",
      "lat": "41.42982538054276"
    },
    {
      "id": "pt.ine.add.PTCONT.605246",
      "street": "R JOÃO ANTÓNIO FERNANDES",
      "house": "146",
      "postcode": "4810-491",
      "city": "GUIMARÃES",
      "lon": "-8.299798417510603",
      "lat": "41.42982538054276"
    },
    {
      "id": "pt.ine.add.PTCONT.605247",
      "street": "R JOÃO ANTÓNIO FERNANDES",
      "house": "146",
      "postcode": "4810-491",
      "city": "GUIMARÃES",
      "lon": "-8.299798417510603",
      "lat": "41.42982538054276"
    },
    {
      "id": "pt.ine.add.PTCONT.605248",
      "street": "R JOÃO ANTÓNIO FERNANDES",
      "house": "146",
      "postcode": "4810-491",
      "city": "GUIMARÃES",
      "lon": "-8.299798417510603",
      "lat": "41.42982538054276"
    },
    {
      "id": "pt.ine.add.PTCONT.605249",
      "street": "R JOÃO ANTÓNIO FERNANDES",
      "house": "146",
      "postcode": "4810-491",
      "city": "GUIMARÃES",
      "lon": "-8.299798417510603",
      "lat": "41.42982538054276"
    },
    {
      "id": "pt.ine.add.PTCONT.605252",
      "street": "R JOÃO ANTÓNIO FERNANDES",
      "house": "146",
      "postcode": "4810-491",
      "city": "GUIMARÃES",
      "lon": "-8.299798417510603",
      "lat": "41.42982538054276"
    },
    {
      "id": "pt.ine.add.PTCONT.605253",
      "street": "R JOÃO ANTÓNIO FERNANDES",
      "house": "146",
      "postcode": "4810-491",
      "city": "GUIMARÃES",
      "lon": "-8.299798417510603",
      "lat": "41.42982538054276"
    },
    {
      "id": "pt.ine.add.PTCONT.605946",
      "street": "R JOÃO ANTÓNIO FERNANDES",
      "house": "146",
      "postcode": "4810-491",
      "city": "GUIMARÃES",
      "lon": "-8.299798417510603",
      "lat": "41.42982538054276"
    },
    {
      "id": "pt.ine.add.PTCONT.606104",
      "street": "R JOÃO ANTÓNIO FERNANDES",
      "house": "146",
      "postcode": "4810-491",
      "city": "GUIMARÃES",
      "lon": "-8.299798417510603",
      "lat": "41.42982538054276"
    },
    {
      "id": "pt.ine.add.PTCONT.619793",
      "street": "R ANTÓNIO DA COSTA GUIMARÃES",
      "house": "1172",
      "postcode": "4810-491",
      "city": "GUIMARÃES",
      "lon": "-8.300253451544444",
      "lat": "41.42998679159074"
    },
    {
      "id": "pt.ine.add.PTCONT.619794",
      "street": "R ANTÓNIO DA COSTA GUIMARÃES",
      "house": "1172",
      "postcode": "4810-491",
      "city": "GUIMARÃES",
      "lon": "-8.300253451544444",
      "lat": "41.42998679159074"
    },
    {
      "id": "pt.ine.add.PTCONT.634595",
      "street": "R ANTÓNIO DA COSTA GUIMARÃES QTA DAS ALDEIAS",
      "house": "916",
      "postcode": "4810-491",
      "city": "GUIMARÃES",
      "lon": "-8.299730480346026",
      "lat": "41.43132913952446"
    },
    {
      "id": "pt.ine.add.PTCONT.675667",
      "street": "R ANTÓNIO DA COSTA GUIMARÃES",
      "house": "1540",
      "postcode": "4810-491",
      "city": "GUIMARÃES",
      "lon": "-8.298874148123382",
      "lat": "41.42862018561444"
    },
    {
      "id": "pt.ine.add.PTCONT.781246",
      "street": "R ANTÓNIO DA COSTA GUIMARÃES",
      "house": "1498",
      "postcode": "4810-491",
      "city": "GUIMARÃES",
      "lon": "-8.29912652681202",
      "lat": "41.4290700196252"
    },
    {
      "id": "pt.ine.add.PTCONT.799500",
      "street": "R JOÃO ANTÓNIO FERNANDES",
      "house": "64",
      "postcode": "4810-491",
      "city": "GUIMARÃES",
      "lon": "-8.299403318665139",
      "lat": "41.429708900859474"
    },
    {
      "id": "pt.ine.add.PTCONT.799501",
      "street": "R JOÃO ANTÓNIO FERNANDES",
      "house": "64",
      "postcode": "4810-491",
      "city": "GUIMARÃES",
      "lon": "-8.299403318665139",
      "lat": "41.429708900859474"
    },
    {
      "id": "pt.ine.add.PTCONT.799502",
      "street": "R JOÃO ANTÓNIO FERNANDES",
      "house": "64",
      "postcode": "4810-491",
      "city": "GUIMARÃES",
      "lon": "-8.299403318665139",
      "lat": "41.429708900859474"
    },
    {
      "id": "pt.ine.add.PTCONT.799503",
      "street": "R JOÃO ANTÓNIO FERNANDES",
      "house": "64",
      "postcode": "4810-491",
      "city": "GUIMARÃES",
      "lon": "-8.299403318665139",
      "lat": "41.429708900859474"
    },
    {
      "id": "pt.ine.add.PTCONT.799504",
      "street": "R JOÃO ANTÓNIO FERNANDES",
      "house": "64",
      "postcode": "4810-491",
      "city": "GUIMARÃES",
      "lon": "-8.299403318665139",
      "lat": "41.429708900859474"
    },
    {
      "id": "pt.ine.add.PTCONT.799505",
      "street": "R JOÃO ANTÓNIO FERNANDES",
      "house": "64",
      "postcode": "4810-491",
      "city": "GUIMARÃES",
      "lon": "-8.299403318665139",
      "lat": "41.429708900859474"
    },
    {
      "id": "pt.ine.add.PTCONT.799506",
      "street": "R JOÃO ANTÓNIO FERNANDES",
      "house": "64",
      "postcode": "4810-491",
      "city": "GUIMARÃES",
      "lon": "-8.299403318665139",
      "lat": "41.429708900859474"
    },
    {
      "id": "pt.ine.add.PTCONT.799507",
      "street": "R JOÃO ANTÓNIO FERNANDES",
      "house": "64",
      "postcode": "4810-491",
      "city": "GUIMARÃES",
      "lon": "-8.299403318665139",
      "lat": "41.429708900859474"
    },
    {
      "id": "pt.ine.add.PTCONT.799508",
      "street": "R JOÃO ANTÓNIO FERNANDES",
      "house": "64",
      "postcode": "4810-491",
      "city": "GUIMARÃES",
      "lon": "-8.299403318665139",
      "lat": "41.429708900859474"
    },
    {
      "id": "pt.ine.add.PTCONT.799509",
      "street": "R JOÃO ANTÓNIO FERNANDES",
      "house": "64",
      "postcode": "4810-491",
      "city": "GUIMARÃES",
      "lon": "-8.299403318665139",
      "lat": "41.429708900859474"
    },
    {
      "id": "pt.ine.add.PTCONT.799510",
      "street": "R JOÃO ANTÓNIO FERNANDES",
      "house": "64",
      "postcode": "4810-491",
      "city": "GUIMARÃES",
      "lon": "-8.299403318665139",
      "lat": "41.429708900859474"
    },
    {
      "id": "pt.ine.add.PTCONT.799523",
      "street": "R JOÃO ANTÓNIO FERNANDES",
      "house": "64",
      "postcode": "4810-491",
      "city": "GUIMARÃES",
      "lon": "-8.299403318665139",
      "lat": "41.429708900859474"
    },
    {
      "id": "pt.ine.add.PTCONT.799524",
      "street": "R JOÃO ANTÓNIO FERNANDES",
      "house": "64",
      "postcode": "4810-491",
      "city": "GUIMARÃES",
      "lon": "-8.299403318665139",
      "lat": "41.429708900859474"
    },
    {
      "id": "pt.ine.add.PTCONT.801336",
      "street": "R JOÃO ANTÓNIO FERNANDES CASA DO CAMPO",
      "house": "125",
      "postcode": "4810-491",
      "city": "GUIMARÃES",
      "lon": "-8.299917201163412",
      "lat": "41.42949206197615"
    },
    {
      "id": "pt.ine.add.PTCONT.801337",
      "street": "R JOÃO ANTÓNIO FERNANDES CASA DO CAMPO",
      "house": "125",
      "postcode": "4810-491",
      "city": "GUIMARÃES",
      "lon": "-8.299917201163412",
      "lat": "41.42949206197615"
    },
    {
      "id": "pt.ine.add.PTCONT.802042",
      "street": "R JOÃO ANTÓNIO FERNANDES CASA DO CAMPO",
      "house": "125",
      "postcode": "4810-491",
      "city": "GUIMARÃES",
      "lon": "-8.299917201163412",
      "lat": "41.42949206197615"
    },
    {
      "id": "pt.ine.add.PTCONT.813645",
      "street": "R ANTÓNIO DA COSTA GUIMARÃES",
      "house": "1202",
      "postcode": "4810-491",
      "city": "GUIMARÃES",
      "lon": "-8.299308321571154",
      "lat": "41.42998816078655"
    },
    {
      "id": "pt.ine.add.PTCONT.843973",
      "street": "R JOÃO ANTÓNIO FERNANDES",
      "house": "",
      "postcode": "4810-491",
      "city": "GUIMARÃES",
      "lon": "-8.300312114790694",
      "lat": "41.42953650851194"
    }
  ]
}