{
  "data": {
    "distrito": "Faro",
    "concelho": "Castro Marim",
    "freguesia": "Castro Marim",
    "OBJECTID": 104,
    "BGRI2021": "08040200529",
    "DT21": "08",
    "DTMN21": "0804",
    "DTMNFR21": "080402",
    "DTMNFRSEC21": "080402005",
    "SECNUM21": "005",
    "SSNUM21": "29",
    "SECSSNUM21": "00529",
    "OBJECTID_1": 65608,
    "DT": "08",
    "CC": "04",
    "fr": "02",
    "SEC": "005",
    "SS": "29"
  },
  "addresses": [
    {
      "id": "pt.ine.add.PTCONT.1565806",
      "street": "CPO HORTA DAS DRAGAS",
      "house": "",
      "postcode": "8950-258",
      "city": "CASTRO MARIM",
      "lon": "-7.477269149463203",
      "lat": "37.218785850935994"
    },
    {
      "id": "pt.ine.add.PTCONT.1654075",
      "street": "CPO CASAL",
      "house": "",
      "postcode": "8950-256",
      "city": "CASTRO MARIM",
      "lon": "-7.477190189141594",
      "lat": "37.21489294955486"
    },
    {
      "id": "pt.ine.add.PTCONT.1691935",
      "street": "CPO HORTA DAS DRAGAS",
      "house": "",
      "postcode": "8950-258",
      "city": "CASTRO MARIM",
      "lon": "-7.477263845039887",
      "lat": "37.21939852402307"
    },
    {
      "id": "pt.ine.add.PTCONT.1727065",
      "street": "CASAL",
      "house": "",
      "postcode": "8950-283",
      "city": "CASTRO MARIM",
      "lon": "-7.477303156364595",
      "lat": "37.21485753373533"
    },
    {
      "id": "pt.ine.add.PTCONT.1753205",
      "street": "CPO SAPAL CHÃO",
      "house": "",
      "postcode": "8950-258",
      "city": "CASTRO MARIM",
      "lon": "-7.470515163274028",
      "lat": "37.219387992988594"
    },
    {
      "id": "pt.ine.add.PTCONT.1786433",
      "street": "CPO SAPAL CHÃO",
      "house": "",
      "postcode": "8950-227",
      "city": "CASTRO MARIM",
      "lon": "-7.467267712789976",
      "lat": "37.21840567633313"
    },
    {
      "id": "pt.ine.add.PTCONT.1835353",
      "street": "CPO HORTA DAS DRAGAS",
      "house": "",
      "postcode": "8950-258",
      "city": "CASTRO MARIM",
      "lon": "-7.4758126168599714",
      "lat": "37.21914720029881"
    },
    {
      "id": "pt.ine.add.PTCONT.1843148",
      "street": "CPO QUINTA DO SOBRAL",
      "house": "",
      "postcode": "8950-256",
      "city": "CASTRO MARIM",
      "lon": "-7.473210964128069",
      "lat": "37.208689754112356"
    }
  ]
}