{
  "data": {
    "distrito": "Vila Real",
    "concelho": "Boticas",
    "freguesia": "Alturas do Barroso e Cerdedo",
    "OBJECTID": 400,
    "BGRI2021": "17021700113",
    "DT21": "17",
    "DTMN21": "1702",
    "DTMNFR21": "170217",
    "DTMNFRSEC21": "170217001",
    "SECNUM21": "001",
    "SSNUM21": "13",
    "SECSSNUM21": "00113",
    "OBJECTID_1": 180392,
    "DT": "17",
    "CC": "02",
    "fr": "17",
    "SEC": "001",
    "SS": "13"
  },
  "addresses": [
    {
      "id": "pt.ine.add.PTCONT.5293295",
      "street": "CAM DA VEIGA",
      "house": "4",
      "postcode": "5460-030",
      "city": "ALTURAS DO BARROSO",
      "lon": "-7.807004238634492",
      "lat": "41.67983317509523"
    },
    {
      "id": "pt.ine.add.PTCONT.5299211",
      "street": "R DO BOCAL",
      "house": "22",
      "postcode": "5460-030",
      "city": "ALTURAS DO BARROSO",
      "lon": "-7.811125428950295",
      "lat": "41.681879596893324"
    },
    {
      "id": "pt.ine.add.PTCONT.5305399",
      "street": "CAM DA VEIGA",
      "house": "20",
      "postcode": "5460-030",
      "city": "ALTURAS DO BARROSO",
      "lon": "-7.809654006550997",
      "lat": "41.68071400735792"
    },
    {
      "id": "pt.ine.add.PTCONT.5317949",
      "street": "TV DO SEIXAL",
      "house": "1",
      "postcode": "5460-030",
      "city": "ALTURAS DO BARROSO",
      "lon": "-7.808152593892105",
      "lat": "41.680745786301955"
    },
    {
      "id": "pt.ine.add.PTCONT.5327972",
      "street": "TV DO CRUZEIRO",
      "house": "3",
      "postcode": "5460-030",
      "city": "ALTURAS DO BARROSO",
      "lon": "-7.811340668335219",
      "lat": "41.682069274211734"
    },
    {
      "id": "pt.ine.add.PTCONT.5341208",
      "street": "CAM DA VEIGA",
      "house": "2",
      "postcode": "5460-030",
      "city": "ALTURAS DO BARROSO",
      "lon": "-7.806562019477572",
      "lat": "41.679408752573266"
    },
    {
      "id": "pt.ine.add.PTCONT.5348434",
      "street": "R DO CRUZEIRO",
      "house": "2",
      "postcode": "5460-030",
      "city": "ALTURAS DO BARROSO",
      "lon": "-7.811111982570768",
      "lat": "41.682167672775016"
    },
    {
      "id": "pt.ine.add.PTCONT.5357218",
      "street": "R DO RABATÃO",
      "house": "13",
      "postcode": "5460-030",
      "city": "ALTURAS DO BARROSO",
      "lon": "-7.811327133160181",
      "lat": "41.682375356957216"
    },
    {
      "id": "pt.ine.add.PTCONT.5362457",
      "street": "TV DA COSTA",
      "house": "6",
      "postcode": "5460-030",
      "city": "ALTURAS DO BARROSO",
      "lon": "-7.810992509942193",
      "lat": "41.682041288315425"
    },
    {
      "id": "pt.ine.add.PTCONT.5376618",
      "street": "R DO RABATÃO",
      "house": "4",
      "postcode": "5460-030",
      "city": "ALTURAS DO BARROSO",
      "lon": "-7.810490471740487",
      "lat": "41.683966639206666"
    },
    {
      "id": "pt.ine.add.PTCONT.5381914",
      "street": "R DO CRUZEIRO",
      "house": "4",
      "postcode": "5460-030",
      "city": "ALTURAS DO BARROSO",
      "lon": "-7.81129199987037",
      "lat": "41.68219518762376"
    },
    {
      "id": "pt.ine.add.PTCONT.5400254",
      "street": "TV COSTA",
      "house": "6",
      "postcode": "5460-030",
      "city": "ALTURAS DO BARROSO",
      "lon": "-7.810991881320511",
      "lat": "41.682167336231025"
    },
    {
      "id": "pt.ine.add.PTCONT.5413205",
      "street": "R DO BOCAL",
      "house": "14",
      "postcode": "5460-030",
      "city": "ALTURAS DO BARROSO",
      "lon": "-7.810515883169846",
      "lat": "41.68128365337393"
    },
    {
      "id": "pt.ine.add.PTCONT.5419668",
      "street": "CAM DA VEIGA",
      "house": "6",
      "postcode": "5460-030",
      "city": "ALTURAS DO BARROSO",
      "lon": "-7.806643902554216",
      "lat": "41.67984115567797"
    },
    {
      "id": "pt.ine.add.PTCONT.5425618",
      "street": "R DO RABATÃO",
      "house": "17",
      "postcode": "5460-030",
      "city": "ALTURAS DO BARROSO",
      "lon": "-7.811508137392119",
      "lat": "41.68220479617124"
    }
  ]
}