{
  "data": {
    "distrito": "Vila Real",
    "concelho": "Boticas",
    "freguesia": "Alturas do Barroso e Cerdedo",
    "OBJECTID": 163,
    "BGRI2021": "17021700131",
    "DT21": "17",
    "DTMN21": "1702",
    "DTMNFR21": "170217",
    "DTMNFRSEC21": "170217001",
    "SECNUM21": "001",
    "SSNUM21": "31",
    "SECSSNUM21": "00131",
    "OBJECTID_1": 180202,
    "DT": "17",
    "CC": "02",
    "fr": "17",
    "SEC": "001",
    "SS": "31"
  },
  "addresses": [
    {
      "id": "pt.ine.add.PTCONT.5288922",
      "street": "LG DO OUTEIRO",
      "house": "1",
      "postcode": "5460-350",
      "city": "CERDEDO",
      "lon": "-7.880032802700674",
      "lat": "41.702156888426074"
    },
    {
      "id": "pt.ine.add.PTCONT.5295215",
      "street": "SIT DA CORGA DE VALBOM",
      "house": "",
      "postcode": "5460-350",
      "city": "CERDEDO",
      "lon": "-7.882134678199766",
      "lat": "41.702305554202724"
    },
    {
      "id": "pt.ine.add.PTCONT.5297122",
      "street": "SIT DE CELORIZ",
      "house": "",
      "postcode": "5460-350",
      "city": "CERDEDO",
      "lon": "-7.881242835493808",
      "lat": "41.70302388490092"
    },
    {
      "id": "pt.ine.add.PTCONT.5304289",
      "street": "R DA ESCOLA",
      "house": "1",
      "postcode": "5460-350",
      "city": "CERDEDO",
      "lon": "-7.87867858405711",
      "lat": "41.70435075751478"
    },
    {
      "id": "pt.ine.add.PTCONT.5307554",
      "street": "R DO OUTEIRO",
      "house": "1",
      "postcode": "5460-350",
      "city": "CERDEDO",
      "lon": "-7.879706482808502",
      "lat": "41.7026513631212"
    },
    {
      "id": "pt.ine.add.PTCONT.5307555",
      "street": "SIT DA CORGA DE VALBOM",
      "house": "",
      "postcode": "5460-350",
      "city": "CERDEDO",
      "lon": "-7.882747005311833",
      "lat": "41.70240592855846"
    },
    {
      "id": "pt.ine.add.PTCONT.5328541",
      "street": "R PRINCIPAL",
      "house": "1",
      "postcode": "5460-350",
      "city": "CERDEDO",
      "lon": "-7.879390756265829",
      "lat": "41.70350600108979"
    },
    {
      "id": "pt.ine.add.PTCONT.5329767",
      "street": "R PRINCIPAL",
      "house": "5",
      "postcode": "5460-350",
      "city": "CERDEDO",
      "lon": "-7.879774255433334",
      "lat": "41.70374994218278"
    },
    {
      "id": "pt.ine.add.PTCONT.5331776",
      "street": "R DA CARVALHA",
      "house": "7",
      "postcode": "5460-350",
      "city": "CERDEDO",
      "lon": "-7.879316440792928",
      "lat": "41.70407305880146"
    },
    {
      "id": "pt.ine.add.PTCONT.5331777",
      "street": "R PRINCIPAL",
      "house": "14",
      "postcode": "5460-350",
      "city": "CERDEDO",
      "lon": "-7.880255000328882",
      "lat": "41.70370598332853"
    },
    {
      "id": "pt.ine.add.PTCONT.5332812",
      "street": "LG DO POÃ‡O",
      "house": "6",
      "postcode": "5460-350",
      "city": "CERDEDO",
      "lon": "-7.879881888792066",
      "lat": "41.70387622868982"
    },
    {
      "id": "pt.ine.add.PTCONT.5336138",
      "street": "LG DO OUTEIRO",
      "house": "3",
      "postcode": "5460-350",
      "city": "CERDEDO",
      "lon": "-7.879695847449728",
      "lat": "41.702300202280554"
    },
    {
      "id": "pt.ine.add.PTCONT.5336139",
      "street": "SIT DA CORGA DE VALBOM",
      "house": "",
      "postcode": "5460-350",
      "city": "CERDEDO",
      "lon": "-7.881930090736105",
      "lat": "41.70239514246381"
    },
    {
      "id": "pt.ine.add.PTCONT.5348627",
      "street": "R DA CARVALHA",
      "house": "3",
      "postcode": "5460-350",
      "city": "CERDEDO",
      "lon": "-7.879137573031727",
      "lat": "41.70373052987267"
    },
    {
      "id": "pt.ine.add.PTCONT.5350867",
      "street": "R PRINCIPAL",
      "house": "20",
      "postcode": "5460-350",
      "city": "CERDEDO",
      "lon": "-7.88018312679882",
      "lat": "41.70365180404275"
    },
    {
      "id": "pt.ine.add.PTCONT.5351756",
      "street": "TV DAS LAGES",
      "house": "4",
      "postcode": "5460-350",
      "city": "CERDEDO",
      "lon": "-7.879785421508992",
      "lat": "41.7039660512922"
    },
    {
      "id": "pt.ine.add.PTCONT.5414980",
      "street": "R PRINCIPAL",
      "house": "12",
      "postcode": "5460-350",
      "city": "CERDEDO",
      "lon": "-7.880098533301174",
      "lat": "41.70377766712698"
    },
    {
      "id": "pt.ine.add.PTCONT.5421832",
      "street": "R PRINCIPAL",
      "house": "9",
      "postcode": "5460-350",
      "city": "CERDEDO",
      "lon": "-7.880159980572008",
      "lat": "41.70342666506985"
    },
    {
      "id": "pt.ine.add.PTCONT.5422816",
      "street": "R PRINCIPAL",
      "house": "16",
      "postcode": "5460-350",
      "city": "CERDEDO",
      "lon": "-7.880507439593296",
      "lat": "41.70367052438925"
    }
  ]
}