{
  "data": {
    "distrito": "Lisboa",
    "concelho": "Mafra",
    "freguesia": "União das freguesias de Venda do Pinheiro e Santo Estêvão das Galés",
    "OBJECTID": 1056,
    "BGRI2021": "11092200617",
    "DT21": "11",
    "DTMN21": "1109",
    "DTMNFR21": "110922",
    "DTMNFRSEC21": "110922006",
    "SECNUM21": "006",
    "SSNUM21": "17",
    "SECSSNUM21": "00617",
    "OBJECTID_1": 108058,
    "DT": "11",
    "CC": "09",
    "fr": "22",
    "SEC": "006",
    "SS": "17"
  },
  "addresses": [
    {
      "id": "pt.ine.add.PTCONT.2517263",
      "street": "R CALÇOS",
      "house": "",
      "postcode": "2665-515",
      "city": "VENDA DO PINHEIRO",
      "lon": "-9.229433762155447",
      "lat": "38.91611741464444"
    },
    {
      "id": "pt.ine.add.PTCONT.2882206",
      "street": "R CALÇOS",
      "house": "1",
      "postcode": "2665-515",
      "city": "VENDA DO PINHEIRO",
      "lon": "-9.231448130066745",
      "lat": "38.91515268837421"
    },
    {
      "id": "pt.ine.add.PTCONT.2911617",
      "street": "R BARRIL",
      "house": "4",
      "postcode": "2665-515",
      "city": "VENDA DO PINHEIRO",
      "lon": "-9.230413559156121",
      "lat": "38.91385632562183"
    },
    {
      "id": "pt.ine.add.PTCONT.2911618",
      "street": "R BARRIL",
      "house": "4",
      "postcode": "2665-515",
      "city": "VENDA DO PINHEIRO",
      "lon": "-9.230413559156121",
      "lat": "38.91385632562183"
    },
    {
      "id": "pt.ine.add.PTCONT.2911619",
      "street": "R BARRIL",
      "house": "4",
      "postcode": "2665-515",
      "city": "VENDA DO PINHEIRO",
      "lon": "-9.230413559156121",
      "lat": "38.91385632562183"
    },
    {
      "id": "pt.ine.add.PTCONT.2911620",
      "street": "R BARRIL",
      "house": "4",
      "postcode": "2665-515",
      "city": "VENDA DO PINHEIRO",
      "lon": "-9.230413559156121",
      "lat": "38.91385632562183"
    },
    {
      "id": "pt.ine.add.PTCONT.2915061",
      "street": "R BARRIL",
      "house": "4",
      "postcode": "2665-515",
      "city": "VENDA DO PINHEIRO",
      "lon": "-9.230413559156121",
      "lat": "38.91385632562183"
    },
    {
      "id": "pt.ine.add.PTCONT.3087121",
      "street": "ESTR VELHA DA FREIXEIRA",
      "house": "",
      "postcode": "2665-508",
      "city": "VENDA DO PINHEIRO",
      "lon": "-9.228237999435967",
      "lat": "38.914083928613195"
    },
    {
      "id": "pt.ine.add.PTCONT.3293788",
      "street": "R DOS CALÇOSASSEICEIRA PEQUENA",
      "house": "",
      "postcode": "2665-515",
      "city": "VENDA DO PINHEIRO",
      "lon": "-9.230850758333851",
      "lat": "38.91529342037902"
    }
  ]
}