{
  "data": {
    "distrito": "Évora",
    "concelho": "Borba",
    "freguesia": "Rio de Moinhos",
    "OBJECTID": 54,
    "BGRI2021": "07030300122",
    "DT21": "07",
    "DTMN21": "0703",
    "DTMNFR21": "070303",
    "DTMNFRSEC21": "070303001",
    "SECNUM21": "001",
    "SSNUM21": "22",
    "SECSSNUM21": "00122",
    "OBJECTID_1": 59266,
    "DT": "07",
    "CC": "03",
    "fr": "03",
    "SEC": "001",
    "SS": "22"
  },
  "addresses": [
    {
      "id": "pt.ine.add.PTCONT.1371503",
      "street": "R RESTAURACAO",
      "house": "12",
      "postcode": "7150-321",
      "city": "RIO DE MOINHOS BRB",
      "lon": "-7.4809284453533165",
      "lat": "38.786064332549614"
    },
    {
      "id": "pt.ine.add.PTCONT.1385904",
      "street": "R RESTAURACAO",
      "house": "",
      "postcode": "7150-321",
      "city": "RIO DE MOINHOS BRB",
      "lon": "-7.480858737791062",
      "lat": "38.78613600714459"
    },
    {
      "id": "pt.ine.add.PTCONT.1390249",
      "street": "MTE DA BICHA",
      "house": "",
      "postcode": "7150-340",
      "city": "RIO DE MOINHOS BRB",
      "lon": "-7.483055980925143",
      "lat": "38.78894018973843"
    },
    {
      "id": "pt.ine.add.PTCONT.1406219",
      "street": "MTE CASÃO",
      "house": "",
      "postcode": "7150-340",
      "city": "RIO DE MOINHOS BRB",
      "lon": "-7.48170042368529",
      "lat": "38.78666666131683"
    },
    {
      "id": "pt.ine.add.PTCONT.1412330",
      "street": "QTA DA BELAVISTA",
      "house": "",
      "postcode": "7150-340",
      "city": "RIO DE MOINHOS BRB",
      "lon": "-7.478498460222159",
      "lat": "38.79050391508753"
    },
    {
      "id": "pt.ine.add.PTCONT.1422668",
      "street": "MTE DA PISTOLA",
      "house": "",
      "postcode": "7150-340",
      "city": "RIO DE MOINHOS BRB",
      "lon": "-7.481829582371284",
      "lat": "38.78677123935764"
    },
    {
      "id": "pt.ine.add.PTCONT.1428297",
      "street": "R RESTAURACAO",
      "house": "14-A",
      "postcode": "7150-321",
      "city": "RIO DE MOINHOS BRB",
      "lon": "-7.480996101429754",
      "lat": "38.786217845379156"
    }
  ]
}