{
  "data": {
    "distrito": "Vila Real",
    "concelho": "Chaves",
    "freguesia": "Vilar de Nantes",
    "OBJECTID": 20,
    "BGRI2021": "17034400209",
    "DT21": "17",
    "DTMN21": "1703",
    "DTMNFR21": "170344",
    "DTMNFRSEC21": "170344002",
    "SECNUM21": "002",
    "SSNUM21": "09",
    "SECSSNUM21": "00209",
    "OBJECTID_1": 180803,
    "DT": "17",
    "CC": "03",
    "fr": "44",
    "SEC": "002",
    "SS": "09"
  },
  "addresses": [
    {
      "id": "pt.ine.add.PTCONT.5288153",
      "street": "R DO LOMBO",
      "house": "2",
      "postcode": "5400-352",
      "city": "CHAVES",
      "lon": "-7.45980461717999",
      "lat": "41.72432228091341"
    },
    {
      "id": "pt.ine.add.PTCONT.5288154",
      "street": "R DO LOMBO",
      "house": "28",
      "postcode": "5400-352",
      "city": "CHAVES",
      "lon": "-7.458002769143272",
      "lat": "41.721943807287765"
    },
    {
      "id": "pt.ine.add.PTCONT.5314080",
      "street": "QTA DO LOMBO",
      "house": "",
      "postcode": "5400-352",
      "city": "CHAVES",
      "lon": "-7.459028505517051",
      "lat": "41.722688110260485"
    },
    {
      "id": "pt.ine.add.PTCONT.5314385",
      "street": "CASA QTA DO LOMBO",
      "house": "",
      "postcode": "5400-352",
      "city": "CHAVES",
      "lon": "-7.459028505517051",
      "lat": "41.722688110260485"
    },
    {
      "id": "pt.ine.add.PTCONT.5339846",
      "street": "R DO LOMBO",
      "house": "8",
      "postcode": "5400-352",
      "city": "CHAVES",
      "lon": "-7.459327968533399",
      "lat": "41.72393233965133"
    },
    {
      "id": "pt.ine.add.PTCONT.5341218",
      "street": "TV DA QUINTA DO LOMBO",
      "house": "24",
      "postcode": "5400-353",
      "city": "CHAVES",
      "lon": "-7.459075282672808",
      "lat": "41.72166199366807"
    },
    {
      "id": "pt.ine.add.PTCONT.5347275",
      "street": "R RAINHA D MAFALDA",
      "house": "12",
      "postcode": "5400-366",
      "city": "CHAVES",
      "lon": "-7.459081251680497",
      "lat": "41.7233906870825"
    },
    {
      "id": "pt.ine.add.PTCONT.5347276",
      "street": "R RAINHA D MAFALDA",
      "house": "12",
      "postcode": "5400-366",
      "city": "CHAVES",
      "lon": "-7.459081251680497",
      "lat": "41.7233906870825"
    },
    {
      "id": "pt.ine.add.PTCONT.5348490",
      "street": "R DO LOMBO",
      "house": "2",
      "postcode": "5400-352",
      "city": "CHAVES",
      "lon": "-7.459658810986899",
      "lat": "41.72447448471811"
    },
    {
      "id": "pt.ine.add.PTCONT.5353707",
      "street": "R DO LOMBO",
      "house": "18",
      "postcode": "5400-352",
      "city": "CHAVES",
      "lon": "-7.458439859738982",
      "lat": "41.72266664877025"
    },
    {
      "id": "pt.ine.add.PTCONT.5362543",
      "street": "TV DO LOMBO",
      "house": "23",
      "postcode": "5400-353",
      "city": "CHAVES",
      "lon": "-7.459353435438634",
      "lat": "41.722644998765915"
    },
    {
      "id": "pt.ine.add.PTCONT.5381149",
      "street": "R DO LOMBO",
      "house": "20",
      "postcode": "5400-352",
      "city": "CHAVES",
      "lon": "-7.45840522142384",
      "lat": "41.7225313939579"
    },
    {
      "id": "pt.ine.add.PTCONT.5383604",
      "street": "R DO LOMBO",
      "house": "30",
      "postcode": "5400-352",
      "city": "CHAVES",
      "lon": "-7.4580742108548685",
      "lat": "41.722007251003504"
    },
    {
      "id": "pt.ine.add.PTCONT.5384354",
      "street": "R DO LOMBO",
      "house": "14",
      "postcode": "5400-352",
      "city": "CHAVES",
      "lon": "-7.458831809318535",
      "lat": "41.723110117370844"
    },
    {
      "id": "pt.ine.add.PTCONT.5384355",
      "street": "R DO LOMBO",
      "house": "14",
      "postcode": "5400-352",
      "city": "CHAVES",
      "lon": "-7.458831809318535",
      "lat": "41.723110117370844"
    },
    {
      "id": "pt.ine.add.PTCONT.5384356",
      "street": "R DO LOMBO",
      "house": "14",
      "postcode": "5400-352",
      "city": "CHAVES",
      "lon": "-7.458831809318535",
      "lat": "41.723110117370844"
    },
    {
      "id": "pt.ine.add.PTCONT.5387557",
      "street": "R DO LOMBO",
      "house": "",
      "postcode": "5400-352",
      "city": "CHAVES",
      "lon": "-7.458617855343975",
      "lat": "41.722883775993864"
    },
    {
      "id": "pt.ine.add.PTCONT.5405754",
      "street": "R DO LOMBO",
      "house": "10",
      "postcode": "5400-352",
      "city": "CHAVES",
      "lon": "-7.459174472501901",
      "lat": "41.7236703401139"
    },
    {
      "id": "pt.ine.add.PTCONT.5424969",
      "street": "R DO LOMBO",
      "house": "14",
      "postcode": "5400-352",
      "city": "CHAVES",
      "lon": "-7.458831809318535",
      "lat": "41.723110117370844"
    }
  ]
}