{
  "data": {
    "distrito": "Santarém",
    "concelho": "Tomar",
    "freguesia": "União das freguesias de Tomar (São João Baptista) e Santa Maria dos Olivais",
    "OBJECTID": 530,
    "BGRI2021": "14182100614",
    "DT21": "14",
    "DTMN21": "1418",
    "DTMNFR21": "141821",
    "DTMNFRSEC21": "141821006",
    "SECNUM21": "006",
    "SSNUM21": "14",
    "SECSSNUM21": "00614",
    "OBJECTID_1": 156065,
    "DT": "14",
    "CC": "18",
    "fr": "21",
    "SEC": "006",
    "SS": "14"
  },
  "addresses": [
    {
      "id": "pt.ine.add.PTCONT.4394595",
      "street": "ESTR PLATEX",
      "house": "",
      "postcode": "2300-607",
      "city": "TOMAR",
      "lon": "-8.385106392971574",
      "lat": "39.58436618236851"
    },
    {
      "id": "pt.ine.add.PTCONT.4409636",
      "street": "LUGAR DE VALBOM",
      "house": "7",
      "postcode": "2300-607",
      "city": "TOMAR",
      "lon": "-8.382288432267666",
      "lat": "39.5840750337836"
    },
    {
      "id": "pt.ine.add.PTCONT.4409784",
      "street": "LUGAR DE VALBOM",
      "house": "7",
      "postcode": "2300-607",
      "city": "TOMAR",
      "lon": "-8.382288432267666",
      "lat": "39.5840750337836"
    },
    {
      "id": "pt.ine.add.PTCONT.4415323",
      "street": "R PARDAIS",
      "house": "",
      "postcode": "2300-607",
      "city": "TOMAR",
      "lon": "-8.383956916635034",
      "lat": "39.5851702771972"
    },
    {
      "id": "pt.ine.add.PTCONT.4460977",
      "street": "ESTR PLATEX",
      "house": "5 A",
      "postcode": "2300-607",
      "city": "TOMAR",
      "lon": "-8.384631429576613",
      "lat": "39.584997689428086"
    },
    {
      "id": "pt.ine.add.PTCONT.4491522",
      "street": "ESTR PLATEX",
      "house": "",
      "postcode": "2300-607",
      "city": "TOMAR",
      "lon": "-8.384376159025965",
      "lat": "39.58522341239198"
    },
    {
      "id": "pt.ine.add.PTCONT.4502402",
      "street": "VALBOM",
      "house": "4",
      "postcode": "2300-607",
      "city": "TOMAR",
      "lon": "-8.384617445102556",
      "lat": "39.584349228003695"
    },
    {
      "id": "pt.ine.add.PTCONT.4502891",
      "street": "ESTR PLATEX VALBOM",
      "house": "4",
      "postcode": "2300-607",
      "city": "TOMAR",
      "lon": "-8.384617445102556",
      "lat": "39.584349228003695"
    },
    {
      "id": "pt.ine.add.PTCONT.4543746",
      "street": "R PARDAIS",
      "house": "7",
      "postcode": "2300-607",
      "city": "TOMAR",
      "lon": "-8.382311131620158",
      "lat": "39.583912862158904"
    },
    {
      "id": "pt.ine.add.PTCONT.4553530",
      "street": "R PARDAIS",
      "house": "",
      "postcode": "2300-607",
      "city": "TOMAR",
      "lon": "-8.382697610003746",
      "lat": "39.58456953129519"
    },
    {
      "id": "pt.ine.add.PTCONT.4566310",
      "street": "R PARTICULAR",
      "house": "7 A",
      "postcode": "2300-607",
      "city": "TOMAR",
      "lon": "-8.382473671849102",
      "lat": "39.58379542467647"
    },
    {
      "id": "pt.ine.add.PTCONT.4583424",
      "street": "ESTR PLATEX",
      "house": "3A",
      "postcode": "2300-607",
      "city": "TOMAR",
      "lon": "-8.384465994126684",
      "lat": "39.584313528382914"
    },
    {
      "id": "pt.ine.add.PTCONT.4641318",
      "street": "ESTR PLATEX",
      "house": "4B",
      "postcode": "2300-607",
      "city": "TOMAR",
      "lon": "-8.384908772637322",
      "lat": "39.58443866539173"
    },
    {
      "id": "pt.ine.add.PTCONT.4658577",
      "street": "R PARDAIS",
      "house": "5",
      "postcode": "2300-607",
      "city": "TOMAR",
      "lon": "-8.383979872260351",
      "lat": "39.5850801593561"
    },
    {
      "id": "pt.ine.add.PTCONT.4660109",
      "street": "ESTR PLATEX",
      "house": "3",
      "postcode": "2300-607",
      "city": "TOMAR",
      "lon": "-8.384885818423435",
      "lat": "39.584528783421824"
    }
  ]
}