{
  "data": {
    "distrito": "Santarém",
    "concelho": "Alcanena",
    "freguesia": "União das freguesias de Malhou, Louriceira e Espinheiro",
    "OBJECTID": 631,
    "BGRI2021": "14021200261",
    "DT21": "14",
    "DTMN21": "1402",
    "DTMNFR21": "140212",
    "DTMNFRSEC21": "140212002",
    "SECNUM21": "002",
    "SSNUM21": "61",
    "SECSSNUM21": "00261",
    "OBJECTID_1": 148012,
    "DT": "14",
    "CC": "02",
    "fr": "12",
    "SEC": "002",
    "SS": "61"
  },
  "addresses": [
    {
      "id": "pt.ine.add.PTCONT.4438800",
      "street": "TV MEL",
      "house": "41",
      "postcode": "2380-541",
      "city": "MALHOU",
      "lon": "-8.686197729581888",
      "lat": "39.426972588090145"
    },
    {
      "id": "pt.ine.add.PTCONT.4470019",
      "street": "R MEL",
      "house": "91",
      "postcode": "2380-532",
      "city": "MALHOU",
      "lon": "-8.686380339003833",
      "lat": "39.42656640428792"
    },
    {
      "id": "pt.ine.add.PTCONT.4473951",
      "street": "TV MEL",
      "house": "8",
      "postcode": "2380-541",
      "city": "MALHOU",
      "lon": "-8.68632832575867",
      "lat": "39.427332247389884"
    },
    {
      "id": "pt.ine.add.PTCONT.4482347",
      "street": "R GRAÇA",
      "house": "27",
      "postcode": "2380-516",
      "city": "MALHOU",
      "lon": "-8.685846908100551",
      "lat": "39.42666801733454"
    },
    {
      "id": "pt.ine.add.PTCONT.4491459",
      "street": "TV MEL",
      "house": "26",
      "postcode": "2380-541",
      "city": "MALHOU",
      "lon": "-8.686281017349037",
      "lat": "39.42722438827832"
    },
    {
      "id": "pt.ine.add.PTCONT.4501319",
      "street": "R MEL",
      "house": "47",
      "postcode": "2380-532",
      "city": "MALHOU",
      "lon": "-8.686372856574895",
      "lat": "39.427088846379185"
    },
    {
      "id": "pt.ine.add.PTCONT.4504632",
      "street": "R GRAÇA",
      "house": "18",
      "postcode": "2380-516",
      "city": "MALHOU",
      "lon": "-8.685940811287452",
      "lat": "39.42679366921839"
    },
    {
      "id": "pt.ine.add.PTCONT.4652297",
      "street": "R 1 DE DEZEMBRO",
      "house": "22",
      "postcode": "2380-506",
      "city": "MALHOU",
      "lon": "-8.68625280589898",
      "lat": "39.42659403183377"
    },
    {
      "id": "pt.ine.add.PTCONT.4654259",
      "street": "R MEL",
      "house": "",
      "postcode": "2380-532",
      "city": "MALHOU",
      "lon": "-8.686313009057697",
      "lat": "39.426863955803626"
    }
  ]
}