{
  "data": {
    "distrito": "Santarém",
    "concelho": "Alcanena",
    "freguesia": "União das freguesias de Malhou, Louriceira e Espinheiro",
    "OBJECTID": 390,
    "BGRI2021": "14021200265",
    "DT21": "14",
    "DTMN21": "1402",
    "DTMNFR21": "140212",
    "DTMNFRSEC21": "140212002",
    "SECNUM21": "002",
    "SSNUM21": "65",
    "SECSSNUM21": "00265",
    "OBJECTID_1": 148096,
    "DT": "14",
    "CC": "02",
    "fr": "12",
    "SEC": "002",
    "SS": "65"
  },
  "addresses": [
    {
      "id": "pt.ine.add.PTCONT.4438624",
      "street": "R OLHOS DE AGUA",
      "house": "",
      "postcode": "2380-428",
      "city": "LOURICEIRA",
      "lon": "-8.66952429834525",
      "lat": "39.4275010219729"
    },
    {
      "id": "pt.ine.add.PTCONT.4459378",
      "street": "R PRAÇA",
      "house": "143",
      "postcode": "2380-417",
      "city": "LOURICEIRA",
      "lon": "-8.669199809739354",
      "lat": "39.427592588004515"
    },
    {
      "id": "pt.ine.add.PTCONT.4480009",
      "street": "R DIREITA",
      "house": "2",
      "postcode": "2380-419",
      "city": "LOURICEIRA",
      "lon": "-8.669731131186595",
      "lat": "39.42721184358549"
    },
    {
      "id": "pt.ine.add.PTCONT.4489619",
      "street": "R DIREITA",
      "house": "192",
      "postcode": "2380-419",
      "city": "LOURICEIRA",
      "lon": "-8.66937049204513",
      "lat": "39.4271324436108"
    },
    {
      "id": "pt.ine.add.PTCONT.4548158",
      "street": "R PRAÇA",
      "house": "135",
      "postcode": "2380-417",
      "city": "LOURICEIRA",
      "lon": "-8.669118100923631",
      "lat": "39.427538922467605"
    },
    {
      "id": "pt.ine.add.PTCONT.4558640",
      "street": "LG LUIS CAMOES",
      "house": "7",
      "postcode": "2380-406",
      "city": "LOURICEIRA",
      "lon": "-8.66988189909236",
      "lat": "39.42718412692575"
    },
    {
      "id": "pt.ine.add.PTCONT.4589833",
      "street": "TV DA PRAÇA",
      "house": "170",
      "postcode": "2380-417",
      "city": "LOURICEIRA",
      "lon": "-8.669045866950393",
      "lat": "39.427205995818305"
    },
    {
      "id": "pt.ine.add.PTCONT.4643867",
      "street": "R DIREITA",
      "house": "176",
      "postcode": "2380-419",
      "city": "LOURICEIRA",
      "lon": "-8.66919656611255",
      "lat": "39.42716927334984"
    },
    {
      "id": "pt.ine.add.PTCONT.4656632",
      "street": "R OLHOS DE AGUA",
      "house": "105",
      "postcode": "2380-428",
      "city": "LOURICEIRA",
      "lon": "-8.66973292731679",
      "lat": "39.42744601763141"
    }
  ]
}