{
  "data": {
    "distrito": "Aveiro",
    "concelho": "Espinho",
    "freguesia": "União das freguesias de Anta e Guetim",
    "OBJECTID": 428,
    "BGRI2021": "01070600803",
    "DT21": "01",
    "DTMN21": "0107",
    "DTMNFR21": "010706",
    "DTMNFRSEC21": "010706008",
    "SECNUM21": "008",
    "SSNUM21": "03",
    "SECSSNUM21": "00803",
    "OBJECTID_1": 4636,
    "DT": "01",
    "CC": "07",
    "fr": "06",
    "SEC": "008",
    "SS": "03"
  },
  "addresses": [
    {
      "id": "pt.ine.add.PTCONT.318265",
      "street": "R ESPINHEIRO",
      "house": "102",
      "postcode": "4500-405",
      "city": "ESPINHO",
      "lon": "-8.603750812859817",
      "lat": "41.016129798426945"
    },
    {
      "id": "pt.ine.add.PTCONT.342816",
      "street": "TV DO ESPINHEIRO",
      "house": "210",
      "postcode": "4500-405",
      "city": "ESPINHO",
      "lon": "-8.601509784503454",
      "lat": "41.0152834931208"
    },
    {
      "id": "pt.ine.add.PTCONT.342817",
      "street": "TV DO ESPINHEIRO",
      "house": "210",
      "postcode": "4500-405",
      "city": "ESPINHO",
      "lon": "-8.601509784503454",
      "lat": "41.0152834931208"
    },
    {
      "id": "pt.ine.add.PTCONT.342818",
      "street": "TV DO ESPINHEIRO",
      "house": "210",
      "postcode": "4500-405",
      "city": "ESPINHO",
      "lon": "-8.601509784503454",
      "lat": "41.0152834931208"
    },
    {
      "id": "pt.ine.add.PTCONT.14044",
      "street": "R LUIS DE CAMÕES",
      "house": "323",
      "postcode": "4500-410",
      "city": "ESPINHO",
      "lon": "-8.604827750835017",
      "lat": "41.0154410488848"
    },
    {
      "id": "pt.ine.add.PTCONT.30381",
      "street": "TV ERMO",
      "house": "163",
      "postcode": "4500-417",
      "city": "ESPINHO",
      "lon": "-8.603785739371668",
      "lat": "41.0143557556821"
    },
    {
      "id": "pt.ine.add.PTCONT.38159",
      "street": "TV ESPINHEIRO",
      "house": "310",
      "postcode": "4500-405",
      "city": "ESPINHO",
      "lon": "-8.600650475546132",
      "lat": "41.01480973969602"
    },
    {
      "id": "pt.ine.add.PTCONT.56095",
      "street": "R CIRCULAÇÃO AO JARDIM",
      "house": "192",
      "postcode": "4500-010",
      "city": "ESPINHO",
      "lon": "-8.601624858735764",
      "lat": "41.01306790091056"
    },
    {
      "id": "pt.ine.add.PTCONT.75109",
      "street": "TV DO ESPINHEIRO",
      "house": "188",
      "postcode": "4500-405",
      "city": "ESPINHO",
      "lon": "-8.601890455250077",
      "lat": "41.01531796383052"
    },
    {
      "id": "pt.ine.add.PTCONT.75110",
      "street": "TV DO ESPINHEIRO",
      "house": "188",
      "postcode": "4500-405",
      "city": "ESPINHO",
      "lon": "-8.601890455250077",
      "lat": "41.01531796383052"
    },
    {
      "id": "pt.ine.add.PTCONT.75111",
      "street": "TV DO ESPINHEIRO",
      "house": "188",
      "postcode": "4500-405",
      "city": "ESPINHO",
      "lon": "-8.601890455250077",
      "lat": "41.01531796383052"
    },
    {
      "id": "pt.ine.add.PTCONT.115992",
      "street": "TV ERMO",
      "house": "73",
      "postcode": "4500-417",
      "city": "ESPINHO",
      "lon": "-8.603977611338712",
      "lat": "41.01458909085205"
    },
    {
      "id": "pt.ine.add.PTCONT.160050",
      "street": "TV ERMO",
      "house": "5",
      "postcode": "4500-417",
      "city": "ESPINHO",
      "lon": "-8.605100210891052",
      "lat": "41.015304864986106"
    },
    {
      "id": "pt.ine.add.PTCONT.249943",
      "street": "R LUIS DE CAMÕES",
      "house": "281",
      "postcode": "4500-410",
      "city": "ESPINHO",
      "lon": "-8.605115055381788",
      "lat": "41.015719014350715"
    },
    {
      "id": "pt.ine.add.PTCONT.274649",
      "street": "R LUIS DE CAMÕES",
      "house": "293",
      "postcode": "4500-410",
      "city": "ESPINHO",
      "lon": "-8.60506589651897",
      "lat": "41.0154941014367"
    },
    {
      "id": "pt.ine.add.PTCONT.274650",
      "street": "R LUIS DE CAMÕES",
      "house": "293",
      "postcode": "4500-410",
      "city": "ESPINHO",
      "lon": "-8.60506589651897",
      "lat": "41.0154941014367"
    }
  ]
}