{
  "data": {
    "distrito": "Portalegre",
    "concelho": "Elvas",
    "freguesia": "Assunção, Ajuda, Salvador e Santo Ildefonso",
    "OBJECTID": 277,
    "BGRI2021": "12071200604",
    "DT21": "12",
    "DTMN21": "1207",
    "DTMNFR21": "120712",
    "DTMNFRSEC21": "120712006",
    "SECNUM21": "006",
    "SSNUM21": "04",
    "SECSSNUM21": "00604",
    "OBJECTID_1": 121770,
    "DT": "12",
    "CC": "07",
    "fr": "12",
    "SEC": "006",
    "SS": "04"
  },
  "addresses": [
    {
      "id": "pt.ine.add.PTCONT.3465277",
      "street": "",
      "house": "",
      "postcode": "7350-113",
      "city": "ELVAS",
      "lon": "-7.1643122063119895",
      "lat": "38.785498752206074"
    },
    {
      "id": "pt.ine.add.PTCONT.3470582",
      "street": "MTE CASCALHEIRA",
      "house": "",
      "postcode": "7350-113",
      "city": "ELVAS",
      "lon": "-7.166802740469525",
      "lat": "38.793680440595224"
    },
    {
      "id": "pt.ine.add.PTCONT.3474369",
      "street": "MTE ENCERRA BODES",
      "house": "",
      "postcode": "7350-113",
      "city": "ELVAS",
      "lon": "-7.171082317679024",
      "lat": "38.77928524802557"
    },
    {
      "id": "pt.ine.add.PTCONT.3481285",
      "street": "MTE FREGUESIA",
      "house": "",
      "postcode": "7350-113",
      "city": "ELVAS",
      "lon": "-7.167633866735794",
      "lat": "38.80629820924835"
    },
    {
      "id": "pt.ine.add.PTCONT.3511671",
      "street": "HRD FREIXIAL",
      "house": "",
      "postcode": "7350-113",
      "city": "ELVAS",
      "lon": "-7.162715104016439",
      "lat": "38.78190940102019"
    }
  ]
}