{
  "data": {
    "ilha": "Ilha de Santa Maria (Açores)",
    "concelho": "Vila do Porto",
    "freguesia": "Santa Bárbara",
    "OBJECTID": 17,
    "BGRI2021": "41010200111",
    "DT21": "41",
    "DTMN21": "4101",
    "DTMNFR21": "410102",
    "DTMNFRSEC21": "410102001",
    "SECNUM21": "001",
    "SSNUM21": "11",
    "SECSSNUM21": "00111",
    "OBJECTID_1": 205766,
    "DT": "41",
    "CC": "01",
    "fr": "02",
    "SEC": "001",
    "SS": "11",
    "BGRI2021_1": "41010200111"
  },
  "addresses": [
    {
      "id": "pt.ine.add.AC26.14858",
      "street": "ESTR RAMAL",
      "house": "",
      "postcode": "9580-101",
      "city": "SANTA BÁRBARA VPT",
      "lon": "-25.06783529804125",
      "lat": "36.98156530309974"
    },
    {
      "id": "pt.ine.add.AC26.26215",
      "street": "TV TERMO DA IGREJA",
      "house": "",
      "postcode": "9580-115",
      "city": "SANTA BÁRBARA VPT",
      "lon": "-25.067402697054167",
      "lat": "36.98223423619881"
    },
    {
      "id": "pt.ine.add.AC26.26216",
      "street": "ESTR TERMO DA IGREJA",
      "house": "",
      "postcode": "9580-115",
      "city": "SANTA BÁRBARA VPT",
      "lon": "-25.067787437350628",
      "lat": "36.98345725966714"
    },
    {
      "id": "pt.ine.add.AC26.26217",
      "street": "ESTR TERMO DA IGREJA",
      "house": "",
      "postcode": "9580-115",
      "city": "SANTA BÁRBARA VPT",
      "lon": "-25.067421353781917",
      "lat": "36.98460496581764"
    },
    {
      "id": "pt.ine.add.AC26.26218",
      "street": "ESTR TERMO DA IGREJA",
      "house": "",
      "postcode": "9580-115",
      "city": "SANTA BÁRBARA VPT",
      "lon": "-25.068092437454375",
      "lat": "36.98472404884739"
    },
    {
      "id": "pt.ine.add.AC26.47438",
      "street": "TV RAMAL",
      "house": "",
      "postcode": "9580-115",
      "city": "SANTA BÁRBARA VPT",
      "lon": "-25.067604730851475",
      "lat": "36.98312981579461"
    },
    {
      "id": "pt.ine.add.AC26.79813",
      "street": "ESTR TERMO DA IGREJA",
      "house": "",
      "postcode": "9580-115",
      "city": "SANTA BÁRBARA VPT",
      "lon": "-25.06714737806581",
      "lat": "36.98388847487264"
    },
    {
      "id": "pt.ine.add.AC26.82006",
      "street": "ESTR TERMO DA IGREJA",
      "house": "",
      "postcode": "9580-115",
      "city": "SANTA BÁRBARA VPT",
      "lon": "-25.06784439645941",
      "lat": "36.98431442450405"
    },
    {
      "id": "pt.ine.add.AC26.90726",
      "street": "TV ARREBENTÃO",
      "house": "",
      "postcode": "9580-101",
      "city": "SANTA BÁRBARA VPT",
      "lon": "-25.06827433636788",
      "lat": "36.98108574668069"
    },
    {
      "id": "pt.ine.add.AC26.94489",
      "street": "ESTR TERMO DA IGREJA",
      "house": "",
      "postcode": "9580-115",
      "city": "SANTA BÁRBARA VPT",
      "lon": "-25.067176280763636",
      "lat": "36.98407821913353"
    }
  ]
}