{
  "data": {
    "distrito": "Setúbal",
    "concelho": "Seixal",
    "freguesia": "Fernão Ferro",
    "OBJECTID": 940,
    "BGRI2021": "15100601720",
    "DT21": "15",
    "DTMN21": "1510",
    "DTMNFR21": "151006",
    "DTMNFRSEC21": "151006017",
    "SECNUM21": "017",
    "SSNUM21": "20",
    "SECSSNUM21": "01720",
    "OBJECTID_1": 167956,
    "DT": "15",
    "CC": "10",
    "fr": "06",
    "SEC": "017",
    "SS": "20"
  },
  "addresses": [
    {
      "id": "pt.ine.add.PTCONT.4668897",
      "street": "R CONS MELO E CASTRO",
      "house": "541",
      "postcode": "2865-505",
      "city": "FERNÃO FERRO",
      "lon": "-9.080076328315995",
      "lat": "38.57041402992075"
    },
    {
      "id": "pt.ine.add.PTCONT.4691469",
      "street": "R ASSOCIAÇÃO DE MORADORES",
      "house": "",
      "postcode": "2865-598",
      "city": "FERNÃO FERRO",
      "lon": "-9.080353105006887",
      "lat": "38.56964609839596"
    },
    {
      "id": "pt.ine.add.PTCONT.4749537",
      "street": "R NATALIA DE ANDRADE",
      "house": "",
      "postcode": "2865-527",
      "city": "FERNÃO FERRO",
      "lon": "-9.080141974826924",
      "lat": "38.57017027900591"
    },
    {
      "id": "pt.ine.add.PTCONT.4820662",
      "street": "R ASSOCIAÇÃO DE MORADORES",
      "house": "58",
      "postcode": "2865-598",
      "city": "FERNÃO FERRO",
      "lon": "-9.08022630998983",
      "lat": "38.56960208375493"
    },
    {
      "id": "pt.ine.add.PTCONT.4996527",
      "street": "R NATALIA DE ANDRADE",
      "house": "",
      "postcode": "2865-527",
      "city": "FERNÃO FERRO",
      "lon": "-9.080207147902282",
      "lat": "38.56989049931494"
    },
    {
      "id": "pt.ine.add.PTCONT.5006448",
      "street": "R MARIA CAMPINA",
      "house": "",
      "postcode": "2865-539",
      "city": "FERNÃO FERRO",
      "lon": "-9.079968340639425",
      "lat": "38.57005457793906"
    },
    {
      "id": "pt.ine.add.PTCONT.5100855",
      "street": "R MARIA CAMPINA",
      "house": "",
      "postcode": "2865-539",
      "city": "FERNÃO FERRO",
      "lon": "-9.07996573974998",
      "lat": "38.569856419884715"
    },
    {
      "id": "pt.ine.add.PTCONT.5106385",
      "street": "R CONS MELO E CASTRO",
      "house": "",
      "postcode": "2865-505",
      "city": "FERNÃO FERRO",
      "lon": "-9.079880811207804",
      "lat": "38.570379579034395"
    },
    {
      "id": "pt.ine.add.PTCONT.5123095",
      "street": "R ASSOCIAÇÃO DE MORADORES",
      "house": "",
      "postcode": "2865-598",
      "city": "FERNÃO FERRO",
      "lon": "-9.080053977599947",
      "lat": "38.56958546181819"
    }
  ]
}