{
  "data": {
    "distrito": "Setúbal",
    "concelho": "Seixal",
    "freguesia": "Fernão Ferro",
    "OBJECTID": 984,
    "BGRI2021": "15100601721",
    "DT21": "15",
    "DTMN21": "1510",
    "DTMNFR21": "151006",
    "DTMNFRSEC21": "151006017",
    "SECNUM21": "017",
    "SSNUM21": "21",
    "SECSSNUM21": "01721",
    "OBJECTID_1": 167303,
    "DT": "15",
    "CC": "10",
    "fr": "06",
    "SEC": "017",
    "SS": "21"
  },
  "addresses": [
    {
      "id": "pt.ine.add.PTCONT.4668886",
      "street": "R CONS MELO E CASTRO",
      "house": "",
      "postcode": "2865-505",
      "city": "FERNÃO FERRO",
      "lon": "-9.080650579347868",
      "lat": "38.57045442321405"
    },
    {
      "id": "pt.ine.add.PTCONT.4836691",
      "street": "AV REDONDOS",
      "house": "",
      "postcode": "2865-496",
      "city": "FERNÃO FERRO",
      "lon": "-9.081049892331736",
      "lat": "38.5702800352697"
    },
    {
      "id": "pt.ine.add.PTCONT.4848125",
      "street": "R ASSOCIAÇÃO DE MORADORES",
      "house": "",
      "postcode": "2865-598",
      "city": "FERNÃO FERRO",
      "lon": "-9.080606103993139",
      "lat": "38.569689091344046"
    },
    {
      "id": "pt.ine.add.PTCONT.4866181",
      "street": "R NATALIA DE ANDRADE",
      "house": "",
      "postcode": "2865-527",
      "city": "FERNÃO FERRO",
      "lon": "-9.08044252413347",
      "lat": "38.570339001511385"
    },
    {
      "id": "pt.ine.add.PTCONT.4902834",
      "street": "R NATALIA DE ANDRADE",
      "house": "10",
      "postcode": "2865-765",
      "city": "FERNÃO FERRO",
      "lon": "-9.080571566474436",
      "lat": "38.56968036277983"
    },
    {
      "id": "pt.ine.add.PTCONT.4902835",
      "street": "R NATALIA DE ANDRADE",
      "house": "10",
      "postcode": "2865-765",
      "city": "FERNÃO FERRO",
      "lon": "-9.080571566474436",
      "lat": "38.56968036277983"
    },
    {
      "id": "pt.ine.add.PTCONT.4919832",
      "street": "R NATALIA DE ANDRADE",
      "house": "",
      "postcode": "2865-527",
      "city": "FERNÃO FERRO",
      "lon": "-9.080432352058581",
      "lat": "38.570438173377276"
    },
    {
      "id": "pt.ine.add.PTCONT.4955822",
      "street": "AV REDONDOS",
      "house": "",
      "postcode": "2865-496",
      "city": "FERNÃO FERRO",
      "lon": "-9.081017366511114",
      "lat": "38.570424428917775"
    },
    {
      "id": "pt.ine.add.PTCONT.4974810",
      "street": "AV REDONDOS",
      "house": "97",
      "postcode": "2865-765",
      "city": "FERNÃO FERRO",
      "lon": "-9.0810174848665",
      "lat": "38.57043343609858"
    },
    {
      "id": "pt.ine.add.PTCONT.4980274",
      "street": "R CONS MELO E CASTRO",
      "house": "",
      "postcode": "2865-505",
      "city": "FERNÃO FERRO",
      "lon": "-9.080845031994532",
      "lat": "38.57040780817558"
    },
    {
      "id": "pt.ine.add.PTCONT.4999462",
      "street": "R NATALIA ANDRADE",
      "house": "8 LT 486",
      "postcode": "2865-527",
      "city": "FERNÃO FERRO",
      "lon": "-9.080645610387311",
      "lat": "38.570076121568505"
    },
    {
      "id": "pt.ine.add.PTCONT.5098263",
      "street": "AV REDONDOS",
      "house": "101",
      "postcode": "2865-496",
      "city": "FERNÃO FERRO",
      "lon": "-9.080737868744771",
      "lat": "38.57011140722626"
    },
    {
      "id": "pt.ine.add.PTCONT.5098264",
      "street": "AV REDONDOS",
      "house": "101",
      "postcode": "2865-496",
      "city": "FERNÃO FERRO",
      "lon": "-9.080737868744771",
      "lat": "38.57011140722626"
    }
  ]
}