{
  "data": {
    "distrito": "Vila Real",
    "concelho": "Valpaços",
    "freguesia": "Valpaços e Sanfins",
    "OBJECTID": 670,
    "BGRI2021": "17123600505",
    "DT21": "17",
    "DTMN21": "1712",
    "DTMNFR21": "171236",
    "DTMNFRSEC21": "171236005",
    "SECNUM21": "005",
    "SSNUM21": "05",
    "SECSSNUM21": "00505",
    "OBJECTID_1": 185796,
    "DT": "17",
    "CC": "12",
    "fr": "36",
    "SEC": "005",
    "SS": "05"
  },
  "addresses": [
    {
      "id": "pt.ine.add.PTCONT.5298411",
      "street": "R DR JÚLIO DO CARVALHAL",
      "house": "4",
      "postcode": "5430-481",
      "city": "VALPAÇOS",
      "lon": "-7.308513064808139",
      "lat": "41.60924408460248"
    },
    {
      "id": "pt.ine.add.PTCONT.5303738",
      "street": "R DR JÚLIO DO CARVALHAL",
      "house": "8",
      "postcode": "5430-481",
      "city": "VALPAÇOS",
      "lon": "-7.308761188799847",
      "lat": "41.60954298186081"
    },
    {
      "id": "pt.ine.add.PTCONT.5306770",
      "street": "R JOAQUIM CASTRO LOPO",
      "house": "5",
      "postcode": "5430-479",
      "city": "VALPAÇOS",
      "lon": "-7.307169273276537",
      "lat": "41.61019781931412"
    },
    {
      "id": "pt.ine.add.PTCONT.5313163",
      "street": "R VEIGA",
      "house": "9",
      "postcode": "5430-412",
      "city": "VALPAÇOS",
      "lon": "-7.3077734193989246",
      "lat": "41.609860022846355"
    },
    {
      "id": "pt.ine.add.PTCONT.5313164",
      "street": "TV D MARIA CARMO CARMONA",
      "house": "37",
      "postcode": "5430-469",
      "city": "VALPAÇOS",
      "lon": "-7.3077734193989246",
      "lat": "41.609860022846355"
    },
    {
      "id": "pt.ine.add.PTCONT.5313165",
      "street": "R VEIGA",
      "house": "9",
      "postcode": "5430-412",
      "city": "VALPAÇOS",
      "lon": "-7.3077734193989246",
      "lat": "41.609860022846355"
    },
    {
      "id": "pt.ine.add.PTCONT.5313166",
      "street": "R VEIGA",
      "house": "9",
      "postcode": "5430-412",
      "city": "VALPAÇOS",
      "lon": "-7.3077734193989246",
      "lat": "41.609860022846355"
    },
    {
      "id": "pt.ine.add.PTCONT.5313167",
      "street": "R VEIGA",
      "house": "9",
      "postcode": "5430-412",
      "city": "VALPAÇOS",
      "lon": "-7.3077734193989246",
      "lat": "41.609860022846355"
    },
    {
      "id": "pt.ine.add.PTCONT.5313168",
      "street": "R VEIGA",
      "house": "9",
      "postcode": "5430-412",
      "city": "VALPAÇOS",
      "lon": "-7.3077734193989246",
      "lat": "41.609860022846355"
    },
    {
      "id": "pt.ine.add.PTCONT.5313169",
      "street": "R VEIGA",
      "house": "9",
      "postcode": "5430-412",
      "city": "VALPAÇOS",
      "lon": "-7.3077734193989246",
      "lat": "41.609860022846355"
    },
    {
      "id": "pt.ine.add.PTCONT.5313422",
      "street": "TV VEIGA",
      "house": "9",
      "postcode": "5430-412",
      "city": "VALPAÇOS",
      "lon": "-7.3077734193989246",
      "lat": "41.609860022846355"
    },
    {
      "id": "pt.ine.add.PTCONT.5326663",
      "street": "R VEIGA",
      "house": "12",
      "postcode": "5430-412",
      "city": "VALPAÇOS",
      "lon": "-7.306993357864106",
      "lat": "41.60988143046252"
    },
    {
      "id": "pt.ine.add.PTCONT.5332362",
      "street": "R DR JULIO CARVALHAL",
      "house": "",
      "postcode": "5430-481",
      "city": "VALPAÇOS",
      "lon": "-7.3086670581140405",
      "lat": "41.60939824974569"
    },
    {
      "id": "pt.ine.add.PTCONT.5338466",
      "street": "AV ENG LUIS DE CASTRO SARAIVA",
      "house": "23",
      "postcode": "5430-472",
      "city": "VALPAÇOS",
      "lon": "-7.308106707798709",
      "lat": "41.60912412269569"
    },
    {
      "id": "pt.ine.add.PTCONT.5345670",
      "street": "AV ENG LUIS DE CASTRO SARAIVA",
      "house": "29",
      "postcode": "5430-472",
      "city": "VALPAÇOS",
      "lon": "-7.307177771199658",
      "lat": "41.6095316164626"
    },
    {
      "id": "pt.ine.add.PTCONT.5351341",
      "street": "R DR JÚLIO DO CARVALHAL",
      "house": "10",
      "postcode": "5430-481",
      "city": "VALPAÇOS",
      "lon": "-7.308820135297086",
      "lat": "41.60962443664841"
    },
    {
      "id": "pt.ine.add.PTCONT.5355528",
      "street": "AV ENG LUIS DE CASTRO SARAIVA",
      "house": "21",
      "postcode": "5430-472",
      "city": "VALPAÇOS",
      "lon": "-7.307841429659823",
      "lat": "41.609230261416094"
    },
    {
      "id": "pt.ine.add.PTCONT.5362063",
      "street": "R DA VEIGA",
      "house": "8",
      "postcode": "5430-412",
      "city": "VALPAÇOS",
      "lon": "-7.307704888395374",
      "lat": "41.60958942380907"
    },
    {
      "id": "pt.ine.add.PTCONT.5369633",
      "street": "R DA HORTA DA FONTE",
      "house": "12",
      "postcode": "5430-452",
      "city": "VALPAÇOS",
      "lon": "-7.3076383684288695",
      "lat": "41.61010214946018"
    },
    {
      "id": "pt.ine.add.PTCONT.5374950",
      "street": "AV ENG LUIS DE CASTRO SARAIVA",
      "house": "19",
      "postcode": "5430-472",
      "city": "VALPAÇOS",
      "lon": "-7.307527709318973",
      "lat": "41.609372065906925"
    },
    {
      "id": "pt.ine.add.PTCONT.5380154",
      "street": "R DA VEIGA",
      "house": "11",
      "postcode": "5430-412",
      "city": "VALPAÇOS",
      "lon": "-7.30718597726012",
      "lat": "41.60982879311756"
    },
    {
      "id": "pt.ine.add.PTCONT.5388877",
      "street": "R DA HORTA DA FONTE",
      "house": "10",
      "postcode": "5430-452",
      "city": "VALPAÇOS",
      "lon": "-7.30853063569189",
      "lat": "41.60974841040299"
    },
    {
      "id": "pt.ine.add.PTCONT.5388878",
      "street": "R DA VEIGA",
      "house": "",
      "postcode": "5430-412",
      "city": "VALPAÇOS",
      "lon": "-7.307338935416105",
      "lat": "41.61006398467909"
    },
    {
      "id": "pt.ine.add.PTCONT.5389477",
      "street": "R DA HORTA DA FONTE",
      "house": "13",
      "postcode": "5430-452",
      "city": "VALPAÇOS",
      "lon": "-7.307415501660513",
      "lat": "41.60970439199564"
    },
    {
      "id": "pt.ine.add.PTCONT.5397434",
      "street": "R DA HORTA DA FONTE",
      "house": "8",
      "postcode": "5430-452",
      "city": "VALPAÇOS",
      "lon": "-7.30825313063683",
      "lat": "41.60987246948884"
    },
    {
      "id": "pt.ine.add.PTCONT.5400754",
      "street": "R HORTA FONTE",
      "house": "3",
      "postcode": "5430-452",
      "city": "VALPAÇOS",
      "lon": "-7.3078911958654675",
      "lat": "41.61003193612081"
    },
    {
      "id": "pt.ine.add.PTCONT.5400755",
      "street": "R HORTA FONTE",
      "house": "03",
      "postcode": "5430-452",
      "city": "VALPAÇOS",
      "lon": "-7.3078911958654675",
      "lat": "41.61003193612081"
    },
    {
      "id": "pt.ine.add.PTCONT.5400756",
      "street": "R HORTA FONTE",
      "house": "03",
      "postcode": "5430-452",
      "city": "VALPAÇOS",
      "lon": "-7.3078911958654675",
      "lat": "41.61003193612081"
    },
    {
      "id": "pt.ine.add.PTCONT.5400757",
      "street": "R HORTA DA FONTE",
      "house": "10",
      "postcode": "5430-452",
      "city": "VALPAÇOS",
      "lon": "-7.3078911958654675",
      "lat": "41.61003193612081"
    },
    {
      "id": "pt.ine.add.PTCONT.5407954",
      "street": "R DR JÚLIO DO CARVALHAL",
      "house": "2",
      "postcode": "5430-481",
      "city": "VALPAÇOS",
      "lon": "-7.3083482234294",
      "lat": "41.60899980574296"
    }
  ]
}