{
  "data": {
    "distrito": "Castelo Branco",
    "concelho": "Vila de Rei",
    "freguesia": "Vila de Rei",
    "OBJECTID": 100,
    "BGRI2021": "05100300359",
    "DT21": "05",
    "DTMN21": "0510",
    "DTMNFR21": "051003",
    "DTMNFRSEC21": "051003003",
    "SECNUM21": "003",
    "SSNUM21": "59",
    "SECSSNUM21": "00359",
    "OBJECTID_1": 46632,
    "DT": "05",
    "CC": "10",
    "fr": "03",
    "SEC": "003",
    "SS": "59"
  },
  "addresses": [
    {
      "id": "pt.ine.add.PTCONT.952737",
      "street": "R SANTO ANTÓNIO",
      "house": "2",
      "postcode": "6110-210",
      "city": "VILA DE REI",
      "lon": "-8.145544692817309",
      "lat": "39.675409034019594"
    },
    {
      "id": "pt.ine.add.PTCONT.972286",
      "street": "R RAINHA SANTA ISABEL",
      "house": "1",
      "postcode": "6110-225",
      "city": "VILA DE REI",
      "lon": "-8.14685019717962",
      "lat": "39.67588624219789"
    },
    {
      "id": "pt.ine.add.PTCONT.994000",
      "street": "LG SANTO ANTÓNIO",
      "house": "42",
      "postcode": "6110-210",
      "city": "VILA DE REI",
      "lon": "-8.145346518473305",
      "lat": "39.67522892098028"
    },
    {
      "id": "pt.ine.add.PTCONT.998377",
      "street": "R RAINHA STA ISABEL",
      "house": "9",
      "postcode": "6110-225",
      "city": "VILA DE REI",
      "lon": "-8.146710327351482",
      "lat": "39.675868245256474"
    },
    {
      "id": "pt.ine.add.PTCONT.999724",
      "street": "R RAINHA STA ISABEL",
      "house": "33",
      "postcode": "6110-225",
      "city": "VILA DE REI",
      "lon": "-8.146232454375996",
      "lat": "39.67588631364994"
    },
    {
      "id": "pt.ine.add.PTCONT.1008693",
      "street": "R DR EDUARDO DE CASTRO",
      "house": "",
      "postcode": "6110-218",
      "city": "VILA DE REI",
      "lon": "-8.145136728829025",
      "lat": "39.67527397642143"
    },
    {
      "id": "pt.ine.add.PTCONT.1014719",
      "street": "R RAINHA STA ISABEL",
      "house": "31",
      "postcode": "6110-225",
      "city": "VILA DE REI",
      "lon": "-8.14637231894866",
      "lat": "39.67587729105636"
    },
    {
      "id": "pt.ine.add.PTCONT.1038450",
      "street": "R DEVESA",
      "house": "3",
      "postcode": "6110-208",
      "city": "VILA DE REI",
      "lon": "-8.146873495714338",
      "lat": "39.67582319251258"
    },
    {
      "id": "pt.ine.add.PTCONT.1044103",
      "street": "R RAINHA STA ISABEL",
      "house": "7",
      "postcode": "6110-225",
      "city": "VILA DE REI",
      "lon": "-8.146710334417826",
      "lat": "39.675904272070404"
    },
    {
      "id": "pt.ine.add.PTCONT.1046424",
      "street": "R DEVESA",
      "house": "1",
      "postcode": "6110-208",
      "city": "VILA DE REI",
      "lon": "-8.146850173977924",
      "lat": "39.6757691550515"
    },
    {
      "id": "pt.ine.add.PTCONT.1058971",
      "street": "R SANTO ANTÓNIO",
      "house": "",
      "postcode": "6110-210",
      "city": "VILA DE REI",
      "lon": "-8.14596430885239",
      "lat": "39.67551706877942"
    },
    {
      "id": "pt.ine.add.PTCONT.1063446",
      "street": "R RAINHA SANTA ISABEL",
      "house": "23",
      "postcode": "6110-225",
      "city": "VILA DE REI",
      "lon": "-8.146500529702651",
      "lat": "39.67587727634251"
    },
    {
      "id": "pt.ine.add.PTCONT.1067036",
      "street": "R SANTO ANTÓNIO",
      "house": "1",
      "postcode": "6110-210",
      "city": "VILA DE REI",
      "lon": "-8.145661257043438",
      "lat": "39.67546306170525"
    },
    {
      "id": "pt.ine.add.PTCONT.1099888",
      "street": "R RAINHA STA ISABEL",
      "house": "13",
      "postcode": "6110-225",
      "city": "VILA DE REI",
      "lon": "-8.146652049743683",
      "lat": "39.67586825206742"
    }
  ]
}