{
  "data": {
    "distrito": "Leiria",
    "concelho": "Alcobaça",
    "freguesia": "Alfeizerão",
    "OBJECTID": 772,
    "BGRI2021": "10010200430",
    "DT21": "10",
    "DTMN21": "1001",
    "DTMNFR21": "100102",
    "DTMNFRSEC21": "100102004",
    "SECNUM21": "004",
    "SSNUM21": "30",
    "SECSSNUM21": "00430",
    "OBJECTID_1": 84694,
    "DT": "10",
    "CC": "01",
    "fr": "02",
    "SEC": "004",
    "SS": "30"
  },
  "addresses": [
    {
      "id": "pt.ine.add.PTCONT.1990703",
      "street": "TV CARVALHO ARAÚJO",
      "house": "1",
      "postcode": "2460-145",
      "city": "ALFEIZERÃO",
      "lon": "-9.106130641274369",
      "lat": "39.49979377258481"
    },
    {
      "id": "pt.ine.add.PTCONT.2056726",
      "street": "R 25 DE ABRIL",
      "house": "16",
      "postcode": "2460-162",
      "city": "ALFEIZERÃO",
      "lon": "-9.10576066966716",
      "lat": "39.49994097608604"
    },
    {
      "id": "pt.ine.add.PTCONT.2056727",
      "street": "R 25 DE ABRIL",
      "house": "16",
      "postcode": "2460-162",
      "city": "ALFEIZERÃO",
      "lon": "-9.10576066966716",
      "lat": "39.49994097608604"
    },
    {
      "id": "pt.ine.add.PTCONT.2058907",
      "street": "TV CARVALHO ARAÚJO",
      "house": "3",
      "postcode": "2460-145",
      "city": "ALFEIZERÃO",
      "lon": "-9.105919016962563",
      "lat": "39.49962441576259"
    },
    {
      "id": "pt.ine.add.PTCONT.2058908",
      "street": "TV CARVALHO ARAÚJO",
      "house": "3",
      "postcode": "2460-145",
      "city": "ALFEIZERÃO",
      "lon": "-9.105919016962563",
      "lat": "39.49962441576259"
    },
    {
      "id": "pt.ine.add.PTCONT.2078107",
      "street": "R 25 DE ABRIL",
      "house": "10",
      "postcode": "2460-162",
      "city": "ALFEIZERÃO",
      "lon": "-9.106249396963984",
      "lat": "39.499972913132176"
    },
    {
      "id": "pt.ine.add.PTCONT.2201302",
      "street": "R 25 DE ABRIL",
      "house": "12",
      "postcode": "2460-162",
      "city": "ALFEIZERÃO",
      "lon": "-9.105970160047596",
      "lat": "39.49995723669405"
    },
    {
      "id": "pt.ine.add.PTCONT.2204789",
      "street": "LG VASCO DA GAMA",
      "house": "7",
      "postcode": "2460-123",
      "city": "ALFEIZERÃO",
      "lon": "-9.10580227130645",
      "lat": "39.499589365679995"
    },
    {
      "id": "pt.ine.add.PTCONT.2225499",
      "street": "TV INDIA",
      "house": "3",
      "postcode": "2460-128",
      "city": "ALFEIZERÃO",
      "lon": "-9.105710406268393",
      "lat": "39.499671194787815"
    }
  ]
}