{
  "data": {
    "distrito": "Porto",
    "concelho": "Trofa",
    "freguesia": "União das freguesias de Bougado (São Martinho e Santiago)",
    "OBJECTID": 574,
    "BGRI2021": "13181000506",
    "DT21": "13",
    "DTMN21": "1318",
    "DTMNFR21": "131810",
    "DTMNFRSEC21": "131810005",
    "SECNUM21": "005",
    "SSNUM21": "06",
    "SECSSNUM21": "00506",
    "OBJECTID_1": 145811,
    "DT": "13",
    "CC": "18",
    "fr": "10",
    "SEC": "005",
    "SS": "06"
  },
  "addresses": [
    {
      "id": "pt.ine.add.PTCONT.3551358",
      "street": "R MALHEIRO DIAS",
      "house": "140",
      "postcode": "4785-214",
      "city": "TROFA",
      "lon": "-8.553648100479235",
      "lat": "41.32660383728076"
    },
    {
      "id": "pt.ine.add.PTCONT.3579659",
      "street": "URB NOVA",
      "house": "",
      "postcode": "4785-094",
      "city": "TROFA",
      "lon": "-8.554008694335296",
      "lat": "41.32695367880097"
    },
    {
      "id": "pt.ine.add.PTCONT.3579660",
      "street": "URB NOVA",
      "house": "",
      "postcode": "4785-094",
      "city": "TROFA",
      "lon": "-8.554008694335296",
      "lat": "41.32695367880097"
    },
    {
      "id": "pt.ine.add.PTCONT.3579661",
      "street": "URB NOVA",
      "house": "",
      "postcode": "4785-094",
      "city": "TROFA",
      "lon": "-8.554008694335296",
      "lat": "41.32695367880097"
    },
    {
      "id": "pt.ine.add.PTCONT.3579662",
      "street": "URB NOVA",
      "house": "",
      "postcode": "4785-094",
      "city": "TROFA",
      "lon": "-8.554008694335296",
      "lat": "41.32695367880097"
    },
    {
      "id": "pt.ine.add.PTCONT.3579663",
      "street": "URB NOVA",
      "house": "",
      "postcode": "4785-094",
      "city": "TROFA",
      "lon": "-8.554008694335296",
      "lat": "41.32695367880097"
    },
    {
      "id": "pt.ine.add.PTCONT.3579664",
      "street": "URB NOVA",
      "house": "",
      "postcode": "4785-094",
      "city": "TROFA",
      "lon": "-8.554008694335296",
      "lat": "41.32695367880097"
    },
    {
      "id": "pt.ine.add.PTCONT.3579816",
      "street": "URB NOVA",
      "house": "",
      "postcode": "4785-094",
      "city": "TROFA",
      "lon": "-8.554008694335296",
      "lat": "41.32695367880097"
    },
    {
      "id": "pt.ine.add.PTCONT.3579817",
      "street": "URB NOVA",
      "house": "",
      "postcode": "4785-094",
      "city": "TROFA",
      "lon": "-8.554008694335296",
      "lat": "41.32695367880097"
    },
    {
      "id": "pt.ine.add.PTCONT.3583444",
      "street": "URB NOVA",
      "house": "",
      "postcode": "4785-094",
      "city": "TROFA",
      "lon": "-8.554008694335296",
      "lat": "41.32695367880097"
    },
    {
      "id": "pt.ine.add.PTCONT.3583691",
      "street": "URB NOVA",
      "house": "",
      "postcode": "4785-094",
      "city": "TROFA",
      "lon": "-8.554008694335296",
      "lat": "41.32695367880097"
    },
    {
      "id": "pt.ine.add.PTCONT.3619746",
      "street": "R MOSTEIRO BENEDITINO",
      "house": "338",
      "postcode": "4785-217",
      "city": "TROFA",
      "lon": "-8.554470470531577",
      "lat": "41.32632170281541"
    },
    {
      "id": "pt.ine.add.PTCONT.3673694",
      "street": "R S BARBARA",
      "house": "47D",
      "postcode": "4785-221",
      "city": "TROFA",
      "lon": "-8.554781779978107",
      "lat": "41.32643761594758"
    },
    {
      "id": "pt.ine.add.PTCONT.3739083",
      "street": "R STA MARGARIDA",
      "house": "",
      "postcode": "4785-397",
      "city": "TROFA",
      "lon": "-8.55486707482004",
      "lat": "41.32669842210222"
    },
    {
      "id": "pt.ine.add.PTCONT.3764388",
      "street": "URB NOVA",
      "house": "",
      "postcode": "4785-094",
      "city": "TROFA",
      "lon": "-8.55381787141151",
      "lat": "41.32699939690338"
    },
    {
      "id": "pt.ine.add.PTCONT.3764389",
      "street": "URB NOVA",
      "house": "",
      "postcode": "4785-094",
      "city": "TROFA",
      "lon": "-8.55381787141151",
      "lat": "41.32699939690338"
    },
    {
      "id": "pt.ine.add.PTCONT.3764390",
      "street": "URB NOVA",
      "house": "",
      "postcode": "4785-094",
      "city": "TROFA",
      "lon": "-8.55381787141151",
      "lat": "41.32699939690338"
    },
    {
      "id": "pt.ine.add.PTCONT.3764391",
      "street": "URB NOVA",
      "house": "",
      "postcode": "4785-094",
      "city": "TROFA",
      "lon": "-8.55381787141151",
      "lat": "41.32699939690338"
    },
    {
      "id": "pt.ine.add.PTCONT.3764392",
      "street": "URB NOVA",
      "house": "",
      "postcode": "4785-094",
      "city": "TROFA",
      "lon": "-8.55381787141151",
      "lat": "41.32699939690338"
    },
    {
      "id": "pt.ine.add.PTCONT.3764393",
      "street": "URB NOVA",
      "house": "",
      "postcode": "4785-094",
      "city": "TROFA",
      "lon": "-8.55381787141151",
      "lat": "41.32699939690338"
    },
    {
      "id": "pt.ine.add.PTCONT.3764394",
      "street": "URB NOVA",
      "house": "",
      "postcode": "4785-094",
      "city": "TROFA",
      "lon": "-8.55381787141151",
      "lat": "41.32699939690338"
    },
    {
      "id": "pt.ine.add.PTCONT.3764398",
      "street": "R S BARBARA",
      "house": "47",
      "postcode": "4785-221",
      "city": "TROFA",
      "lon": "-8.554878264478818",
      "lat": "41.32658132790636"
    },
    {
      "id": "pt.ine.add.PTCONT.3764521",
      "street": "URB NOVA",
      "house": "",
      "postcode": "4785-094",
      "city": "TROFA",
      "lon": "-8.55381787141151",
      "lat": "41.32699939690338"
    },
    {
      "id": "pt.ine.add.PTCONT.4053265",
      "street": "R MALHEIRO DIAS",
      "house": "110",
      "postcode": "4785-214",
      "city": "TROFA",
      "lon": "-8.55364925836456",
      "lat": "41.32678391488828"
    },
    {
      "id": "pt.ine.add.PTCONT.4120969",
      "street": "R S BARBARA",
      "house": "71",
      "postcode": "4785-221",
      "city": "TROFA",
      "lon": "-8.554887944428387",
      "lat": "41.326230132840614"
    },
    {
      "id": "pt.ine.add.PTCONT.4120970",
      "street": "R S BARBARA",
      "house": "71",
      "postcode": "4785-221",
      "city": "TROFA",
      "lon": "-8.554887944428387",
      "lat": "41.326230132840614"
    },
    {
      "id": "pt.ine.add.PTCONT.4192724",
      "street": "R MOSTEIRO BENEDITINO",
      "house": "320",
      "postcode": "4785-217",
      "city": "TROFA",
      "lon": "-8.554063317269703",
      "lat": "41.326161118941464"
    },
    {
      "id": "pt.ine.add.PTCONT.4208903",
      "street": "R S BARBARA",
      "house": "109",
      "postcode": "4785-221",
      "city": "TROFA",
      "lon": "-8.554791112129417",
      "lat": "41.326032397598524"
    },
    {
      "id": "pt.ine.add.PTCONT.4296841",
      "street": "R MALHEIRO DIAS",
      "house": "220",
      "postcode": "4785-214",
      "city": "TROFA",
      "lon": "-8.5534794890202",
      "lat": "41.32638835499467"
    }
  ]
}