{
  "data": {
    "distrito": "Lisboa",
    "concelho": "Mafra",
    "freguesia": "União das freguesias de Venda do Pinheiro e Santo Estêvão das Galés",
    "OBJECTID": 944,
    "BGRI2021": "11092200702",
    "DT21": "11",
    "DTMN21": "1109",
    "DTMNFR21": "110922",
    "DTMNFRSEC21": "110922007",
    "SECNUM21": "007",
    "SSNUM21": "02",
    "SECSSNUM21": "00702",
    "OBJECTID_1": 109606,
    "DT": "11",
    "CC": "09",
    "fr": "22",
    "SEC": "007",
    "SS": "02"
  },
  "addresses": [
    {
      "id": "pt.ine.add.PTCONT.2500557",
      "street": "R ESTRADA VELHA",
      "house": "",
      "postcode": "2665-403",
      "city": "SANTO ESTEVÃO DAS GALÉS",
      "lon": "-9.231969814196187",
      "lat": "38.87046125303165"
    },
    {
      "id": "pt.ine.add.PTCONT.2517443",
      "street": "R ESTRADA VELHA",
      "house": "",
      "postcode": "2665-403",
      "city": "SANTO ESTEVÃO DAS GALÉS",
      "lon": "-9.231558533956711",
      "lat": "38.870690312457576"
    },
    {
      "id": "pt.ine.add.PTCONT.2580860",
      "street": "TV AMEAL",
      "house": "",
      "postcode": "2665-403",
      "city": "SANTO ESTEVÃO DAS GALÉS",
      "lon": "-9.233769693413759",
      "lat": "38.87136307676423"
    },
    {
      "id": "pt.ine.add.PTCONT.2649974",
      "street": "R LAVADEIRAS",
      "house": "",
      "postcode": "2665-403",
      "city": "SANTO ESTEVÃO DAS GALÉS",
      "lon": "-9.232065863301068",
      "lat": "38.87071256187642"
    },
    {
      "id": "pt.ine.add.PTCONT.2875943",
      "street": "R FONTE VELHA",
      "house": "",
      "postcode": "2665-403",
      "city": "SANTO ESTEVÃO DAS GALÉS",
      "lon": "-9.233523589024935",
      "lat": "38.87109516833702"
    },
    {
      "id": "pt.ine.add.PTCONT.2881226",
      "street": "R ESTRADA VELHA",
      "house": "",
      "postcode": "2665-403",
      "city": "SANTO ESTEVÃO DAS GALÉS",
      "lon": "-9.232091956125245",
      "lat": "38.870910483444554"
    },
    {
      "id": "pt.ine.add.PTCONT.2917803",
      "street": "R ESTRADA VELHA",
      "house": "",
      "postcode": "2665-403",
      "city": "SANTO ESTEVÃO DAS GALÉS",
      "lon": "-9.232028665966823",
      "lat": "38.8705417675885"
    },
    {
      "id": "pt.ine.add.PTCONT.3087193",
      "street": "R ESTRADA VELHA",
      "house": "",
      "postcode": "2665-403",
      "city": "SANTO ESTEVÃO DAS GALÉS",
      "lon": "-9.231888475820131",
      "lat": "38.87041698042261"
    },
    {
      "id": "pt.ine.add.PTCONT.3087194",
      "street": "R ESTRADA VELHA",
      "house": "",
      "postcode": "2665-403",
      "city": "SANTO ESTEVÃO DAS GALÉS",
      "lon": "-9.231888475820131",
      "lat": "38.87041698042261"
    },
    {
      "id": "pt.ine.add.PTCONT.3430888",
      "street": "R ESTRADA VELHA",
      "house": "",
      "postcode": "2665-403",
      "city": "SANTO ESTEVÃO DAS GALÉS",
      "lon": "-9.233669748319581",
      "lat": "38.87085959342679"
    },
    {
      "id": "pt.ine.add.PTCONT.3455758",
      "street": "R ESTRADA VELHA",
      "house": "",
      "postcode": "2665-403",
      "city": "SANTO ESTEVÃO DAS GALÉS",
      "lon": "-9.232065863301068",
      "lat": "38.87071256187642"
    }
  ]
}