{
  "data": {
    "distrito": "Lisboa",
    "concelho": "Mafra",
    "freguesia": "União das freguesias de Venda do Pinheiro e Santo Estêvão das Galés",
    "OBJECTID": 581,
    "BGRI2021": "11092200754",
    "DT21": "11",
    "DTMN21": "1109",
    "DTMNFR21": "110922",
    "DTMNFRSEC21": "110922007",
    "SECNUM21": "007",
    "SSNUM21": "54",
    "SECSSNUM21": "00754",
    "OBJECTID_1": 108057,
    "DT": "11",
    "CC": "09",
    "fr": "22",
    "SEC": "007",
    "SS": "54"
  },
  "addresses": [
    {
      "id": "pt.ine.add.PTCONT.2362063",
      "street": "AVESSADA",
      "house": "20",
      "postcode": "2665-402",
      "city": "SANTO ESTEVÃO DAS GALÉS",
      "lon": "-9.261560294843054",
      "lat": "38.90985730532258"
    },
    {
      "id": "pt.ine.add.PTCONT.2362064",
      "street": "AVESSADA",
      "house": "20 A",
      "postcode": "2665-402",
      "city": "SANTO ESTEVÃO DAS GALÉS",
      "lon": "-9.261560294843054",
      "lat": "38.90985730532258"
    },
    {
      "id": "pt.ine.add.PTCONT.2362065",
      "street": "AVESSADA",
      "house": "20",
      "postcode": "2665-402",
      "city": "SANTO ESTEVÃO DAS GALÉS",
      "lon": "-9.261560294843054",
      "lat": "38.90985730532258"
    },
    {
      "id": "pt.ine.add.PTCONT.2362066",
      "street": "AVESSADA",
      "house": "20",
      "postcode": "2665-402",
      "city": "SANTO ESTEVÃO DAS GALÉS",
      "lon": "-9.261560294843054",
      "lat": "38.90985730532258"
    },
    {
      "id": "pt.ine.add.PTCONT.2362067",
      "street": "R 25 ABRIL",
      "house": "20 BLC A",
      "postcode": "2665-402",
      "city": "SANTO ESTEVÃO DAS GALÉS",
      "lon": "-9.261560294843054",
      "lat": "38.90985730532258"
    },
    {
      "id": "pt.ine.add.PTCONT.2362068",
      "street": "R 25 ABRIL",
      "house": "20",
      "postcode": "2665-402",
      "city": "SANTO ESTEVÃO DAS GALÉS",
      "lon": "-9.261560294843054",
      "lat": "38.90985730532258"
    },
    {
      "id": "pt.ine.add.PTCONT.2362069",
      "street": "AVESSADA",
      "house": "20",
      "postcode": "2665-402",
      "city": "SANTO ESTEVÃO DAS GALÉS",
      "lon": "-9.261560294843054",
      "lat": "38.90985730532258"
    },
    {
      "id": "pt.ine.add.PTCONT.2362070",
      "street": "R 25 ABRIL B",
      "house": "B",
      "postcode": "2665-402",
      "city": "SANTO ESTEVÃO DAS GALÉS",
      "lon": "-9.261560294843054",
      "lat": "38.90985730532258"
    },
    {
      "id": "pt.ine.add.PTCONT.2362071",
      "street": "R 25 ABRIL",
      "house": "20",
      "postcode": "2665-402",
      "city": "SANTO ESTEVÃO DAS GALÉS",
      "lon": "-9.261560294843054",
      "lat": "38.90985730532258"
    },
    {
      "id": "pt.ine.add.PTCONT.2418085",
      "street": "R CAMPO DO RIO CASA AMARELA",
      "house": "",
      "postcode": "2665-415",
      "city": "SANTO ESTEVÃO DAS GALÉS",
      "lon": "-9.25895377996477",
      "lat": "38.90833317815048"
    },
    {
      "id": "pt.ine.add.PTCONT.2488822",
      "street": "R CHAFARIZ DA BISPA",
      "house": "",
      "postcode": "2665-402",
      "city": "SANTO ESTEVÃO DAS GALÉS",
      "lon": "-9.260387108113493",
      "lat": "38.91003077534738"
    },
    {
      "id": "pt.ine.add.PTCONT.2517396",
      "street": "R ESCOLA",
      "house": "",
      "postcode": "2665-402",
      "city": "SANTO ESTEVÃO DAS GALÉS",
      "lon": "-9.260074179520164",
      "lat": "38.91065531555666"
    },
    {
      "id": "pt.ine.add.PTCONT.2589384",
      "street": "R 25 DE ABRIL",
      "house": "22",
      "postcode": "2665-402",
      "city": "SANTO ESTEVÃO DAS GALÉS",
      "lon": "-9.261826841564169",
      "lat": "38.90994480364786"
    },
    {
      "id": "pt.ine.add.PTCONT.2634121",
      "street": "R ESCOLA",
      "house": "3",
      "postcode": "2665-415",
      "city": "SANTO ESTEVÃO DAS GALÉS",
      "lon": "-9.257784590876714",
      "lat": "38.90875879406977"
    },
    {
      "id": "pt.ine.add.PTCONT.2703150",
      "street": "R 25 DE ABRIL",
      "house": "14",
      "postcode": "2665-402",
      "city": "SANTO ESTEVÃO DAS GALÉS",
      "lon": "-9.261947503904043",
      "lat": "38.90955631359961"
    },
    {
      "id": "pt.ine.add.PTCONT.2766120",
      "street": "R ESCOLA",
      "house": "",
      "postcode": "2665-402",
      "city": "SANTO ESTEVÃO DAS GALÉS",
      "lon": "-9.260603713723231",
      "lat": "38.91060516475365"
    },
    {
      "id": "pt.ine.add.PTCONT.2777329",
      "street": "R CAMPO RIO",
      "house": "1",
      "postcode": "2665-415",
      "city": "SANTO ESTEVÃO DAS GALÉS",
      "lon": "-9.259366892019747",
      "lat": "38.908212095558355"
    },
    {
      "id": "pt.ine.add.PTCONT.2777330",
      "street": "R CAMPO DO RIO",
      "house": "",
      "postcode": "2665-415",
      "city": "SANTO ESTEVÃO DAS GALÉS",
      "lon": "-9.259366892019747",
      "lat": "38.908212095558355"
    },
    {
      "id": "pt.ine.add.PTCONT.2777331",
      "street": "R CAMPO DO RIO",
      "house": "",
      "postcode": "2665-415",
      "city": "SANTO ESTEVÃO DAS GALÉS",
      "lon": "-9.259366892019747",
      "lat": "38.908212095558355"
    },
    {
      "id": "pt.ine.add.PTCONT.2777332",
      "street": "R CAMPO DO RIO",
      "house": "",
      "postcode": "2665-415",
      "city": "SANTO ESTEVÃO DAS GALÉS",
      "lon": "-9.259366892019747",
      "lat": "38.908212095558355"
    },
    {
      "id": "pt.ine.add.PTCONT.2812690",
      "street": "R CHAFARIZ DA BISPA",
      "house": "",
      "postcode": "2665-402",
      "city": "SANTO ESTEVÃO DAS GALÉS",
      "lon": "-9.260055815960625",
      "lat": "38.910223131893346"
    },
    {
      "id": "pt.ine.add.PTCONT.2827487",
      "street": "R CAMPO DO RIO CASAL ALTO DA EIRA",
      "house": "11",
      "postcode": "2665-415",
      "city": "SANTO ESTEVÃO DAS GALÉS",
      "lon": "-9.258661486725222",
      "lat": "38.90807477847403"
    },
    {
      "id": "pt.ine.add.PTCONT.2838809",
      "street": "R 25 DE ABRIL",
      "house": "",
      "postcode": "2665-402",
      "city": "SANTO ESTEVÃO DAS GALÉS",
      "lon": "-9.26033685676815",
      "lat": "38.909040433303694"
    },
    {
      "id": "pt.ine.add.PTCONT.3021281",
      "street": "R CHAFARIZ DA BISPA",
      "house": "22",
      "postcode": "2665-402",
      "city": "SANTO ESTEVÃO DAS GALÉS",
      "lon": "-9.260542231089877",
      "lat": "38.91036255553796"
    },
    {
      "id": "pt.ine.add.PTCONT.3252910",
      "street": "R CAMPO DO RIO",
      "house": "7",
      "postcode": "2665-415",
      "city": "SANTO ESTEVÃO DAS GALÉS",
      "lon": "-9.258824994276527",
      "lat": "38.90820831475992"
    },
    {
      "id": "pt.ine.add.PTCONT.3297340",
      "street": "R 25 DE ABRIL",
      "house": "18",
      "postcode": "2665-402",
      "city": "SANTO ESTEVÃO DAS GALÉS",
      "lon": "-9.262019804145487",
      "lat": "38.909753779879544"
    },
    {
      "id": "pt.ine.add.PTCONT.3434389",
      "street": "R 25 ABRIL",
      "house": "20",
      "postcode": "2665-402",
      "city": "SANTO ESTEVÃO DAS GALÉS",
      "lon": "-9.261560294843054",
      "lat": "38.90985730532258"
    }
  ]
}