{
  "data": {
    "distrito": "Viseu",
    "concelho": "Nelas",
    "freguesia": "Vilar Seco",
    "OBJECTID": 123,
    "BGRI2021": "18090600119",
    "DT21": "18",
    "DTMN21": "1809",
    "DTMNFR21": "180906",
    "DTMNFRSEC21": "180906001",
    "SECNUM21": "001",
    "SSNUM21": "19",
    "SECSSNUM21": "00119",
    "OBJECTID_1": 193584,
    "DT": "18",
    "CC": "09",
    "fr": "06",
    "SEC": "001",
    "SS": "19"
  },
  "addresses": [
    {
      "id": "pt.ine.add.PTCONT.5430105",
      "street": "AV FORTUNATO ALMEIDA",
      "house": "5",
      "postcode": "3520-300",
      "city": "VILAR SECO NLS",
      "lon": "-7.863402487126392",
      "lat": "40.55998088802515"
    },
    {
      "id": "pt.ine.add.PTCONT.5433746",
      "street": "R CANAVAL",
      "house": "5",
      "postcode": "3520-225",
      "city": "VILAR SECO NLS",
      "lon": "-7.8634644504887",
      "lat": "40.55925160257632"
    },
    {
      "id": "pt.ine.add.PTCONT.5435468",
      "street": "R OUTEIRO",
      "house": "5",
      "postcode": "3520-225",
      "city": "VILAR SECO NLS",
      "lon": "-7.862991583346338",
      "lat": "40.55939458292935"
    },
    {
      "id": "pt.ine.add.PTCONT.5548602",
      "street": "AV FORTUNATO ALMEIDA",
      "house": "3",
      "postcode": "3520-300",
      "city": "VILAR SECO NLS",
      "lon": "-7.863839466554879",
      "lat": "40.55995489139062"
    },
    {
      "id": "pt.ine.add.PTCONT.5564280",
      "street": "R PLAME",
      "house": "4",
      "postcode": "3520-225",
      "city": "VILAR SECO NLS",
      "lon": "-7.864057262087683",
      "lat": "40.55864062350424"
    },
    {
      "id": "pt.ine.add.PTCONT.5575920",
      "street": "LG VALE",
      "house": "5",
      "postcode": "3520-225",
      "city": "VILAR SECO NLS",
      "lon": "-7.8629473953149835",
      "lat": "40.55863803352094"
    },
    {
      "id": "pt.ine.add.PTCONT.5609197",
      "street": "R CANAVAL",
      "house": "3",
      "postcode": "3520-225",
      "city": "VILAR SECO NLS",
      "lon": "-7.863640655800263",
      "lat": "40.55947714644592"
    },
    {
      "id": "pt.ine.add.PTCONT.5614609",
      "street": "LG ÁLVARO ALBUQUERQUE",
      "house": "4",
      "postcode": "3520-225",
      "city": "VILAR SECO NLS",
      "lon": "-7.8634264992982335",
      "lat": "40.5598818856775"
    },
    {
      "id": "pt.ine.add.PTCONT.5620414",
      "street": "LG ÁLVARO ALBUQUERQUE",
      "house": "8",
      "postcode": "3520-225",
      "city": "VILAR SECO NLS",
      "lon": "-7.863225955826103",
      "lat": "40.55983639083439"
    },
    {
      "id": "pt.ine.add.PTCONT.5631857",
      "street": "R PADARIA",
      "house": "8 10",
      "postcode": "3520-225",
      "city": "VILAR SECO NLS",
      "lon": "-7.8633135959475196",
      "lat": "40.55859386270863"
    },
    {
      "id": "pt.ine.add.PTCONT.5634820",
      "street": "R PLAME",
      "house": "",
      "postcode": "3520-225",
      "city": "VILAR SECO NLS",
      "lon": "-7.863983787031843",
      "lat": "40.55929784005757"
    },
    {
      "id": "pt.ine.add.PTCONT.5647425",
      "street": "R ANTÓNIO MARQUES PAIS",
      "house": "7",
      "postcode": "3520-225",
      "city": "VILAR SECO NLS",
      "lon": "-7.862649826149957",
      "lat": "40.5592316878046"
    },
    {
      "id": "pt.ine.add.PTCONT.5657492",
      "street": "LG VALE",
      "house": "9",
      "postcode": "3520-225",
      "city": "VILAR SECO NLS",
      "lon": "-7.863054165749892",
      "lat": "40.55851220878613"
    },
    {
      "id": "pt.ine.add.PTCONT.5658388",
      "street": "R PLAME",
      "house": "6",
      "postcode": "3520-225",
      "city": "VILAR SECO NLS",
      "lon": "-7.863785771103479",
      "lat": "40.558621980315884"
    }
  ]
}