{
  "data": {
    "distrito": "Leiria",
    "concelho": "Pombal",
    "freguesia": "Pombal",
    "OBJECTID": 1397,
    "BGRI2021": "10150901307",
    "DT21": "10",
    "DTMN21": "1015",
    "DTMNFR21": "101509",
    "DTMNFRSEC21": "101509013",
    "SECNUM21": "013",
    "SSNUM21": "07",
    "SECSSNUM21": "01307",
    "OBJECTID_1": 95786,
    "DT": "10",
    "CC": "15",
    "fr": "09",
    "SEC": "013",
    "SS": "07"
  },
  "addresses": [
    {
      "id": "pt.ine.add.PTCONT.2014277",
      "street": "R SENHOR DAS ALMAS",
      "house": "86",
      "postcode": "3100-325",
      "city": "POMBAL",
      "lon": "-8.655156856570427",
      "lat": "39.91665393376401"
    },
    {
      "id": "pt.ine.add.PTCONT.2049066",
      "street": "R CENTRO",
      "house": "49",
      "postcode": "3100-325",
      "city": "POMBAL",
      "lon": "-8.654258877804638",
      "lat": "39.917000211037255"
    },
    {
      "id": "pt.ine.add.PTCONT.2069706",
      "street": "TV PROCISSAO",
      "house": "3",
      "postcode": "3100-325",
      "city": "POMBAL",
      "lon": "-8.654069834107187",
      "lat": "39.91674888517926"
    },
    {
      "id": "pt.ine.add.PTCONT.2092686",
      "street": "R SENHOR DAS ALMAS",
      "house": "82",
      "postcode": "3100-325",
      "city": "POMBAL",
      "lon": "-8.654852630382036",
      "lat": "39.91663729049845"
    },
    {
      "id": "pt.ine.add.PTCONT.2111309",
      "street": "R CENTRO",
      "house": "47",
      "postcode": "3100-325",
      "city": "POMBAL",
      "lon": "-8.654048489689037",
      "lat": "39.917019168931766"
    },
    {
      "id": "pt.ine.add.PTCONT.2152144",
      "street": "R SENHOR DAS ALMAS",
      "house": "76",
      "postcode": "3100-325",
      "city": "POMBAL",
      "lon": "-8.654325024528594",
      "lat": "39.916468544263644"
    },
    {
      "id": "pt.ine.add.PTCONT.2172155",
      "street": "R SR ALMAS",
      "house": "78",
      "postcode": "3100-325",
      "city": "POMBAL",
      "lon": "-8.65466481524358",
      "lat": "39.91654807279388"
    },
    {
      "id": "pt.ine.add.PTCONT.2182860",
      "street": "TV PROCISSAO",
      "house": "N 1",
      "postcode": "3100-325",
      "city": "POMBAL",
      "lon": "-8.654150544226455",
      "lat": "39.9165954160833"
    }
  ]
}