{
  "data": {
    "distrito": "Lisboa",
    "concelho": "Loures",
    "freguesia": "União das freguesias de Santa Iria de Azoia, São João da Talha e Bobadela",
    "OBJECTID": 1176,
    "BGRI2021": "11072801502",
    "DT21": "11",
    "DTMN21": "1107",
    "DTMNFR21": "110728",
    "DTMNFRSEC21": "110728015",
    "SECNUM21": "015",
    "SSNUM21": "02",
    "SECSSNUM21": "01502",
    "OBJECTID_1": 106894,
    "DT": "11",
    "CC": "07",
    "fr": "28",
    "SEC": "015",
    "SS": "02"
  },
  "addresses": [
    {
      "id": "pt.ine.add.PTCONT.2961185",
      "street": "R S DOMINGOS",
      "house": "",
      "postcode": "2690-182",
      "city": "SANTA IRIA DE AZÓIA",
      "lon": "-9.090505329048943",
      "lat": "38.83841427324961"
    },
    {
      "id": "pt.ine.add.PTCONT.2961186",
      "street": "R S DOMINGOS",
      "house": "",
      "postcode": "2690-182",
      "city": "SANTA IRIA DE AZÓIA",
      "lon": "-9.090457333871612",
      "lat": "38.8382705429296"
    },
    {
      "id": "pt.ine.add.PTCONT.3249164",
      "street": "R S DOMINGOS",
      "house": "",
      "postcode": "2690-182",
      "city": "SANTA IRIA DE AZÓIA",
      "lon": "-9.090564840509602",
      "lat": "38.83855790914685"
    },
    {
      "id": "pt.ine.add.PTCONT.3249165",
      "street": "R S DOMINGOS",
      "house": "",
      "postcode": "2690-182",
      "city": "SANTA IRIA DE AZÓIA",
      "lon": "-9.090564840509602",
      "lat": "38.83855790914685"
    },
    {
      "id": "pt.ine.add.PTCONT.3284539",
      "street": "R PROGRESSO",
      "house": "",
      "postcode": "2690-181",
      "city": "SANTA IRIA DE AZÓIA",
      "lon": "-9.090828623865175",
      "lat": "38.83847467703134"
    },
    {
      "id": "pt.ine.add.PTCONT.3330994",
      "street": "R PROGRESSO",
      "house": "",
      "postcode": "2690-181",
      "city": "SANTA IRIA DE AZÓIA",
      "lon": "-9.09073287376192",
      "lat": "38.83820523013545"
    },
    {
      "id": "pt.ine.add.PTCONT.3377113",
      "street": "PCT PROGRESSO",
      "house": "",
      "postcode": "2690-179",
      "city": "SANTA IRIA DE AZÓIA",
      "lon": "-9.090935166354036",
      "lat": "38.83868998895041"
    },
    {
      "id": "pt.ine.add.PTCONT.2365570",
      "street": "R PROGRESSO",
      "house": "",
      "postcode": "2690-181",
      "city": "SANTA IRIA DE AZÓIA",
      "lon": "-9.090959164546138",
      "lat": "38.83876185400243"
    },
    {
      "id": "pt.ine.add.PTCONT.2440058",
      "street": "R S MIGUEL",
      "house": "",
      "postcode": "2690-183",
      "city": "SANTA IRIA DE AZÓIA",
      "lon": "-9.09067174447362",
      "lat": "38.8388002415352"
    },
    {
      "id": "pt.ine.add.PTCONT.2699436",
      "street": "R PROGRESSO",
      "house": "",
      "postcode": "2690-181",
      "city": "SANTA IRIA DE AZÓIA",
      "lon": "-9.090887653071622",
      "lat": "38.8385822857904"
    },
    {
      "id": "pt.ine.add.PTCONT.2699437",
      "street": "R PROGRESSO",
      "house": "",
      "postcode": "2690-181",
      "city": "SANTA IRIA DE AZÓIA",
      "lon": "-9.090887653071622",
      "lat": "38.8385822857904"
    },
    {
      "id": "pt.ine.add.PTCONT.2700108",
      "street": "R PROGRESSO",
      "house": "44",
      "postcode": "2690-181",
      "city": "SANTA IRIA DE AZÓIA",
      "lon": "-9.090792264769544",
      "lat": "38.83833985917683"
    },
    {
      "id": "pt.ine.add.PTCONT.2700109",
      "street": "R PROGRESSO",
      "house": "44",
      "postcode": "2690-181",
      "city": "SANTA IRIA DE AZÓIA",
      "lon": "-9.090792264769544",
      "lat": "38.83833985917683"
    },
    {
      "id": "pt.ine.add.PTCONT.2700110",
      "street": "R PROGRESSO",
      "house": "44",
      "postcode": "2690-181",
      "city": "SANTA IRIA DE AZÓIA",
      "lon": "-9.090792264769544",
      "lat": "38.83833985917683"
    },
    {
      "id": "pt.ine.add.PTCONT.2701318",
      "street": "R PROGRESSO",
      "house": "44",
      "postcode": "2690-181",
      "city": "SANTA IRIA DE AZÓIA",
      "lon": "-9.090792264769544",
      "lat": "38.83833985917683"
    }
  ]
}