{
  "data": {
    "distrito": "Viana do Castelo",
    "concelho": "Ponte de Lima",
    "freguesia": "Arcozelo",
    "OBJECTID": 205,
    "BGRI2021": "16070400106",
    "DT21": "16",
    "DTMN21": "1607",
    "DTMNFR21": "160704",
    "DTMNFRSEC21": "160704001",
    "SECNUM21": "001",
    "SSNUM21": "06",
    "SECSSNUM21": "00106",
    "OBJECTID_1": 176455,
    "DT": "16",
    "CC": "07",
    "fr": "04",
    "SEC": "001",
    "SS": "06"
  },
  "addresses": [
    {
      "id": "pt.ine.add.PTCONT.5138575",
      "street": "R DR FRANCISCO DE ABREU MAIA",
      "house": "",
      "postcode": "4990-167",
      "city": "PONTE DE LIMA",
      "lon": "-8.591610294938366",
      "lat": "41.76792134123713"
    },
    {
      "id": "pt.ine.add.PTCONT.5140650",
      "street": "R DR FRANCISCO DE ABREU MAIA",
      "house": "",
      "postcode": "4990-167",
      "city": "PONTE DE LIMA",
      "lon": "-8.594999404651166",
      "lat": "41.767601650704435"
    },
    {
      "id": "pt.ine.add.PTCONT.5140651",
      "street": "R DR FRANCISCO DE ABREU MAIA",
      "house": "",
      "postcode": "4990-167",
      "city": "PONTE DE LIMA",
      "lon": "-8.594999404651166",
      "lat": "41.767601650704435"
    },
    {
      "id": "pt.ine.add.PTCONT.5140845",
      "street": "R DR FRANCISCO DE ABREU MAIA",
      "house": "",
      "postcode": "4990-167",
      "city": "PONTE DE LIMA",
      "lon": "-8.594999404651166",
      "lat": "41.767601650704435"
    },
    {
      "id": "pt.ine.add.PTCONT.5140846",
      "street": "R DR FRANCISCO DE ABREU MAIA",
      "house": "",
      "postcode": "4990-167",
      "city": "PONTE DE LIMA",
      "lon": "-8.594999404651166",
      "lat": "41.767601650704435"
    },
    {
      "id": "pt.ine.add.PTCONT.5140847",
      "street": "R DR FRANCISCO DE ABREU MAIA",
      "house": "",
      "postcode": "4990-167",
      "city": "PONTE DE LIMA",
      "lon": "-8.594999404651166",
      "lat": "41.767601650704435"
    },
    {
      "id": "pt.ine.add.PTCONT.5140848",
      "street": "R DR FRANCISCO DE ABREU MAIA",
      "house": "",
      "postcode": "4990-167",
      "city": "PONTE DE LIMA",
      "lon": "-8.594999404651166",
      "lat": "41.767601650704435"
    },
    {
      "id": "pt.ine.add.PTCONT.5140849",
      "street": "R DR FRANCISCO DE ABREU MAIA",
      "house": "",
      "postcode": "4990-167",
      "city": "PONTE DE LIMA",
      "lon": "-8.594999404651166",
      "lat": "41.767601650704435"
    },
    {
      "id": "pt.ine.add.PTCONT.5140850",
      "street": "R DR FRANCISCO DE ABREU MAIA",
      "house": "",
      "postcode": "4990-167",
      "city": "PONTE DE LIMA",
      "lon": "-8.594999404651166",
      "lat": "41.767601650704435"
    },
    {
      "id": "pt.ine.add.PTCONT.5140851",
      "street": "R DR FRANCISCO DE ABREU MAIA",
      "house": "",
      "postcode": "4990-167",
      "city": "PONTE DE LIMA",
      "lon": "-8.594999404651166",
      "lat": "41.767601650704435"
    },
    {
      "id": "pt.ine.add.PTCONT.5140852",
      "street": "R DR FRANCISCO DE ABREU MAIA",
      "house": "",
      "postcode": "4990-167",
      "city": "PONTE DE LIMA",
      "lon": "-8.594999404651166",
      "lat": "41.767601650704435"
    },
    {
      "id": "pt.ine.add.PTCONT.5140853",
      "street": "R DR FRANCISCO DE ABREU MAIA",
      "house": "",
      "postcode": "4990-167",
      "city": "PONTE DE LIMA",
      "lon": "-8.594999404651166",
      "lat": "41.767601650704435"
    },
    {
      "id": "pt.ine.add.PTCONT.5150080",
      "street": "CAM REGADAS",
      "house": "",
      "postcode": "4990-149",
      "city": "PONTE DE LIMA",
      "lon": "-8.591272096117127",
      "lat": "41.767715612263125"
    },
    {
      "id": "pt.ine.add.PTCONT.5160774",
      "street": "R S GONCALO CS SOUSA",
      "house": "CS SOUSA",
      "postcode": "4990-150",
      "city": "PONTE DE LIMA",
      "lon": "-8.590841980612499",
      "lat": "41.768113476148486"
    },
    {
      "id": "pt.ine.add.PTCONT.5182316",
      "street": "R DR FRANCISCO DE ABREU MAIA",
      "house": "",
      "postcode": "4990-167",
      "city": "PONTE DE LIMA",
      "lon": "-8.5927848492613",
      "lat": "41.76735843725442"
    },
    {
      "id": "pt.ine.add.PTCONT.5184947",
      "street": "R S GONCALO SN",
      "house": "SN",
      "postcode": "4990-150",
      "city": "PONTE DE LIMA",
      "lon": "-8.59168232216564",
      "lat": "41.76790304697847"
    },
    {
      "id": "pt.ine.add.PTCONT.5200814",
      "street": "R DR FRANCISCO DE ABREU MAIA",
      "house": "FASE 1",
      "postcode": "4990-167",
      "city": "PONTE DE LIMA",
      "lon": "-8.594542938662016",
      "lat": "41.767675512074455"
    },
    {
      "id": "pt.ine.add.PTCONT.5200815",
      "street": "R DR FRANCISCO ABREU MAIA A",
      "house": "A",
      "postcode": "4990-167",
      "city": "PONTE DE LIMA",
      "lon": "-8.594542938662016",
      "lat": "41.767675512074455"
    },
    {
      "id": "pt.ine.add.PTCONT.5200816",
      "street": "R DR FRANCISCO DE ABREU MAIA",
      "house": "FASE 1",
      "postcode": "4990-167",
      "city": "PONTE DE LIMA",
      "lon": "-8.594542938662016",
      "lat": "41.767675512074455"
    },
    {
      "id": "pt.ine.add.PTCONT.5200817",
      "street": "R DR FRANCISCO DE ABREU MAIA",
      "house": "FASE 1",
      "postcode": "4990-167",
      "city": "PONTE DE LIMA",
      "lon": "-8.594542938662016",
      "lat": "41.767675512074455"
    },
    {
      "id": "pt.ine.add.PTCONT.5200818",
      "street": "R S GONCALO",
      "house": "1",
      "postcode": "4990-150",
      "city": "PONTE DE LIMA",
      "lon": "-8.594542938662016",
      "lat": "41.767675512074455"
    },
    {
      "id": "pt.ine.add.PTCONT.5200819",
      "street": "R DR FRANCISCO ABREU MAIA",
      "house": "",
      "postcode": "4990-167",
      "city": "PONTE DE LIMA",
      "lon": "-8.594542938662016",
      "lat": "41.767675512074455"
    },
    {
      "id": "pt.ine.add.PTCONT.5200820",
      "street": "R DR FRANCISCO DE ABREU MAIA",
      "house": "FASE 1",
      "postcode": "4990-167",
      "city": "PONTE DE LIMA",
      "lon": "-8.594542938662016",
      "lat": "41.767675512074455"
    },
    {
      "id": "pt.ine.add.PTCONT.5200821",
      "street": "R DR FRANCISCO DE ABREU MAIA",
      "house": "FASE 1",
      "postcode": "4990-167",
      "city": "PONTE DE LIMA",
      "lon": "-8.594542938662016",
      "lat": "41.767675512074455"
    },
    {
      "id": "pt.ine.add.PTCONT.5200822",
      "street": "R DR FRANCISCO DE ABREU MAIA",
      "house": "FASE 1",
      "postcode": "4990-167",
      "city": "PONTE DE LIMA",
      "lon": "-8.594542938662016",
      "lat": "41.767675512074455"
    },
    {
      "id": "pt.ine.add.PTCONT.5201477",
      "street": "R DR FRANCISCO DE ABREU MAIA",
      "house": "FASE 1",
      "postcode": "4990-167",
      "city": "PONTE DE LIMA",
      "lon": "-8.594542938662016",
      "lat": "41.767675512074455"
    },
    {
      "id": "pt.ine.add.PTCONT.5201523",
      "street": "R S GONCALO",
      "house": "",
      "postcode": "4990-150",
      "city": "PONTE DE LIMA",
      "lon": "-8.594542938662016",
      "lat": "41.767675512074455"
    },
    {
      "id": "pt.ine.add.PTCONT.5201524",
      "street": "R DR FRANCISCO DE ABREU MAIA",
      "house": "FASE 1",
      "postcode": "4990-167",
      "city": "PONTE DE LIMA",
      "lon": "-8.594542938662016",
      "lat": "41.767675512074455"
    },
    {
      "id": "pt.ine.add.PTCONT.5201525",
      "street": "R S GONCALO",
      "house": "2",
      "postcode": "4990-150",
      "city": "PONTE DE LIMA",
      "lon": "-8.594542938662016",
      "lat": "41.767675512074455"
    },
    {
      "id": "pt.ine.add.PTCONT.5209291",
      "street": "R DR FRANCISCO DE ABREU MAIA",
      "house": "",
      "postcode": "4990-167",
      "city": "PONTE DE LIMA",
      "lon": "-8.594086407158857",
      "lat": "41.76774036849678"
    },
    {
      "id": "pt.ine.add.PTCONT.5209292",
      "street": "R DR FRANCISCO DE ABREU MAIA",
      "house": "",
      "postcode": "4990-167",
      "city": "PONTE DE LIMA",
      "lon": "-8.594086407158857",
      "lat": "41.76774036849678"
    },
    {
      "id": "pt.ine.add.PTCONT.5209293",
      "street": "R DR FRANCISCO DE ABREU MAIA",
      "house": "",
      "postcode": "4990-167",
      "city": "PONTE DE LIMA",
      "lon": "-8.594086407158857",
      "lat": "41.76774036849678"
    },
    {
      "id": "pt.ine.add.PTCONT.5209294",
      "street": "R DR FRANCISCO DE ABREU MAIA",
      "house": "",
      "postcode": "4990-167",
      "city": "PONTE DE LIMA",
      "lon": "-8.594086407158857",
      "lat": "41.76774036849678"
    },
    {
      "id": "pt.ine.add.PTCONT.5209295",
      "street": "R DR FRANCISCO DE ABREU MAIA",
      "house": "",
      "postcode": "4990-167",
      "city": "PONTE DE LIMA",
      "lon": "-8.594086407158857",
      "lat": "41.76774036849678"
    },
    {
      "id": "pt.ine.add.PTCONT.5209296",
      "street": "R DR FRANCISCO DE ABREU MAIA",
      "house": "",
      "postcode": "4990-167",
      "city": "PONTE DE LIMA",
      "lon": "-8.594086407158857",
      "lat": "41.76774036849678"
    },
    {
      "id": "pt.ine.add.PTCONT.5234278",
      "street": "",
      "house": "",
      "postcode": "4990-252",
      "city": "PONTE DE LIMA",
      "lon": "-8.593881129841346",
      "lat": "41.76762414778161"
    },
    {
      "id": "pt.ine.add.PTCONT.5234279",
      "street": "CAM S GONÇALO",
      "house": "",
      "postcode": "4990-150",
      "city": "PONTE DE LIMA",
      "lon": "-8.593881129841346",
      "lat": "41.76762414778161"
    },
    {
      "id": "pt.ine.add.PTCONT.5234280",
      "street": "",
      "house": "",
      "postcode": "4990-150",
      "city": "PONTE DE LIMA",
      "lon": "-8.593881129841346",
      "lat": "41.76762414778161"
    },
    {
      "id": "pt.ine.add.PTCONT.5235014",
      "street": "",
      "house": "",
      "postcode": "4990-252",
      "city": "PONTE DE LIMA",
      "lon": "-8.593881129841346",
      "lat": "41.76762414778161"
    },
    {
      "id": "pt.ine.add.PTCONT.5235015",
      "street": "",
      "house": "",
      "postcode": "4990-252",
      "city": "PONTE DE LIMA",
      "lon": "-8.593881129841346",
      "lat": "41.76762414778161"
    },
    {
      "id": "pt.ine.add.PTCONT.5235016",
      "street": "R S GONCALO",
      "house": "J",
      "postcode": "4990-150",
      "city": "PONTE DE LIMA",
      "lon": "-8.593881129841346",
      "lat": "41.76762414778161"
    },
    {
      "id": "pt.ine.add.PTCONT.5235017",
      "street": "R DR FRANCISCO DE ABREU MAIA",
      "house": "J",
      "postcode": "4990-167",
      "city": "PONTE DE LIMA",
      "lon": "-8.593881129841346",
      "lat": "41.76762414778161"
    },
    {
      "id": "pt.ine.add.PTCONT.5235023",
      "street": "R S GONCALO",
      "house": "J",
      "postcode": "4990-150",
      "city": "PONTE DE LIMA",
      "lon": "-8.593881129841346",
      "lat": "41.76762414778161"
    },
    {
      "id": "pt.ine.add.PTCONT.5236082",
      "street": "R DR FRANCISCO DE ABREU MAIA",
      "house": "",
      "postcode": "4990-167",
      "city": "PONTE DE LIMA",
      "lon": "-8.593041185081919",
      "lat": "41.76788861182778"
    },
    {
      "id": "pt.ine.add.PTCONT.5257191",
      "street": "R S GONCALO",
      "house": "",
      "postcode": "4990-150",
      "city": "PONTE DE LIMA",
      "lon": "-8.591417944456296",
      "lat": "41.76793111209367"
    },
    {
      "id": "pt.ine.add.PTCONT.5257744",
      "street": "R DR FRANCISCO DE ABREU MAIA CASA DE S GONÇALO",
      "house": "69",
      "postcode": "4990-167",
      "city": "PONTE DE LIMA",
      "lon": "-8.594291169375229",
      "lat": "41.76778456373436"
    },
    {
      "id": "pt.ine.add.PTCONT.5266136",
      "street": "R DR FRANCISCO DE ABREU MAIA CASA S GONÇALO",
      "house": "",
      "postcode": "4990-167",
      "city": "PONTE DE LIMA",
      "lon": "-8.59072172114123",
      "lat": "41.7681139552057"
    },
    {
      "id": "pt.ine.add.PTCONT.5266348",
      "street": "R DR FRANCISCO DE ABREU MAIA CASA S GONÇALO",
      "house": "",
      "postcode": "4990-167",
      "city": "PONTE DE LIMA",
      "lon": "-8.59072172114123",
      "lat": "41.7681139552057"
    },
    {
      "id": "pt.ine.add.PTCONT.5273175",
      "street": "R DR FRANCISCO DE ABREU MAIA",
      "house": "FSE",
      "postcode": "4990-167",
      "city": "PONTE DE LIMA",
      "lon": "-8.59480712024076",
      "lat": "41.76762043036594"
    },
    {
      "id": "pt.ine.add.PTCONT.5273176",
      "street": "R DR FRANCISCO ABREU MAIA",
      "house": "",
      "postcode": "4990-167",
      "city": "PONTE DE LIMA",
      "lon": "-8.59480712024076",
      "lat": "41.76762043036594"
    },
    {
      "id": "pt.ine.add.PTCONT.5273177",
      "street": "R DR FRANCISCO DE ABREU MAIA",
      "house": "FSE",
      "postcode": "4990-167",
      "city": "PONTE DE LIMA",
      "lon": "-8.59480712024076",
      "lat": "41.76762043036594"
    },
    {
      "id": "pt.ine.add.PTCONT.5273178",
      "street": "R DR FRANCISCO DE ABREU MAIA",
      "house": "FSE",
      "postcode": "4990-167",
      "city": "PONTE DE LIMA",
      "lon": "-8.59480712024076",
      "lat": "41.76762043036594"
    },
    {
      "id": "pt.ine.add.PTCONT.5273179",
      "street": "R DR FRANCISCO DE ABREU MAIA",
      "house": "FSE",
      "postcode": "4990-167",
      "city": "PONTE DE LIMA",
      "lon": "-8.59480712024076",
      "lat": "41.76762043036594"
    },
    {
      "id": "pt.ine.add.PTCONT.5273180",
      "street": "R DR FRANCISCO ABREU MAIA",
      "house": "",
      "postcode": "4990-167",
      "city": "PONTE DE LIMA",
      "lon": "-8.59480712024076",
      "lat": "41.76762043036594"
    },
    {
      "id": "pt.ine.add.PTCONT.5273181",
      "street": "R DR FRANCISCO DE ABREU MAIA",
      "house": "FSE",
      "postcode": "4990-167",
      "city": "PONTE DE LIMA",
      "lon": "-8.59480712024076",
      "lat": "41.76762043036594"
    },
    {
      "id": "pt.ine.add.PTCONT.5273364",
      "street": "CAM S GONCALO",
      "house": "",
      "postcode": "4990-150",
      "city": "PONTE DE LIMA",
      "lon": "-8.59480712024076",
      "lat": "41.76762043036594"
    },
    {
      "id": "pt.ine.add.PTCONT.5282047",
      "street": "R DR FRANCISCO DE ABREU MAIA",
      "house": "FASE 1",
      "postcode": "4990-167",
      "city": "PONTE DE LIMA",
      "lon": "-8.594542938662016",
      "lat": "41.767675512074455"
    }
  ]
}