{
  "data": {
    "distrito": "Aveiro",
    "concelho": "Oliveira do Bairro",
    "freguesia": "Oiã",
    "OBJECTID": 365,
    "BGRI2021": "01140300615",
    "DT21": "01",
    "DTMN21": "0114",
    "DTMNFR21": "011403",
    "DTMNFRSEC21": "011403006",
    "SECNUM21": "006",
    "SSNUM21": "15",
    "SECSSNUM21": "00615",
    "OBJECTID_1": 9853,
    "DT": "01",
    "CC": "14",
    "fr": "03",
    "SEC": "006",
    "SS": "15"
  },
  "addresses": [
    {
      "id": "pt.ine.add.PTCONT.315497",
      "street": "R SENHORA DAS DORES",
      "house": "6",
      "postcode": "3770-066",
      "city": "OIÃ",
      "lon": "-8.509521488267714",
      "lat": "40.53531412368376"
    },
    {
      "id": "pt.ine.add.PTCONT.333774",
      "street": "R LUGAR",
      "house": "10",
      "postcode": "3770-066",
      "city": "OIÃ",
      "lon": "-8.509994662833897",
      "lat": "40.53550169323948"
    },
    {
      "id": "pt.ine.add.PTCONT.55140",
      "street": "R LUGAR",
      "house": "8",
      "postcode": "3770-066",
      "city": "OIÃ",
      "lon": "-8.509759058564464",
      "lat": "40.53558350948209"
    },
    {
      "id": "pt.ine.add.PTCONT.92921",
      "street": "R DR GRAÇA",
      "house": "21",
      "postcode": "3770-066",
      "city": "OIÃ",
      "lon": "-8.510039653986237",
      "lat": "40.535105311842955"
    },
    {
      "id": "pt.ine.add.PTCONT.164750",
      "street": "R SENHORA DAS DORES",
      "house": "2",
      "postcode": "3770-066",
      "city": "OIÃ",
      "lon": "-8.509979882954925",
      "lat": "40.53497042681512"
    },
    {
      "id": "pt.ine.add.PTCONT.194713",
      "street": "R DR ÂNGELO GRAÇA",
      "house": "23",
      "postcode": "3770-066",
      "city": "OIÃ",
      "lon": "-8.510381077549933",
      "lat": "40.53495110689425"
    },
    {
      "id": "pt.ine.add.PTCONT.194714",
      "street": "R DR ÂNGELO GRAÇA",
      "house": "23",
      "postcode": "3770-066",
      "city": "OIÃ",
      "lon": "-8.510381077549933",
      "lat": "40.53495110689425"
    },
    {
      "id": "pt.ine.add.PTCONT.242800",
      "street": "R LUGAR",
      "house": "4",
      "postcode": "3770-066",
      "city": "OIÃ",
      "lon": "-8.509392563471575",
      "lat": "40.535476639596006"
    }
  ]
}