{
  "data": {
    "distrito": "Braga",
    "concelho": "Guimarães",
    "freguesia": "Pinheiro",
    "OBJECTID": 932,
    "BGRI2021": "03083600109",
    "DT21": "03",
    "DTMN21": "0308",
    "DTMNFR21": "030836",
    "DTMNFRSEC21": "030836001",
    "SECNUM21": "001",
    "SSNUM21": "09",
    "SECSSNUM21": "00109",
    "OBJECTID_1": 26842,
    "DT": "03",
    "CC": "08",
    "fr": "36",
    "SEC": "001",
    "SS": "09"
  },
  "addresses": [
    {
      "id": "pt.ine.add.PTCONT.481325",
      "street": "R STO ANTONIO",
      "house": "409",
      "postcode": "4810-717",
      "city": "PINHEIRO GMR",
      "lon": "-8.292042521948837",
      "lat": "41.41370124230513"
    },
    {
      "id": "pt.ine.add.PTCONT.481326",
      "street": "R STO ANTONIO",
      "house": "409",
      "postcode": "4810-717",
      "city": "PINHEIRO GMR",
      "lon": "-8.292042521948837",
      "lat": "41.41370124230513"
    },
    {
      "id": "pt.ine.add.PTCONT.533849",
      "street": "R SANTO ANTÓNIO",
      "house": "665",
      "postcode": "4810-717",
      "city": "PINHEIRO GMR",
      "lon": "-8.293000856160987",
      "lat": "41.41430318132773"
    },
    {
      "id": "pt.ine.add.PTCONT.574411",
      "street": "R ARCAS",
      "house": "611",
      "postcode": "4810-647",
      "city": "PINHEIRO GMR",
      "lon": "-8.29318426920536",
      "lat": "41.415932646706494"
    },
    {
      "id": "pt.ine.add.PTCONT.666925",
      "street": "R BOUCAS",
      "house": "209",
      "postcode": "4810-719",
      "city": "PINHEIRO GMR",
      "lon": "-8.291609945500703",
      "lat": "41.41288247655997"
    },
    {
      "id": "pt.ine.add.PTCONT.702461",
      "street": "R BOUCAS",
      "house": "182",
      "postcode": "4810-719",
      "city": "PINHEIRO GMR",
      "lon": "-8.291957327488467",
      "lat": "41.413098093099954"
    },
    {
      "id": "pt.ine.add.PTCONT.738198",
      "street": "R ARCAS",
      "house": "609",
      "postcode": "4810-647",
      "city": "PINHEIRO GMR",
      "lon": "-8.293374849949602",
      "lat": "41.41560823815224"
    },
    {
      "id": "pt.ine.add.PTCONT.796753",
      "street": "R ARCAS",
      "house": "621",
      "postcode": "4810-647",
      "city": "PINHEIRO GMR",
      "lon": "-8.293338126003418",
      "lat": "41.415266138073584"
    }
  ]
}