{
  "data": {
    "distrito": "Lisboa",
    "concelho": "Lisboa",
    "freguesia": "Lumiar",
    "OBJECTID": 1753,
    "BGRI2021": "11061803407",
    "DT21": "11",
    "DTMN21": "1106",
    "DTMNFR21": "110618",
    "DTMNFRSEC21": "110618034",
    "SECNUM21": "034",
    "SSNUM21": "07",
    "SECSSNUM21": "03407",
    "OBJECTID_1": 104492,
    "DT": "11",
    "CC": "06",
    "fr": "18",
    "SEC": "034",
    "SS": "07"
  },
  "addresses": [
    {
      "id": "pt.ine.add.PTCONT.2279076",
      "street": "QTA DO OLIVAL",
      "house": "",
      "postcode": "1600-539",
      "city": "LISBOA",
      "lon": "-9.176522061583224",
      "lat": "38.77408299357731"
    },
    {
      "id": "pt.ine.add.PTCONT.2279077",
      "street": "QTA DO OLIVAL",
      "house": "",
      "postcode": "1600-539",
      "city": "LISBOA",
      "lon": "-9.176522061583224",
      "lat": "38.77408299357731"
    },
    {
      "id": "pt.ine.add.PTCONT.2279078",
      "street": "QTA DO OLIVAL",
      "house": "",
      "postcode": "1600-539",
      "city": "LISBOA",
      "lon": "-9.176522061583224",
      "lat": "38.77408299357731"
    },
    {
      "id": "pt.ine.add.PTCONT.2279079",
      "street": "QTA DO OLIVAL",
      "house": "",
      "postcode": "1600-539",
      "city": "LISBOA",
      "lon": "-9.176522061583224",
      "lat": "38.77408299357731"
    },
    {
      "id": "pt.ine.add.PTCONT.2340827",
      "street": "QTA OLIVAL",
      "house": "",
      "postcode": "1600-539",
      "city": "LISBOA",
      "lon": "-9.177694673832248",
      "lat": "38.77558582389292"
    },
    {
      "id": "pt.ine.add.PTCONT.2340828",
      "street": "QTA OLIVAL",
      "house": "",
      "postcode": "1600-539",
      "city": "LISBOA",
      "lon": "-9.177694673832248",
      "lat": "38.77558582389292"
    },
    {
      "id": "pt.ine.add.PTCONT.2340829",
      "street": "QTA OLIVAL",
      "house": "",
      "postcode": "1600-539",
      "city": "LISBOA",
      "lon": "-9.177694673832248",
      "lat": "38.77558582389292"
    },
    {
      "id": "pt.ine.add.PTCONT.2425074",
      "street": "AZ FONTE VELHA",
      "house": "",
      "postcode": "1600-461",
      "city": "LISBOA",
      "lon": "-9.175961014316352",
      "lat": "38.77348448059323"
    },
    {
      "id": "pt.ine.add.PTCONT.2444665",
      "street": "QTA DO OLIVAL",
      "house": "",
      "postcode": "1600-539",
      "city": "LISBOA",
      "lon": "-9.17776502163525",
      "lat": "38.77567527277587"
    },
    {
      "id": "pt.ine.add.PTCONT.2444666",
      "street": "AV PADRE CRUZ",
      "house": "",
      "postcode": "1600-559",
      "city": "LISBOA",
      "lon": "-9.17776502163525",
      "lat": "38.77567527277587"
    },
    {
      "id": "pt.ine.add.PTCONT.2444667",
      "street": "AV PADRE CRUZ",
      "house": "3",
      "postcode": "1600-559",
      "city": "LISBOA",
      "lon": "-9.17776502163525",
      "lat": "38.77567527277587"
    },
    {
      "id": "pt.ine.add.PTCONT.2444668",
      "street": "AV PADRE CRUZ",
      "house": "",
      "postcode": "1600-559",
      "city": "LISBOA",
      "lon": "-9.17776502163525",
      "lat": "38.77567527277587"
    },
    {
      "id": "pt.ine.add.PTCONT.2447959",
      "street": "QTA DO OLIVAL",
      "house": "",
      "postcode": "1600-539",
      "city": "LISBOA",
      "lon": "-9.17776502163525",
      "lat": "38.77567527277587"
    },
    {
      "id": "pt.ine.add.PTCONT.2448306",
      "street": "AV PADRE CRUZ",
      "house": "ANEXO",
      "postcode": "1600-559",
      "city": "LISBOA",
      "lon": "-9.17776502163525",
      "lat": "38.77567527277587"
    },
    {
      "id": "pt.ine.add.PTCONT.2473672",
      "street": "R ESQUERDA",
      "house": "14",
      "postcode": "1600-447",
      "city": "LISBOA",
      "lon": "-9.171870736548296",
      "lat": "38.773908244739296"
    },
    {
      "id": "pt.ine.add.PTCONT.2608436",
      "street": "QTA DO OLIVAL",
      "house": "",
      "postcode": "1600-539",
      "city": "LISBOA",
      "lon": "-9.176579063673616",
      "lat": "38.774046453500766"
    },
    {
      "id": "pt.ine.add.PTCONT.2608437",
      "street": "QTA OLIVAL",
      "house": "ANEXO 2",
      "postcode": "1600-539",
      "city": "LISBOA",
      "lon": "-9.176579063673616",
      "lat": "38.774046453500766"
    },
    {
      "id": "pt.ine.add.PTCONT.2608438",
      "street": "QTA DO OLIVAL",
      "house": "",
      "postcode": "1600-539",
      "city": "LISBOA",
      "lon": "-9.176579063673616",
      "lat": "38.774046453500766"
    },
    {
      "id": "pt.ine.add.PTCONT.2681403",
      "street": "AZ FONTE VELHA",
      "house": "",
      "postcode": "1600-461",
      "city": "LISBOA",
      "lon": "-9.175845043182404",
      "lat": "38.77342246100452"
    },
    {
      "id": "pt.ine.add.PTCONT.2687228",
      "street": "AZ FONTE VELHA",
      "house": "",
      "postcode": "1600-461",
      "city": "LISBOA",
      "lon": "-9.175786860988918",
      "lat": "38.77337794125373"
    },
    {
      "id": "pt.ine.add.PTCONT.2766318",
      "street": "AZ FONTE VELHA",
      "house": "3",
      "postcode": "1600-461",
      "city": "LISBOA",
      "lon": "-9.17795917223382",
      "lat": "38.775574451502244"
    },
    {
      "id": "pt.ine.add.PTCONT.2766319",
      "street": "AZ FONTE VELHA",
      "house": "1",
      "postcode": "1600-461",
      "city": "LISBOA",
      "lon": "-9.17795917223382",
      "lat": "38.775574451502244"
    },
    {
      "id": "pt.ine.add.PTCONT.2766320",
      "street": "AZ FONTE VELHA",
      "house": "CAIXA 2",
      "postcode": "1600-461",
      "city": "LISBOA",
      "lon": "-9.17795917223382",
      "lat": "38.775574451502244"
    },
    {
      "id": "pt.ine.add.PTCONT.2766321",
      "street": "AZ FONTE VELHA V CELESNTE",
      "house": "V CELESNTE",
      "postcode": "1600-461",
      "city": "LISBOA",
      "lon": "-9.17795917223382",
      "lat": "38.775574451502244"
    },
    {
      "id": "pt.ine.add.PTCONT.2766322",
      "street": "AZ FONTE VELHA",
      "house": "4",
      "postcode": "1600-461",
      "city": "LISBOA",
      "lon": "-9.17795917223382",
      "lat": "38.775574451502244"
    },
    {
      "id": "pt.ine.add.PTCONT.2774870",
      "street": "AZ FONTE VELHA",
      "house": "",
      "postcode": "1600-461",
      "city": "LISBOA",
      "lon": "-9.176748625760956",
      "lat": "38.7738377604589"
    },
    {
      "id": "pt.ine.add.PTCONT.2774871",
      "street": "AZ FONTE VELHA",
      "house": "",
      "postcode": "1600-461",
      "city": "LISBOA",
      "lon": "-9.176748625760956",
      "lat": "38.7738377604589"
    },
    {
      "id": "pt.ine.add.PTCONT.2900748",
      "street": "AZ PORTO PORTAO 9",
      "house": "2 A",
      "postcode": "1600-585",
      "city": "LISBOA",
      "lon": "-9.171902108874209",
      "lat": "38.77448446373953"
    },
    {
      "id": "pt.ine.add.PTCONT.2927669",
      "street": "QTA OLIVAL",
      "house": "1",
      "postcode": "1600-539",
      "city": "LISBOA",
      "lon": "-9.176818708095182",
      "lat": "38.77390919676968"
    },
    {
      "id": "pt.ine.add.PTCONT.2932644",
      "street": "QTA OLIVAL",
      "house": "1",
      "postcode": "1600-539",
      "city": "LISBOA",
      "lon": "-9.176818708095182",
      "lat": "38.77390919676968"
    },
    {
      "id": "pt.ine.add.PTCONT.2964696",
      "street": "AZ FONTE VELHA",
      "house": "32",
      "postcode": "1600-461",
      "city": "LISBOA",
      "lon": "-9.17643382367551",
      "lat": "38.77434500691182"
    },
    {
      "id": "pt.ine.add.PTCONT.3119122",
      "street": "QTA OLIVAL",
      "house": "",
      "postcode": "1600-539",
      "city": "LISBOA",
      "lon": "-9.176727190082344",
      "lat": "38.77394604521174"
    },
    {
      "id": "pt.ine.add.PTCONT.3119123",
      "street": "QTA OLIVAL",
      "house": "",
      "postcode": "1600-539",
      "city": "LISBOA",
      "lon": "-9.176727190082344",
      "lat": "38.77394604521174"
    },
    {
      "id": "pt.ine.add.PTCONT.3119124",
      "street": "QTA OLIVAL",
      "house": "",
      "postcode": "1600-539",
      "city": "LISBOA",
      "lon": "-9.176727190082344",
      "lat": "38.77394604521174"
    },
    {
      "id": "pt.ine.add.PTCONT.3119125",
      "street": "QTA OLIVAL",
      "house": "",
      "postcode": "1600-539",
      "city": "LISBOA",
      "lon": "-9.176727190082344",
      "lat": "38.77394604521174"
    },
    {
      "id": "pt.ine.add.PTCONT.3130809",
      "street": "AZ FONTE VELHA",
      "house": "",
      "postcode": "1600-461",
      "city": "LISBOA",
      "lon": "-9.17799500338296",
      "lat": "38.775664208858544"
    },
    {
      "id": "pt.ine.add.PTCONT.3130810",
      "street": "AZ FONTE VELHA",
      "house": "",
      "postcode": "1600-461",
      "city": "LISBOA",
      "lon": "-9.17799500338296",
      "lat": "38.775664208858544"
    },
    {
      "id": "pt.ine.add.PTCONT.3130811",
      "street": "AZ FONTE VELHA",
      "house": "",
      "postcode": "1600-461",
      "city": "LISBOA",
      "lon": "-9.17799500338296",
      "lat": "38.775664208858544"
    },
    {
      "id": "pt.ine.add.PTCONT.3130812",
      "street": "AZ FONTE VELHA",
      "house": "",
      "postcode": "1600-461",
      "city": "LISBOA",
      "lon": "-9.17799500338296",
      "lat": "38.775664208858544"
    },
    {
      "id": "pt.ine.add.PTCONT.3130813",
      "street": "AZ FONTE VELHA",
      "house": "",
      "postcode": "1600-461",
      "city": "LISBOA",
      "lon": "-9.17799500338296",
      "lat": "38.775664208858544"
    },
    {
      "id": "pt.ine.add.PTCONT.3136260",
      "street": "AZ FONTE VELHA V REBELOS",
      "house": "V REBELOS",
      "postcode": "1600-461",
      "city": "LISBOA",
      "lon": "-9.17799500338296",
      "lat": "38.775664208858544"
    },
    {
      "id": "pt.ine.add.PTCONT.3139617",
      "street": "R PARTICULAR",
      "house": "",
      "postcode": "1600-567",
      "city": "LISBOA",
      "lon": "-9.177393031463465",
      "lat": "38.77541737214356"
    },
    {
      "id": "pt.ine.add.PTCONT.3149315",
      "street": "QTA OLIVAL",
      "house": "",
      "postcode": "1600-539",
      "city": "LISBOA",
      "lon": "-9.17788882429284",
      "lat": "38.77548500273665"
    },
    {
      "id": "pt.ine.add.PTCONT.3149316",
      "street": "QTA OLIVAL",
      "house": "",
      "postcode": "1600-539",
      "city": "LISBOA",
      "lon": "-9.17788882429284",
      "lat": "38.77548500273665"
    },
    {
      "id": "pt.ine.add.PTCONT.3223575",
      "street": "QTA OLIVAL ACC",
      "house": "1",
      "postcode": "1600-539",
      "city": "LISBOA",
      "lon": "-9.177818739327547",
      "lat": "38.775413567122975"
    },
    {
      "id": "pt.ine.add.PTCONT.3223576",
      "street": "QTA OLIVAL ACC",
      "house": "1",
      "postcode": "1600-539",
      "city": "LISBOA",
      "lon": "-9.177818739327547",
      "lat": "38.775413567122975"
    },
    {
      "id": "pt.ine.add.PTCONT.3223577",
      "street": "QTA OLIVAL ACC",
      "house": "1",
      "postcode": "1600-539",
      "city": "LISBOA",
      "lon": "-9.177818739327547",
      "lat": "38.775413567122975"
    },
    {
      "id": "pt.ine.add.PTCONT.3223578",
      "street": "QTA OLIVAL ACC",
      "house": "ACC",
      "postcode": "1600-539",
      "city": "LISBOA",
      "lon": "-9.177818739327547",
      "lat": "38.775413567122975"
    },
    {
      "id": "pt.ine.add.PTCONT.3223582",
      "street": "QTA OLIVAL ACC",
      "house": "1",
      "postcode": "1600-539",
      "city": "LISBOA",
      "lon": "-9.177818739327547",
      "lat": "38.775413567122975"
    },
    {
      "id": "pt.ine.add.PTCONT.3223583",
      "street": "QTA OLIVAL ACC",
      "house": "1",
      "postcode": "1600-539",
      "city": "LISBOA",
      "lon": "-9.177818739327547",
      "lat": "38.775413567122975"
    },
    {
      "id": "pt.ine.add.PTCONT.3223584",
      "street": "QTA OLIVAL ACC",
      "house": "1",
      "postcode": "1600-539",
      "city": "LISBOA",
      "lon": "-9.177818739327547",
      "lat": "38.775413567122975"
    },
    {
      "id": "pt.ine.add.PTCONT.3223585",
      "street": "QTA OLIVAL ACC",
      "house": "1",
      "postcode": "1600-539",
      "city": "LISBOA",
      "lon": "-9.177818739327547",
      "lat": "38.775413567122975"
    },
    {
      "id": "pt.ine.add.PTCONT.3223586",
      "street": "QTA OLIVAL ACC",
      "house": "1",
      "postcode": "1600-539",
      "city": "LISBOA",
      "lon": "-9.177818739327547",
      "lat": "38.775413567122975"
    },
    {
      "id": "pt.ine.add.PTCONT.3223587",
      "street": "QTA OLIVAL ACC",
      "house": "1",
      "postcode": "1600-539",
      "city": "LISBOA",
      "lon": "-9.177818739327547",
      "lat": "38.775413567122975"
    },
    {
      "id": "pt.ine.add.PTCONT.3223588",
      "street": "QTA OLIVAL ACC",
      "house": "1",
      "postcode": "1600-539",
      "city": "LISBOA",
      "lon": "-9.177818739327547",
      "lat": "38.775413567122975"
    },
    {
      "id": "pt.ine.add.PTCONT.3223589",
      "street": "QTA OLIVAL ACC",
      "house": "1",
      "postcode": "1600-539",
      "city": "LISBOA",
      "lon": "-9.177818739327547",
      "lat": "38.775413567122975"
    },
    {
      "id": "pt.ine.add.PTCONT.3223590",
      "street": "QTA OLIVAL ACC",
      "house": "1",
      "postcode": "1600-539",
      "city": "LISBOA",
      "lon": "-9.177818739327547",
      "lat": "38.775413567122975"
    },
    {
      "id": "pt.ine.add.PTCONT.3223591",
      "street": "QTA OLIVAL ACC",
      "house": "1",
      "postcode": "1600-539",
      "city": "LISBOA",
      "lon": "-9.177818739327547",
      "lat": "38.775413567122975"
    },
    {
      "id": "pt.ine.add.PTCONT.3228968",
      "street": "QTA OLIVAL ACC",
      "house": "1",
      "postcode": "1600-539",
      "city": "LISBOA",
      "lon": "-9.177818739327547",
      "lat": "38.775413567122975"
    },
    {
      "id": "pt.ine.add.PTCONT.3284753",
      "street": "AZ DA FONTE VELHA",
      "house": "",
      "postcode": "1600-267",
      "city": "LISBOA",
      "lon": "-9.175694031874132",
      "lat": "38.773324722806144"
    },
    {
      "id": "pt.ine.add.PTCONT.3284754",
      "street": "AZ DA FONTE VELHA",
      "house": "",
      "postcode": "1600-267",
      "city": "LISBOA",
      "lon": "-9.175694031874132",
      "lat": "38.773324722806144"
    },
    {
      "id": "pt.ine.add.PTCONT.3284755",
      "street": "AZ DA FONTE VELHA",
      "house": "",
      "postcode": "1600-267",
      "city": "LISBOA",
      "lon": "-9.175694031874132",
      "lat": "38.773324722806144"
    },
    {
      "id": "pt.ine.add.PTCONT.3284756",
      "street": "AZ DA FONTE VELHA",
      "house": "",
      "postcode": "1600-267",
      "city": "LISBOA",
      "lon": "-9.175694031874132",
      "lat": "38.773324722806144"
    },
    {
      "id": "pt.ine.add.PTCONT.3284757",
      "street": "AZ DA FONTE VELHA",
      "house": "",
      "postcode": "1600-267",
      "city": "LISBOA",
      "lon": "-9.175694031874132",
      "lat": "38.773324722806144"
    },
    {
      "id": "pt.ine.add.PTCONT.3284758",
      "street": "AZ DA FONTE VELHA",
      "house": "",
      "postcode": "1600-267",
      "city": "LISBOA",
      "lon": "-9.175694031874132",
      "lat": "38.773324722806144"
    },
    {
      "id": "pt.ine.add.PTCONT.3284759",
      "street": "AZ DA FONTE VELHA",
      "house": "",
      "postcode": "1600-267",
      "city": "LISBOA",
      "lon": "-9.175694031874132",
      "lat": "38.773324722806144"
    },
    {
      "id": "pt.ine.add.PTCONT.3284760",
      "street": "AZ DA FONTE VELHA",
      "house": "",
      "postcode": "1600-267",
      "city": "LISBOA",
      "lon": "-9.175694031874132",
      "lat": "38.773324722806144"
    },
    {
      "id": "pt.ine.add.PTCONT.3284761",
      "street": "AZ DA FONTE VELHA",
      "house": "",
      "postcode": "1600-267",
      "city": "LISBOA",
      "lon": "-9.175694031874132",
      "lat": "38.773324722806144"
    },
    {
      "id": "pt.ine.add.PTCONT.3288134",
      "street": "QTA DO OLIVAL",
      "house": "",
      "postcode": "1600-539",
      "city": "LISBOA",
      "lon": "-9.176658814003396",
      "lat": "38.773991694706076"
    },
    {
      "id": "pt.ine.add.PTCONT.3288135",
      "street": "QTA OLIVAL",
      "house": "ANEXO 1",
      "postcode": "1600-539",
      "city": "LISBOA",
      "lon": "-9.176658814003396",
      "lat": "38.773991694706076"
    },
    {
      "id": "pt.ine.add.PTCONT.3288136",
      "street": "QTA OLIVAL",
      "house": "ANEXO 2",
      "postcode": "1600-539",
      "city": "LISBOA",
      "lon": "-9.176658814003396",
      "lat": "38.773991694706076"
    },
    {
      "id": "pt.ine.add.PTCONT.3288137",
      "street": "QTA DO OLIVAL",
      "house": "",
      "postcode": "1600-539",
      "city": "LISBOA",
      "lon": "-9.176658814003396",
      "lat": "38.773991694706076"
    },
    {
      "id": "pt.ine.add.PTCONT.3369633",
      "street": "QTA OLIVAL",
      "house": "",
      "postcode": "1600-539",
      "city": "LISBOA",
      "lon": "-9.177869492413308",
      "lat": "38.77573739322724"
    },
    {
      "id": "pt.ine.add.PTCONT.3369634",
      "street": "QTA OLIVAL",
      "house": "",
      "postcode": "1600-539",
      "city": "LISBOA",
      "lon": "-9.177869492413308",
      "lat": "38.77573739322724"
    },
    {
      "id": "pt.ine.add.PTCONT.3369635",
      "street": "QTA OLIVAL",
      "house": "",
      "postcode": "1600-539",
      "city": "LISBOA",
      "lon": "-9.177869492413308",
      "lat": "38.77573739322724"
    },
    {
      "id": "pt.ine.add.PTCONT.3369636",
      "street": "QTA OLIVAL PUREZA",
      "house": "PUREZA",
      "postcode": "1600-539",
      "city": "LISBOA",
      "lon": "-9.177869492413308",
      "lat": "38.77573739322724"
    },
    {
      "id": "pt.ine.add.PTCONT.3369637",
      "street": "QTA OLIVAL",
      "house": "",
      "postcode": "1600-539",
      "city": "LISBOA",
      "lon": "-9.177869492413308",
      "lat": "38.77573739322724"
    },
    {
      "id": "pt.ine.add.PTCONT.3369638",
      "street": "QTA OLIVAL",
      "house": "V PUREZA",
      "postcode": "1600-539",
      "city": "LISBOA",
      "lon": "-9.177869492413308",
      "lat": "38.77573739322724"
    },
    {
      "id": "pt.ine.add.PTCONT.3369639",
      "street": "QTA OLIVAL V PUREZA",
      "house": "V PUREZA",
      "postcode": "1600-539",
      "city": "LISBOA",
      "lon": "-9.177869492413308",
      "lat": "38.77573739322724"
    },
    {
      "id": "pt.ine.add.PTCONT.3376692",
      "street": "QTA OLIVAL",
      "house": "",
      "postcode": "1600-539",
      "city": "LISBOA",
      "lon": "-9.177869492413308",
      "lat": "38.77573739322724"
    },
    {
      "id": "pt.ine.add.PTCONT.3404050",
      "street": "AZ PORTO PORTAO 9",
      "house": "1",
      "postcode": "1600-585",
      "city": "LISBOA",
      "lon": "-9.171832161444097",
      "lat": "38.77442203104452"
    },
    {
      "id": "pt.ine.add.PTCONT.3443440",
      "street": "AZ DA FONTE VELHA",
      "house": "",
      "postcode": "1600-267",
      "city": "LISBOA",
      "lon": "-9.175694031874132",
      "lat": "38.773324722806144"
    }
  ]
}