{
  "data": {
    "distrito": "Évora",
    "concelho": "Évora",
    "freguesia": "União das freguesias de Évora (São Mamede, Sé, São Pedro e Santo Antão)",
    "OBJECTID": 1203,
    "BGRI2021": "07052300319",
    "DT21": "07",
    "DTMN21": "0705",
    "DTMNFR21": "070523",
    "DTMNFRSEC21": "070523003",
    "SECNUM21": "003",
    "SSNUM21": "19",
    "SECSSNUM21": "00319",
    "OBJECTID_1": 60200,
    "DT": "07",
    "CC": "05",
    "fr": "23",
    "SEC": "003",
    "SS": "19"
  },
  "addresses": [
    {
      "id": "pt.ine.add.PTCONT.1377441",
      "street": "R TRINDADE",
      "house": "22",
      "postcode": "7000-586",
      "city": "ÉVORA",
      "lon": "-7.911873653048025",
      "lat": "38.57494448494452"
    },
    {
      "id": "pt.ine.add.PTCONT.1377442",
      "street": "R TRINDADE",
      "house": "22A",
      "postcode": "7000-586",
      "city": "ÉVORA",
      "lon": "-7.911873653048025",
      "lat": "38.57494448494452"
    },
    {
      "id": "pt.ine.add.PTCONT.1379091",
      "street": "TV FLORES",
      "house": "3",
      "postcode": "7000-623",
      "city": "ÉVORA",
      "lon": "-7.9118269679411",
      "lat": "38.57486426252293"
    },
    {
      "id": "pt.ine.add.PTCONT.1384516",
      "street": "R CANO",
      "house": "41",
      "postcode": "7000-596",
      "city": "ÉVORA",
      "lon": "-7.9116239383885825",
      "lat": "38.57500109439794"
    },
    {
      "id": "pt.ine.add.PTCONT.1396742",
      "street": "R TRINDADE",
      "house": "26",
      "postcode": "7000-586",
      "city": "ÉVORA",
      "lon": "-7.911829551683746",
      "lat": "38.57504586403156"
    },
    {
      "id": "pt.ine.add.PTCONT.1412115",
      "street": "R CANO",
      "house": "47",
      "postcode": "7000-596",
      "city": "ÉVORA",
      "lon": "-7.9117688170448845",
      "lat": "38.57511638762563"
    },
    {
      "id": "pt.ine.add.PTCONT.1412655",
      "street": "R CANO",
      "house": "49",
      "postcode": "7000-596",
      "city": "ÉVORA",
      "lon": "-7.9117688170448845",
      "lat": "38.57511638762563"
    },
    {
      "id": "pt.ine.add.PTCONT.1414253",
      "street": "LG SEVERIM DE FARIA",
      "house": "18 - 20",
      "postcode": "7000-578",
      "city": "ÉVORA",
      "lon": "-7.911872979993722",
      "lat": "38.57482831591787"
    },
    {
      "id": "pt.ine.add.PTCONT.1414254",
      "street": "LG SEVERIM DE FARIA",
      "house": "18 - 20",
      "postcode": "7000-578",
      "city": "ÉVORA",
      "lon": "-7.911872979993722",
      "lat": "38.57482831591787"
    },
    {
      "id": "pt.ine.add.PTCONT.1419659",
      "street": "R CANO",
      "house": "39",
      "postcode": "7000-596",
      "city": "ÉVORA",
      "lon": "-7.911600999206286",
      "lat": "38.57497110528538"
    },
    {
      "id": "pt.ine.add.PTCONT.1432491",
      "street": "TV DAS FLORES",
      "house": "1-1 A",
      "postcode": "7000-623",
      "city": "ÉVORA",
      "lon": "-7.911664207268947",
      "lat": "38.574922872323626"
    },
    {
      "id": "pt.ine.add.PTCONT.1432492",
      "street": "TV DAS FLORES",
      "house": "1-1 A",
      "postcode": "7000-623",
      "city": "ÉVORA",
      "lon": "-7.911664207268947",
      "lat": "38.574922872323626"
    },
    {
      "id": "pt.ine.add.PTCONT.1449295",
      "street": "R TRINDADE",
      "house": "24",
      "postcode": "7000-586",
      "city": "ÉVORA",
      "lon": "-7.911854534619385",
      "lat": "38.57497900410921"
    }
  ]
}