{
  "data": {
    "distrito": "Castelo Branco",
    "concelho": "Covilhã",
    "freguesia": "União das freguesias de Vale Formoso e Aldeia do Souto",
    "OBJECTID": 796,
    "BGRI2021": "05033800104",
    "DT21": "05",
    "DTMN21": "0503",
    "DTMNFR21": "050338",
    "DTMNFRSEC21": "050338001",
    "SECNUM21": "001",
    "SSNUM21": "04",
    "SECSSNUM21": "00104",
    "OBJECTID_1": 42432,
    "DT": "05",
    "CC": "03",
    "fr": "38",
    "SEC": "001",
    "SS": "04"
  },
  "addresses": [
    {
      "id": "pt.ine.add.PTCONT.958706",
      "street": "R ARCO S JOAO",
      "house": "2 B",
      "postcode": "6200-501",
      "city": "ALDEIA DO SOUTO",
      "lon": "-7.396474978310785",
      "lat": "40.365043451329754"
    },
    {
      "id": "pt.ine.add.PTCONT.976438",
      "street": "R ARCO S JOAO",
      "house": "2A",
      "postcode": "6200-501",
      "city": "ALDEIA DO SOUTO",
      "lon": "-7.396732893206087",
      "lat": "40.36514415443392"
    },
    {
      "id": "pt.ine.add.PTCONT.992052",
      "street": "TV MARIA JANEIRA",
      "house": "1",
      "postcode": "6200-501",
      "city": "ALDEIA DO SOUTO",
      "lon": "-7.398494846237282",
      "lat": "40.365515580281865"
    },
    {
      "id": "pt.ine.add.PTCONT.993941",
      "street": "R QUINTA DO VAL DO PEREIRO",
      "house": "",
      "postcode": "6200-501",
      "city": "ALDEIA DO SOUTO",
      "lon": "-7.399120300098578",
      "lat": "40.36429480232937"
    },
    {
      "id": "pt.ine.add.PTCONT.997266",
      "street": "R ARCO S JOAO",
      "house": "6",
      "postcode": "6200-501",
      "city": "ALDEIA DO SOUTO",
      "lon": "-7.395223481844333",
      "lat": "40.36428801590533"
    },
    {
      "id": "pt.ine.add.PTCONT.1011369",
      "street": "R ARCO DE S JOÃO",
      "house": "4",
      "postcode": "6200-501",
      "city": "ALDEIA DO SOUTO",
      "lon": "-7.395433910162904",
      "lat": "40.364424440950614"
    },
    {
      "id": "pt.ine.add.PTCONT.1018319",
      "street": "R ARCO DE S JOÃO",
      "house": "8",
      "postcode": "6200-501",
      "city": "ALDEIA DO SOUTO",
      "lon": "-7.394261230310118",
      "lat": "40.36292204048187"
    },
    {
      "id": "pt.ine.add.PTCONT.1021910",
      "street": "TV MARIA JANEIRA",
      "house": "3",
      "postcode": "6200-501",
      "city": "ALDEIA DO SOUTO",
      "lon": "-7.398532021114629",
      "lat": "40.36534471176419"
    },
    {
      "id": "pt.ine.add.PTCONT.1085659",
      "street": "R RASA",
      "house": "2",
      "postcode": "6200-501",
      "city": "ALDEIA DO SOUTO",
      "lon": "-7.398241034706357",
      "lat": "40.365036675835796"
    }
  ]
}