{
  "data": {
    "distrito": "Guarda",
    "concelho": "Fornos de Algodres",
    "freguesia": "União das freguesias de Juncais, Vila Ruiva e Vila Soeiro do Chão",
    "OBJECTID": 162,
    "BGRI2021": "09051800112",
    "DT21": "09",
    "DTMN21": "0905",
    "DTMNFR21": "090518",
    "DTMNFRSEC21": "090518001",
    "SECNUM21": "001",
    "SSNUM21": "12",
    "SECSSNUM21": "00112",
    "OBJECTID_1": 76894,
    "DT": "09",
    "CC": "05",
    "fr": "18",
    "SEC": "001",
    "SS": "12"
  },
  "addresses": [
    {
      "id": "pt.ine.add.PTCONT.1920731",
      "street": "LG DR JOSÉ HENRIQUES BARATA",
      "house": "18",
      "postcode": "6370-401",
      "city": "VILA RUIVA FAG",
      "lon": "-7.516936847705414",
      "lat": "40.57039537766455"
    },
    {
      "id": "pt.ine.add.PTCONT.1920878",
      "street": "LG DR JOSÉ HENRIQUES BARATA",
      "house": "44",
      "postcode": "6370-401",
      "city": "VILA RUIVA FAG",
      "lon": "-7.516050127063628",
      "lat": "40.57050771259393"
    },
    {
      "id": "pt.ine.add.PTCONT.1947977",
      "street": "LG DR JOSÉ HENRIQUES BARATA",
      "house": "7",
      "postcode": "6370-401",
      "city": "VILA RUIVA FAG",
      "lon": "-7.51663040242866",
      "lat": "40.57033070614226"
    },
    {
      "id": "pt.ine.add.PTCONT.1971751",
      "street": "R DOS PASTORES",
      "house": "11",
      "postcode": "6370-401",
      "city": "VILA RUIVA FAG",
      "lon": "-7.516193980657836",
      "lat": "40.57027434499995"
    },
    {
      "id": "pt.ine.add.PTCONT.1978182",
      "street": "R DR JOSÉ HENRIQUES BARATA",
      "house": "3",
      "postcode": "6370-401",
      "city": "VILA RUIVA FAG",
      "lon": "-7.51622642949946",
      "lat": "40.5705987064468"
    },
    {
      "id": "pt.ine.add.PTCONT.1850079",
      "street": "LG DR JOSÉ HENRIQUES BARATA",
      "house": "15",
      "postcode": "6370-401",
      "city": "VILA RUIVA FAG",
      "lon": "-7.516072751755396",
      "lat": "40.570615896160966"
    },
    {
      "id": "pt.ine.add.PTCONT.1870329",
      "street": "R DOS PASTORES",
      "house": "13",
      "postcode": "6370-401",
      "city": "VILA RUIVA FAG",
      "lon": "-7.51586276116625",
      "lat": "40.570335612316995"
    },
    {
      "id": "pt.ine.add.PTCONT.1877581",
      "street": "LG DR JOSÉ HENRIQUES BARATA",
      "house": "5",
      "postcode": "6370-401",
      "city": "VILA RUIVA FAG",
      "lon": "-7.516652945365446",
      "lat": "40.570447894391314"
    },
    {
      "id": "pt.ine.add.PTCONT.1881526",
      "street": "R DO OUTEIRO",
      "house": "17",
      "postcode": "6370-401",
      "city": "VILA RUIVA FAG",
      "lon": "-7.515930965312891",
      "lat": "40.57062414397439"
    }
  ]
}