{
  "data": {
    "distrito": "Leiria",
    "concelho": "Batalha",
    "freguesia": "São Mamede",
    "OBJECTID": 165,
    "BGRI2021": "10040300253",
    "DT21": "10",
    "DTMN21": "1004",
    "DTMNFR21": "100403",
    "DTMNFRSEC21": "100403002",
    "SECNUM21": "002",
    "SSNUM21": "53",
    "SECSSNUM21": "00253",
    "OBJECTID_1": 86544,
    "DT": "10",
    "CC": "04",
    "fr": "03",
    "SEC": "002",
    "SS": "53"
  },
  "addresses": [
    {
      "id": "pt.ine.add.PTCONT.2006961",
      "street": "R NSA SRA DE FÁTIMA",
      "house": "2",
      "postcode": "2495-028",
      "city": "SÃO MAMEDE",
      "lon": "-8.700533480600397",
      "lat": "39.618992770743525"
    },
    {
      "id": "pt.ine.add.PTCONT.2023680",
      "street": "R S MARTINHO",
      "house": "27",
      "postcode": "2495-028",
      "city": "SÃO MAMEDE",
      "lon": "-8.700868253745254",
      "lat": "39.61863086679377"
    },
    {
      "id": "pt.ine.add.PTCONT.2094469",
      "street": "R ESCOLA VELHA",
      "house": "6",
      "postcode": "2495-028",
      "city": "SÃO MAMEDE",
      "lon": "-8.69921344080427",
      "lat": "39.618494834902286"
    },
    {
      "id": "pt.ine.add.PTCONT.2101234",
      "street": "R TEAR",
      "house": "8",
      "postcode": "2495-028",
      "city": "SÃO MAMEDE",
      "lon": "-8.698945158335354",
      "lat": "39.618442101635345"
    },
    {
      "id": "pt.ine.add.PTCONT.2101235",
      "street": "R S MARTINHO",
      "house": "31",
      "postcode": "2495-028",
      "city": "SÃO MAMEDE",
      "lon": "-8.700037833818337",
      "lat": "39.618193593400754"
    },
    {
      "id": "pt.ine.add.PTCONT.2148729",
      "street": "R ESCOLA VELHA",
      "house": "1",
      "postcode": "2495-028",
      "city": "SÃO MAMEDE",
      "lon": "-8.70007997120986",
      "lat": "39.61907604528526"
    },
    {
      "id": "pt.ine.add.PTCONT.2205797",
      "street": "R S MARTINHO",
      "house": "29",
      "postcode": "2495-028",
      "city": "SÃO MAMEDE",
      "lon": "-8.700516981353276",
      "lat": "39.618398408523454"
    },
    {
      "id": "pt.ine.add.PTCONT.2249560",
      "street": "R S MARTINHO",
      "house": "35",
      "postcode": "2495-028",
      "city": "SÃO MAMEDE",
      "lon": "-8.699464426124425",
      "lat": "39.617854135184956"
    },
    {
      "id": "pt.ine.add.PTCONT.2258873",
      "street": "R ESCOLA VELHA",
      "house": "4",
      "postcode": "2495-028",
      "city": "SÃO MAMEDE",
      "lon": "-8.699400132955867",
      "lat": "39.61853895857652"
    }
  ]
}