{
  "data": {
    "distrito": "Leiria",
    "concelho": "Batalha",
    "freguesia": "São Mamede",
    "OBJECTID": 213,
    "BGRI2021": "10040300263",
    "DT21": "10",
    "DTMN21": "1004",
    "DTMNFR21": "100403",
    "DTMNFRSEC21": "100403002",
    "SECNUM21": "002",
    "SSNUM21": "63",
    "SECSSNUM21": "00263",
    "OBJECTID_1": 87039,
    "DT": "10",
    "CC": "04",
    "fr": "03",
    "SEC": "002",
    "SS": "63"
  },
  "addresses": [
    {
      "id": "pt.ine.add.PTCONT.2086916",
      "street": "ESTR MOITA DO MARTINHO",
      "house": "8",
      "postcode": "2495-032",
      "city": "SÃO MAMEDE",
      "lon": "-8.714150154287887",
      "lat": "39.622095824843065"
    },
    {
      "id": "pt.ine.add.PTCONT.2096050",
      "street": "R ANTIGO CAMPO DA BOLA",
      "house": "3",
      "postcode": "2495-032",
      "city": "SÃO MAMEDE",
      "lon": "-8.7146485155259",
      "lat": "39.6218051167939"
    },
    {
      "id": "pt.ine.add.PTCONT.2103831",
      "street": "R ESTRADA DOS CASAIS",
      "house": "3",
      "postcode": "2495-032",
      "city": "SÃO MAMEDE",
      "lon": "-8.716121718611593",
      "lat": "39.621104216917246"
    },
    {
      "id": "pt.ine.add.PTCONT.2112870",
      "street": "R ANTONIO GOMES VIEIRA",
      "house": "8",
      "postcode": "2495-032",
      "city": "SÃO MAMEDE",
      "lon": "-8.716128066754955",
      "lat": "39.62186074787763"
    },
    {
      "id": "pt.ine.add.PTCONT.2112871",
      "street": "R ANTONIO GOMES VIEIRA",
      "house": "220",
      "postcode": "2495-032",
      "city": "SÃO MAMEDE",
      "lon": "-8.716128066754955",
      "lat": "39.62186074787763"
    },
    {
      "id": "pt.ine.add.PTCONT.2181543",
      "street": "ESTR MOITA DO MARTINHO",
      "house": "6",
      "postcode": "2495-032",
      "city": "SÃO MAMEDE",
      "lon": "-8.714883996500692",
      "lat": "39.62211016557142"
    },
    {
      "id": "pt.ine.add.PTCONT.2208387",
      "street": "R ANTÓNIO GOMES VIEIRA",
      "house": "6",
      "postcode": "2495-032",
      "city": "SÃO MAMEDE",
      "lon": "-8.716509733039084",
      "lat": "39.62154359733769"
    },
    {
      "id": "pt.ine.add.PTCONT.2212893",
      "street": "LG FEIRA",
      "house": "14",
      "postcode": "2495-032",
      "city": "SÃO MAMEDE",
      "lon": "-8.715944301843065",
      "lat": "39.62216789775192"
    }
  ]
}