{
  "data": {
    "distrito": "Portalegre",
    "concelho": "Marvão",
    "freguesia": "São Salvador da Aramenha",
    "OBJECTID": 31,
    "BGRI2021": "12100400220",
    "DT21": "12",
    "DTMN21": "1210",
    "DTMNFR21": "121004",
    "DTMNFRSEC21": "121004002",
    "SECNUM21": "002",
    "SSNUM21": "20",
    "SECSSNUM21": "00220",
    "OBJECTID_1": 122914,
    "DT": "12",
    "CC": "10",
    "fr": "04",
    "SEC": "002",
    "SS": "20"
  },
  "addresses": [
    {
      "id": "pt.ine.add.PTCONT.3465462",
      "street": "ESTR CARRIS",
      "house": "",
      "postcode": "7330-306",
      "city": "SÃO SALVADOR DA ARAMENHA",
      "lon": "-7.395782304014123",
      "lat": "39.35152581076006"
    },
    {
      "id": "pt.ine.add.PTCONT.3496907",
      "street": "SIT TOJAIS",
      "house": "",
      "postcode": "7330-301",
      "city": "SÃO SALVADOR DA ARAMENHA",
      "lon": "-7.396404322196321",
      "lat": "39.34421601253515"
    },
    {
      "id": "pt.ine.add.PTCONT.3497289",
      "street": "SIT TOJAIS MONTE DOS TOJAIS",
      "house": "",
      "postcode": "7330-301",
      "city": "SÃO SALVADOR DA ARAMENHA",
      "lon": "-7.400015489299222",
      "lat": "39.344986401585345"
    },
    {
      "id": "pt.ine.add.PTCONT.3516765",
      "street": "SIT SABOARIAS",
      "house": "",
      "postcode": "7330-301",
      "city": "SÃO SALVADOR DA ARAMENHA",
      "lon": "-7.40166246126904",
      "lat": "39.343897901028086"
    },
    {
      "id": "pt.ine.add.PTCONT.3526780",
      "street": "SIT SABOARIAS",
      "house": "",
      "postcode": "7330-301",
      "city": "SÃO SALVADOR DA ARAMENHA",
      "lon": "-7.404143672928992",
      "lat": "39.34289566854834"
    }
  ]
}