{
  "data": {
    "distrito": "Vila Real",
    "concelho": "Vila Real",
    "freguesia": "Torgueda",
    "OBJECTID": 197,
    "BGRI2021": "17142600106",
    "DT21": "17",
    "DTMN21": "1714",
    "DTMNFR21": "171426",
    "DTMNFRSEC21": "171426001",
    "SECNUM21": "001",
    "SSNUM21": "06",
    "SECSSNUM21": "00106",
    "OBJECTID_1": 188013,
    "DT": "17",
    "CC": "14",
    "fr": "26",
    "SEC": "001",
    "SS": "06"
  },
  "addresses": [
    {
      "id": "pt.ine.add.PTCONT.5287793",
      "street": "R VEIGA",
      "house": "",
      "postcode": "5000-746",
      "city": "TORGUEDA",
      "lon": "-7.781182303848157",
      "lat": "41.259392965503444"
    },
    {
      "id": "pt.ine.add.PTCONT.5289850",
      "street": "R VEIGA",
      "house": "",
      "postcode": "5000-746",
      "city": "TORGUEDA",
      "lon": "-7.78190930668633",
      "lat": "41.25955726110224"
    },
    {
      "id": "pt.ine.add.PTCONT.5317486",
      "street": "R VEIGA",
      "house": "",
      "postcode": "5000-746",
      "city": "TORGUEDA",
      "lon": "-7.781623413208549",
      "lat": "41.25946634661774"
    },
    {
      "id": "pt.ine.add.PTCONT.5319636",
      "street": "R VEIGA",
      "house": "",
      "postcode": "5000-746",
      "city": "TORGUEDA",
      "lon": "-7.781937319174923",
      "lat": "41.25878298474167"
    },
    {
      "id": "pt.ine.add.PTCONT.5321883",
      "street": "R CAMPO",
      "house": "",
      "postcode": "5000-746",
      "city": "TORGUEDA",
      "lon": "-7.782971285259882",
      "lat": "41.25956049557312"
    },
    {
      "id": "pt.ine.add.PTCONT.5335423",
      "street": "R VEIGA",
      "house": "",
      "postcode": "5000-746",
      "city": "TORGUEDA",
      "lon": "-7.782960170447052",
      "lat": "41.25940739025813"
    },
    {
      "id": "pt.ine.add.PTCONT.5340576",
      "street": "R RODELO",
      "house": "",
      "postcode": "5000-746",
      "city": "TORGUEDA",
      "lon": "-7.782350755201789",
      "lat": "41.25956761101922"
    },
    {
      "id": "pt.ine.add.PTCONT.5395545",
      "street": "R VEIGA CASA DA VEIGA",
      "house": "",
      "postcode": "5000-746",
      "city": "TORGUEDA",
      "lon": "-7.782737113571847",
      "lat": "41.258722391930704"
    }
  ]
}