{
  "data": {
    "distrito": "Viseu",
    "concelho": "Sátão",
    "freguesia": "Ferreira de Aves",
    "OBJECTID": 404,
    "BGRI2021": "18170400318",
    "DT21": "18",
    "DTMN21": "1817",
    "DTMNFR21": "181704",
    "DTMNFRSEC21": "181704003",
    "SECNUM21": "003",
    "SSNUM21": "18",
    "SECSSNUM21": "00318",
    "OBJECTID_1": 197458,
    "DT": "18",
    "CC": "17",
    "fr": "04",
    "SEC": "003",
    "SS": "18"
  },
  "addresses": [
    {
      "id": "pt.ine.add.PTCONT.5431351",
      "street": "R FUNDO",
      "house": "106",
      "postcode": "3560-049",
      "city": "FERREIRA DE AVES",
      "lon": "-7.690052522815216",
      "lat": "40.78946353707661"
    },
    {
      "id": "pt.ine.add.PTCONT.5436841",
      "street": "R MIRAGAIA",
      "house": "8",
      "postcode": "3560-049",
      "city": "FERREIRA DE AVES",
      "lon": "-7.689981676309914",
      "lat": "40.78942724533293"
    },
    {
      "id": "pt.ine.add.PTCONT.5504376",
      "street": "AV MARQUESES FERREIRA",
      "house": "1670",
      "postcode": "3560-049",
      "city": "FERREIRA DE AVES",
      "lon": "-7.691026897463559",
      "lat": "40.789035037676534"
    },
    {
      "id": "pt.ine.add.PTCONT.5509797",
      "street": "R FUNDO DO LUGAR",
      "house": "",
      "postcode": "3560-049",
      "city": "FERREIRA DE AVES",
      "lon": "-7.691093564376849",
      "lat": "40.78970165758721"
    },
    {
      "id": "pt.ine.add.PTCONT.5569827",
      "street": "AV MARQUESES DE FERREIRA",
      "house": "",
      "postcode": "3560-049",
      "city": "FERREIRA DE AVES",
      "lon": "-7.69101150346095",
      "lat": "40.787783293783896"
    },
    {
      "id": "pt.ine.add.PTCONT.5593955",
      "street": "R FUNDO DO LUGAR",
      "house": "",
      "postcode": "3560-049",
      "city": "FERREIRA DE AVES",
      "lon": "-7.690336208678882",
      "lat": "40.7895636801381"
    },
    {
      "id": "pt.ine.add.PTCONT.5638963",
      "street": "R FUNDO",
      "house": "94",
      "postcode": "3560-049",
      "city": "FERREIRA DE AVES",
      "lon": "-7.690135217062996",
      "lat": "40.78949987425888"
    }
  ]
}