{
  "data": {
    "distrito": "Porto",
    "concelho": "Paredes",
    "freguesia": "Baltar",
    "OBJECTID": 1293,
    "BGRI2021": "13100300213",
    "DT21": "13",
    "DTMN21": "1310",
    "DTMNFR21": "131003",
    "DTMNFRSEC21": "131003002",
    "SECNUM21": "002",
    "SSNUM21": "13",
    "SECSSNUM21": "00213",
    "OBJECTID_1": 135290,
    "DT": "13",
    "CC": "10",
    "fr": "03",
    "SEC": "002",
    "SS": "13"
  },
  "addresses": [
    {
      "id": "pt.ine.add.PTCONT.3586741",
      "street": "R FIGUEIRA",
      "house": "8",
      "postcode": "4585-040",
      "city": "BALTAR",
      "lon": "-8.3812525275831",
      "lat": "41.19188826894771"
    },
    {
      "id": "pt.ine.add.PTCONT.3586742",
      "street": "R FIGUEIRA DA PORTA",
      "house": "525",
      "postcode": "4585-040",
      "city": "BALTAR",
      "lon": "-8.3812525275831",
      "lat": "41.19188826894771"
    },
    {
      "id": "pt.ine.add.PTCONT.3670801",
      "street": "R TANQUE",
      "house": "246",
      "postcode": "4585-059",
      "city": "BALTAR",
      "lon": "-8.382719733149736",
      "lat": "41.192155228105726"
    },
    {
      "id": "pt.ine.add.PTCONT.3698231",
      "street": "R AREAL",
      "house": "27",
      "postcode": "4585-059",
      "city": "BALTAR",
      "lon": "-8.38292460157904",
      "lat": "41.19274006487698"
    },
    {
      "id": "pt.ine.add.PTCONT.3800596",
      "street": "R TANQUE",
      "house": "238",
      "postcode": "4585-059",
      "city": "BALTAR",
      "lon": "-8.382647459701433",
      "lat": "41.1919572896115"
    },
    {
      "id": "pt.ine.add.PTCONT.4018255",
      "street": "R AREAL",
      "house": "13",
      "postcode": "4585-059",
      "city": "BALTAR",
      "lon": "-8.382733705553493",
      "lat": "41.19269545717948"
    },
    {
      "id": "pt.ine.add.PTCONT.4065639",
      "street": "R AREAL",
      "house": "45",
      "postcode": "4585-059",
      "city": "BALTAR",
      "lon": "-8.38306785082901",
      "lat": "41.19279377999906"
    },
    {
      "id": "pt.ine.add.PTCONT.4261880",
      "street": "R FIGUEIRA DA PORTA",
      "house": "647",
      "postcode": "4585-040",
      "city": "BALTAR",
      "lon": "-8.382435117159558",
      "lat": "41.19254303048402"
    },
    {
      "id": "pt.ine.add.PTCONT.4261881",
      "street": "R FIGUEIRA DA PORTA",
      "house": "647",
      "postcode": "4585-040",
      "city": "BALTAR",
      "lon": "-8.382435117159558",
      "lat": "41.19254303048402"
    },
    {
      "id": "pt.ine.add.PTCONT.4293642",
      "street": "R FIGUEIRA DA PORTA",
      "house": "597",
      "postcode": "4585-040",
      "city": "BALTAR",
      "lon": "-8.382040554196953",
      "lat": "41.1922287326788"
    },
    {
      "id": "pt.ine.add.PTCONT.4384403",
      "street": "R AREAL",
      "house": "7",
      "postcode": "4585-059",
      "city": "BALTAR",
      "lon": "-8.382733705553493",
      "lat": "41.19269545717948"
    }
  ]
}