{
  "data": {
    "distrito": "Beja",
    "concelho": "Odemira",
    "freguesia": "Sabóia",
    "OBJECTID": 50,
    "BGRI2021": "02110300202",
    "DT21": "02",
    "DTMN21": "0211",
    "DTMNFR21": "021103",
    "DTMNFRSEC21": "021103002",
    "SECNUM21": "002",
    "SSNUM21": "02",
    "SECSSNUM21": "00202",
    "OBJECTID_1": 17536,
    "DT": "02",
    "CC": "11",
    "fr": "03",
    "SEC": "002",
    "SS": "02"
  },
  "addresses": [
    {
      "id": "pt.ine.add.PTCONT.357877",
      "street": "MTE BARRANCO CHAO DE CIMA",
      "house": "",
      "postcode": "7665-812",
      "city": "SABÓIA",
      "lon": "-8.4801420360809",
      "lat": "37.38906365472308"
    },
    {
      "id": "pt.ine.add.PTCONT.358823",
      "street": "MTE MALHADA FORMOSA",
      "house": "",
      "postcode": "7665-812",
      "city": "SABÓIA",
      "lon": "-8.472999897056527",
      "lat": "37.385354179480935"
    },
    {
      "id": "pt.ine.add.PTCONT.363589",
      "street": "MTE BARRANCO CHAO DE CIMA",
      "house": "",
      "postcode": "7665-812",
      "city": "SABÓIA",
      "lon": "-8.479734949923705",
      "lat": "37.386487934617634"
    },
    {
      "id": "pt.ine.add.PTCONT.365213",
      "street": "MTE ESCORREGA",
      "house": "",
      "postcode": "7665-812",
      "city": "SABÓIA",
      "lon": "-8.485201981876807",
      "lat": "37.3965271466606"
    },
    {
      "id": "pt.ine.add.PTCONT.378065",
      "street": "MTE BARRANCO CHAO DO MEIO",
      "house": "",
      "postcode": "7665-812",
      "city": "SABÓIA",
      "lon": "-8.478454310060314",
      "lat": "37.38793331186136"
    },
    {
      "id": "pt.ine.add.PTCONT.378965",
      "street": "MTE BARRANCO CHAO DE CIMA",
      "house": "",
      "postcode": "7665-812",
      "city": "SABÓIA",
      "lon": "-8.480891987042021",
      "lat": "37.38762883162116"
    },
    {
      "id": "pt.ine.add.PTCONT.382971",
      "street": "MTE CASA NOVA SOALHEIRA",
      "house": "",
      "postcode": "7665-812",
      "city": "SABÓIA",
      "lon": "-8.482477354849404",
      "lat": "37.39589550581853"
    },
    {
      "id": "pt.ine.add.PTCONT.387009",
      "street": "MTE CORGO DO MAGOTO",
      "house": "",
      "postcode": "7665-812",
      "city": "SABÓIA",
      "lon": "-8.484444475950134",
      "lat": "37.398763922687365"
    },
    {
      "id": "pt.ine.add.PTCONT.388605",
      "street": "MTE BARRANCO CHAO DE BAIXO",
      "house": "",
      "postcode": "7665-812",
      "city": "SABÓIA",
      "lon": "-8.473551864574533",
      "lat": "37.390055911290155"
    },
    {
      "id": "pt.ine.add.PTCONT.389396",
      "street": "MTE TAIPAS",
      "house": "",
      "postcode": "7665-812",
      "city": "SABÓIA",
      "lon": "-8.45856102743908",
      "lat": "37.38870153933135"
    },
    {
      "id": "pt.ine.add.PTCONT.391796",
      "street": "MTE MALHADA FORMOSA",
      "house": "",
      "postcode": "7665-812",
      "city": "SABÓIA",
      "lon": "-8.473915285095025",
      "lat": "37.38552273865167"
    },
    {
      "id": "pt.ine.add.PTCONT.395904",
      "street": "MTE COBRADINHA",
      "house": "",
      "postcode": "7665-812",
      "city": "SABÓIA",
      "lon": "-8.47566407435398",
      "lat": "37.39761836336897"
    },
    {
      "id": "pt.ine.add.PTCONT.395905",
      "street": "MTE MALHADA FORMOSA",
      "house": "",
      "postcode": "7665-812",
      "city": "SABÓIA",
      "lon": "-8.474613154235648",
      "lat": "37.3850341749158"
    },
    {
      "id": "pt.ine.add.PTCONT.402315",
      "street": "MTE VALAO VELHO",
      "house": "",
      "postcode": "7665-812",
      "city": "SABÓIA",
      "lon": "-8.459793338998832",
      "lat": "37.38643658265073"
    },
    {
      "id": "pt.ine.add.PTCONT.412921",
      "street": "MTE TERRA NOVA",
      "house": "",
      "postcode": "7665-812",
      "city": "SABÓIA",
      "lon": "-8.471571926465867",
      "lat": "37.391728479340266"
    },
    {
      "id": "pt.ine.add.PTCONT.419320",
      "street": "MTE BARRANCO CHAO DE CIMA",
      "house": "",
      "postcode": "7665-812",
      "city": "SABÓIA",
      "lon": "-8.480011305439614",
      "lat": "37.3876494387718"
    },
    {
      "id": "pt.ine.add.PTCONT.419347",
      "street": "MTE DO CERRO",
      "house": "",
      "postcode": "7665-812",
      "city": "SABÓIA",
      "lon": "-8.477130060408676",
      "lat": "37.39961436573338"
    },
    {
      "id": "pt.ine.add.PTCONT.443743",
      "street": "MTE VALAO VELHO",
      "house": "",
      "postcode": "7665-812",
      "city": "SABÓIA",
      "lon": "-8.460235007057587",
      "lat": "37.38673269816889"
    },
    {
      "id": "pt.ine.add.PTCONT.446099",
      "street": "MTE CORGO DO MAGOTO",
      "house": "",
      "postcode": "7665-812",
      "city": "SABÓIA",
      "lon": "-8.484556527583596",
      "lat": "37.3985743760977"
    },
    {
      "id": "pt.ine.add.PTCONT.451772",
      "street": "MTE TERRA NOVA",
      "house": "",
      "postcode": "7665-812",
      "city": "SABÓIA",
      "lon": "-8.471367603590815",
      "lat": "37.38395326913516"
    }
  ]
}