{
  "data": {
    "distrito": "Beja",
    "concelho": "Odemira",
    "freguesia": "Sabóia",
    "OBJECTID": 698,
    "BGRI2021": "02110300210",
    "DT21": "02",
    "DTMN21": "0211",
    "DTMNFR21": "021103",
    "DTMNFRSEC21": "021103002",
    "SECNUM21": "002",
    "SSNUM21": "10",
    "SECSSNUM21": "00210",
    "OBJECTID_1": 17986,
    "DT": "02",
    "CC": "11",
    "fr": "03",
    "SEC": "002",
    "SS": "10"
  },
  "addresses": [
    {
      "id": "pt.ine.add.PTCONT.457288",
      "street": "MTE PARREIRAS",
      "house": "",
      "postcode": "7665-812",
      "city": "SABÓIA",
      "lon": "-8.472062766197496",
      "lat": "37.402926722693024"
    },
    {
      "id": "pt.ine.add.PTCONT.352996",
      "street": "MTE ALCARIA",
      "house": "",
      "postcode": "7665-812",
      "city": "SABÓIA",
      "lon": "-8.469851109272168",
      "lat": "37.393283143939584"
    },
    {
      "id": "pt.ine.add.PTCONT.353855",
      "street": "MTE CARAPETAL",
      "house": "",
      "postcode": "7665-812",
      "city": "SABÓIA",
      "lon": "-8.465088952534066",
      "lat": "37.396621366516676"
    },
    {
      "id": "pt.ine.add.PTCONT.354656",
      "street": "MTE PARREIRAS",
      "house": "",
      "postcode": "7665-812",
      "city": "SABÓIA",
      "lon": "-8.469946644356975",
      "lat": "37.402013732815156"
    },
    {
      "id": "pt.ine.add.PTCONT.375000",
      "street": "MTE CORTE LOBATO",
      "house": "",
      "postcode": "7665-812",
      "city": "SABÓIA",
      "lon": "-8.46486178934709",
      "lat": "37.40145145817633"
    },
    {
      "id": "pt.ine.add.PTCONT.388607",
      "street": "MTE CERRO DE JANEIRO",
      "house": "",
      "postcode": "7665-812",
      "city": "SABÓIA",
      "lon": "-8.470646942481888",
      "lat": "37.409580273389835"
    },
    {
      "id": "pt.ine.add.PTCONT.388608",
      "street": "MTE SELÃO",
      "house": "",
      "postcode": "7665-812",
      "city": "SABÓIA",
      "lon": "-8.482034604271817",
      "lat": "37.41488122373235"
    },
    {
      "id": "pt.ine.add.PTCONT.393455",
      "street": "MTE TAIPAS DA VÁRZEA",
      "house": "",
      "postcode": "7665-812",
      "city": "SABÓIA",
      "lon": "-8.457876992780255",
      "lat": "37.39504659236718"
    },
    {
      "id": "pt.ine.add.PTCONT.399045",
      "street": "MTE CARAPETAL",
      "house": "",
      "postcode": "7665-812",
      "city": "SABÓIA",
      "lon": "-8.464579487821654",
      "lat": "37.396334470027604"
    },
    {
      "id": "pt.ine.add.PTCONT.403151",
      "street": "MTE ALMARGINHO",
      "house": "",
      "postcode": "7665-812",
      "city": "SABÓIA",
      "lon": "-8.482417660220355",
      "lat": "37.40979836742029"
    },
    {
      "id": "pt.ine.add.PTCONT.408859",
      "street": "MTE CERRO DE JANEIRO",
      "house": "",
      "postcode": "7665-812",
      "city": "SABÓIA",
      "lon": "-8.474174340056218",
      "lat": "37.41029997304951"
    },
    {
      "id": "pt.ine.add.PTCONT.410521",
      "street": "MTE HORTA VELHA",
      "house": "",
      "postcode": "7665-812",
      "city": "SABÓIA",
      "lon": "-8.467502018721868",
      "lat": "37.39578563057263"
    },
    {
      "id": "pt.ine.add.PTCONT.412105",
      "street": "MTE QUEBRADINHA DE BAIXO",
      "house": "",
      "postcode": "7665-812",
      "city": "SABÓIA",
      "lon": "-8.472265781939475",
      "lat": "37.40035824214033"
    },
    {
      "id": "pt.ine.add.PTCONT.413621",
      "street": "MTE TAIPAS VELHAS",
      "house": "",
      "postcode": "7665-812",
      "city": "SABÓIA",
      "lon": "-8.459001825616713",
      "lat": "37.39140338256179"
    },
    {
      "id": "pt.ine.add.PTCONT.416920",
      "street": "MTE PORTELA DE BAIXA",
      "house": "",
      "postcode": "7665-812",
      "city": "SABÓIA",
      "lon": "-8.470646669726055",
      "lat": "37.396929998666714"
    },
    {
      "id": "pt.ine.add.PTCONT.428957",
      "street": "MTE ALCARIA DE CIMA",
      "house": "",
      "postcode": "7665-812",
      "city": "SABÓIA",
      "lon": "-8.470634427361315",
      "lat": "37.3941999492405"
    },
    {
      "id": "pt.ine.add.PTCONT.447802",
      "street": "MTE CARAPETAL",
      "house": "",
      "postcode": "7665-812",
      "city": "SABÓIA",
      "lon": "-8.462705727415786",
      "lat": "37.39654694193158"
    },
    {
      "id": "pt.ine.add.PTCONT.450946",
      "street": "MTE PARREIRAS",
      "house": "",
      "postcode": "7665-812",
      "city": "SABÓIA",
      "lon": "-8.471038401827833",
      "lat": "37.40117267176348"
    },
    {
      "id": "pt.ine.add.PTCONT.455095",
      "street": "MTE CORTE LOBATO",
      "house": "",
      "postcode": "7665-812",
      "city": "SABÓIA",
      "lon": "-8.470218871464835",
      "lat": "37.40227425190102"
    }
  ]
}