{
  "data": {
    "distrito": "Beja",
    "concelho": "Odemira",
    "freguesia": "Sabóia",
    "OBJECTID": 699,
    "BGRI2021": "02110300211",
    "DT21": "02",
    "DTMN21": "0211",
    "DTMNFR21": "021103",
    "DTMNFRSEC21": "021103002",
    "SECNUM21": "002",
    "SSNUM21": "11",
    "SECSSNUM21": "00211",
    "OBJECTID_1": 17686,
    "DT": "02",
    "CC": "11",
    "fr": "03",
    "SEC": "002",
    "SS": "11"
  },
  "addresses": [
    {
      "id": "pt.ine.add.PTCONT.457078",
      "street": "MTE VALE DO PORCO DE CIMA",
      "house": "",
      "postcode": "7665-803",
      "city": "SABÓIA",
      "lon": "-8.563452934663344",
      "lat": "37.42605573873223"
    },
    {
      "id": "pt.ine.add.PTCONT.457129",
      "street": "MTE PORTELINHAS",
      "house": "",
      "postcode": "7665-801",
      "city": "",
      "lon": "-8.555939321790389",
      "lat": "37.41590142045836"
    },
    {
      "id": "pt.ine.add.PTCONT.357876",
      "street": "MTE BARRENHAS",
      "house": "",
      "postcode": "7665-803",
      "city": "SABÓIA",
      "lon": "-8.550818506332675",
      "lat": "37.41118029599502"
    },
    {
      "id": "pt.ine.add.PTCONT.359602",
      "street": "MTE CRAVEIRINHA VALE DO PORCO",
      "house": "",
      "postcode": "7665-803",
      "city": "SABÓIA",
      "lon": "-8.562659000382968",
      "lat": "37.43144666815497"
    },
    {
      "id": "pt.ine.add.PTCONT.361957",
      "street": "MTE CARAPETO",
      "house": "",
      "postcode": "7665-801",
      "city": "",
      "lon": "-8.552497876953446",
      "lat": "37.42065300325687"
    },
    {
      "id": "pt.ine.add.PTCONT.364919",
      "street": "",
      "house": "",
      "postcode": "7665-803",
      "city": "SABÓIA",
      "lon": "-8.548207841351845",
      "lat": "37.41297349721879"
    },
    {
      "id": "pt.ine.add.PTCONT.375826",
      "street": "MTE MOITINHAS ZAGASIL",
      "house": "",
      "postcode": "7665-803",
      "city": "SABÓIA",
      "lon": "-8.540457321629505",
      "lat": "37.40850439710152"
    },
    {
      "id": "pt.ine.add.PTCONT.383806",
      "street": "MTE DA ESTRADA VALE PORCO",
      "house": "",
      "postcode": "7665-803",
      "city": "SABÓIA",
      "lon": "-8.566342552867814",
      "lat": "37.425603688659706"
    },
    {
      "id": "pt.ine.add.PTCONT.384703",
      "street": "MTE CARAPETO",
      "house": "",
      "postcode": "7665-803",
      "city": "SABÓIA",
      "lon": "-8.55408542104323",
      "lat": "37.42373783040088"
    },
    {
      "id": "pt.ine.add.PTCONT.386162",
      "street": "MTE DA AGACHADINHA",
      "house": "",
      "postcode": "7665-805",
      "city": "SABÓIA",
      "lon": "-8.540209664427925",
      "lat": "37.414920466984206"
    },
    {
      "id": "pt.ine.add.PTCONT.386290",
      "street": "MTE DA AGACHADINHA",
      "house": "",
      "postcode": "7665-805",
      "city": "SABÓIA",
      "lon": "-8.540209664427925",
      "lat": "37.414920466984206"
    },
    {
      "id": "pt.ine.add.PTCONT.389395",
      "street": "MTE MOITINHAS ZAGASIL",
      "house": "",
      "postcode": "7665-803",
      "city": "SABÓIA",
      "lon": "-8.541551215621606",
      "lat": "37.408185268260425"
    },
    {
      "id": "pt.ine.add.PTCONT.397422",
      "street": "MTE VALE DO PORCO",
      "house": "",
      "postcode": "7665-803",
      "city": "SABÓIA",
      "lon": "-8.56427193567184",
      "lat": "37.427025845829036"
    },
    {
      "id": "pt.ine.add.PTCONT.401515",
      "street": "MTE CASA RIBEIRA CARAPETO",
      "house": "",
      "postcode": "7665-801",
      "city": "",
      "lon": "-8.550422877877313",
      "lat": "37.41927278776268"
    },
    {
      "id": "pt.ine.add.PTCONT.401516",
      "street": "MTE BARRENHAS DE CIMA",
      "house": "",
      "postcode": "7665-803",
      "city": "SABÓIA",
      "lon": "-8.54850008322928",
      "lat": "37.41271117695521"
    },
    {
      "id": "pt.ine.add.PTCONT.407234",
      "street": "MTE CASA RIBEIRA CARAPETO",
      "house": "",
      "postcode": "7665-801",
      "city": "",
      "lon": "-8.549500904027365",
      "lat": "37.42005991928079"
    },
    {
      "id": "pt.ine.add.PTCONT.407959",
      "street": "MTE AMEIJOAFRA",
      "house": "",
      "postcode": "7665-803",
      "city": "SABÓIA",
      "lon": "-8.559521697902701",
      "lat": "37.43010651204797"
    },
    {
      "id": "pt.ine.add.PTCONT.409741",
      "street": "MTE PORTELINHAS DE BAIXO",
      "house": "",
      "postcode": "7665-801",
      "city": "",
      "lon": "-8.55598288476987",
      "lat": "37.41561294063977"
    },
    {
      "id": "pt.ine.add.PTCONT.410513",
      "street": "MTE CORGO DA UMBRIA",
      "house": "",
      "postcode": "7665-803",
      "city": "SABÓIA",
      "lon": "-8.56391918760311",
      "lat": "37.428558849673664"
    },
    {
      "id": "pt.ine.add.PTCONT.410514",
      "street": "MTE CARAPETO",
      "house": "",
      "postcode": "7665-801",
      "city": "",
      "lon": "-8.552007848024013",
      "lat": "37.42191615718473"
    },
    {
      "id": "pt.ine.add.PTCONT.412099",
      "street": "MTE CARAPETO",
      "house": "",
      "postcode": "7665-801",
      "city": "",
      "lon": "-8.555556998843382",
      "lat": "37.4222459118974"
    },
    {
      "id": "pt.ine.add.PTCONT.412920",
      "street": "MTE VALE PEREIRINHO",
      "house": "",
      "postcode": "7665-801",
      "city": "",
      "lon": "-8.561580700827852",
      "lat": "37.41273657531502"
    },
    {
      "id": "pt.ine.add.PTCONT.414563",
      "street": "MTE BARRENHAS",
      "house": "",
      "postcode": "7665-801",
      "city": "",
      "lon": "-8.5511062152126",
      "lat": "37.4141706427495"
    },
    {
      "id": "pt.ine.add.PTCONT.420134",
      "street": "MTE ZAGAZIL",
      "house": "",
      "postcode": "7665-803",
      "city": "SABÓIA",
      "lon": "-8.541049991528597",
      "lat": "37.4074031163915"
    },
    {
      "id": "pt.ine.add.PTCONT.424921",
      "street": "MTE VALE DO PORCO",
      "house": "",
      "postcode": "7665-803",
      "city": "SABÓIA",
      "lon": "-8.564298284420476",
      "lat": "37.42571027417705"
    },
    {
      "id": "pt.ine.add.PTCONT.437258",
      "street": "MTE CARAPETO DE BAIXO",
      "house": "",
      "postcode": "7665-803",
      "city": "SABÓIA",
      "lon": "-8.555342847951374",
      "lat": "37.42434603351788"
    },
    {
      "id": "pt.ine.add.PTCONT.442101",
      "street": "MTE BARRENHAS",
      "house": "",
      "postcode": "7665-801",
      "city": "",
      "lon": "-8.550297920877759",
      "lat": "37.41303822140201"
    },
    {
      "id": "pt.ine.add.PTCONT.449465",
      "street": "",
      "house": "",
      "postcode": "7665-803",
      "city": "SABÓIA",
      "lon": "-8.54049664650576",
      "lat": "37.41159473911375"
    },
    {
      "id": "pt.ine.add.PTCONT.454228",
      "street": "MTE PORTELINHAS CARAPETO",
      "house": "",
      "postcode": "7665-801",
      "city": "",
      "lon": "-8.556478080951091",
      "lat": "37.41528680381189"
    },
    {
      "id": "pt.ine.add.PTCONT.455887",
      "street": "MTE CORGO DA UMBRIA",
      "house": "",
      "postcode": "7665-803",
      "city": "SABÓIA",
      "lon": "-8.563830095019126",
      "lat": "37.42878442691453"
    },
    {
      "id": "pt.ine.add.PTCONT.455891",
      "street": "MTE MOITINHAS BARRENHAS",
      "house": "",
      "postcode": "7665-803",
      "city": "SABÓIA",
      "lon": "-8.54805503482706",
      "lat": "37.41189281771762"
    }
  ]
}