{
  "data": {
    "distrito": "Beja",
    "concelho": "Odemira",
    "freguesia": "Sabóia",
    "OBJECTID": 983,
    "BGRI2021": "02110300215",
    "DT21": "02",
    "DTMN21": "0211",
    "DTMNFR21": "021103",
    "DTMNFRSEC21": "021103002",
    "SECNUM21": "002",
    "SSNUM21": "15",
    "SECSSNUM21": "00215",
    "OBJECTID_1": 17200,
    "DT": "02",
    "CC": "11",
    "fr": "03",
    "SEC": "002",
    "SS": "15"
  },
  "addresses": [
    {
      "id": "pt.ine.add.PTCONT.457194",
      "street": "MTE PONTAL DO MEIO",
      "house": "",
      "postcode": "7665-803",
      "city": "SABÓIA",
      "lon": "-8.568629774165837",
      "lat": "37.42453209149038"
    },
    {
      "id": "pt.ine.add.PTCONT.366857",
      "street": "MTE JOÃO MARTINS DE CIMA",
      "house": "",
      "postcode": "7665-803",
      "city": "SABÓIA",
      "lon": "-8.57689625131595",
      "lat": "37.43162833612944"
    },
    {
      "id": "pt.ine.add.PTCONT.387836",
      "street": "MTE VALE PORCO DO MEIO",
      "house": "",
      "postcode": "7665-803",
      "city": "SABÓIA",
      "lon": "-8.56532556997882",
      "lat": "37.427535574060364"
    },
    {
      "id": "pt.ine.add.PTCONT.388601",
      "street": "MTE JOÃO MARTINS DE CIMA",
      "house": "",
      "postcode": "7665-803",
      "city": "SABÓIA",
      "lon": "-8.575397808223022",
      "lat": "37.434273909588406"
    },
    {
      "id": "pt.ine.add.PTCONT.391046",
      "street": "MTE SERNADINHA",
      "house": "",
      "postcode": "7665-812",
      "city": "SABÓIA",
      "lon": "-8.587561114243853",
      "lat": "37.44454431190287"
    },
    {
      "id": "pt.ine.add.PTCONT.394179",
      "street": "MTE JOÃO MARTINS DE CIMA",
      "house": "",
      "postcode": "7665-803",
      "city": "SABÓIA",
      "lon": "-8.57525097775319",
      "lat": "37.434283468997485"
    },
    {
      "id": "pt.ine.add.PTCONT.403150",
      "street": "MTE JOÃO MARTINS",
      "house": "",
      "postcode": "7665-803",
      "city": "SABÓIA",
      "lon": "-8.574884103744289",
      "lat": "37.435302980945444"
    },
    {
      "id": "pt.ine.add.PTCONT.408858",
      "street": "MTE JOÃO MARTINS DE CIMA",
      "house": "",
      "postcode": "7665-803",
      "city": "SABÓIA",
      "lon": "-8.57464079337474",
      "lat": "37.434276739757436"
    },
    {
      "id": "pt.ine.add.PTCONT.414544",
      "street": "MTE PONTAL DO MEIO",
      "house": "",
      "postcode": "7665-803",
      "city": "SABÓIA",
      "lon": "-8.56865633526639",
      "lat": "37.42521676179097"
    },
    {
      "id": "pt.ine.add.PTCONT.419355",
      "street": "MTE JOÃO MARTINS DE CIMA",
      "house": "",
      "postcode": "7665-803",
      "city": "SABÓIA",
      "lon": "-8.577469004108986",
      "lat": "37.431040528252566"
    },
    {
      "id": "pt.ine.add.PTCONT.425697",
      "street": "MTE VALE PORQUINHO DO BAIXO",
      "house": "",
      "postcode": "7665-803",
      "city": "SABÓIA",
      "lon": "-8.562723834007247",
      "lat": "37.43290606843426"
    },
    {
      "id": "pt.ine.add.PTCONT.426472",
      "street": "MTE ABELHEIRA",
      "house": "",
      "postcode": "7665-803",
      "city": "SABÓIA",
      "lon": "-8.584639568144949",
      "lat": "37.441663275410015"
    },
    {
      "id": "pt.ine.add.PTCONT.431367",
      "street": "MTE CASA GRANDE VALE PORCO",
      "house": "",
      "postcode": "7665-803",
      "city": "SABÓIA",
      "lon": "-8.565963263920716",
      "lat": "37.4264430180035"
    },
    {
      "id": "pt.ine.add.PTCONT.433853",
      "street": "MTE JOÃO MARTINS DE CIMA",
      "house": "",
      "postcode": "7665-803",
      "city": "SABÓIA",
      "lon": "-8.572263742987815",
      "lat": "37.433546767479186"
    },
    {
      "id": "pt.ine.add.PTCONT.454227",
      "street": "MTE VALE DO PORCO",
      "house": "",
      "postcode": "7665-803",
      "city": "SABÓIA",
      "lon": "-8.567183738464632",
      "lat": "37.43236718911013"
    },
    {
      "id": "pt.ine.add.PTCONT.455886",
      "street": "MTE JOÃO MARTINS DE CIMA",
      "house": "",
      "postcode": "7665-803",
      "city": "SABÓIA",
      "lon": "-8.580086664953429",
      "lat": "37.43233712248769"
    }
  ]
}