{
  "data": {
    "distrito": "Santarém",
    "concelho": "Ferreira do Zêzere",
    "freguesia": "Ferreira do Zêzere",
    "OBJECTID": 228,
    "BGRI2021": "14110600204",
    "DT21": "14",
    "DTMN21": "1411",
    "DTMNFR21": "141106",
    "DTMNFRSEC21": "141106002",
    "SECNUM21": "002",
    "SSNUM21": "04",
    "SECSSNUM21": "00204",
    "OBJECTID_1": 151625,
    "DT": "14",
    "CC": "11",
    "fr": "06",
    "SEC": "002",
    "SS": "04"
  },
  "addresses": [
    {
      "id": "pt.ine.add.PTCONT.4407194",
      "street": "R OCTAVIO NUNES GODINHO",
      "house": "4",
      "postcode": "2240-391",
      "city": "FERREIRA DO ZÊZERE",
      "lon": "-8.295600706928939",
      "lat": "39.69197640422415"
    },
    {
      "id": "pt.ine.add.PTCONT.4407195",
      "street": "R OCTAVIO NUNES GODINHO",
      "house": "4",
      "postcode": "2240-391",
      "city": "FERREIRA DO ZÊZERE",
      "lon": "-8.295600706928939",
      "lat": "39.69197640422415"
    },
    {
      "id": "pt.ine.add.PTCONT.4407196",
      "street": "R OCTAVIO NUNES GODINHO",
      "house": "4",
      "postcode": "2240-391",
      "city": "FERREIRA DO ZÊZERE",
      "lon": "-8.295600706928939",
      "lat": "39.69197640422415"
    },
    {
      "id": "pt.ine.add.PTCONT.4407197",
      "street": "R OCTAVIO NUNES GODINHO",
      "house": "4",
      "postcode": "2240-391",
      "city": "FERREIRA DO ZÊZERE",
      "lon": "-8.295600706928939",
      "lat": "39.69197640422415"
    },
    {
      "id": "pt.ine.add.PTCONT.4407198",
      "street": "R OCTAVIO NUNES GODINHO",
      "house": "4",
      "postcode": "2240-391",
      "city": "FERREIRA DO ZÊZERE",
      "lon": "-8.295600706928939",
      "lat": "39.69197640422415"
    },
    {
      "id": "pt.ine.add.PTCONT.4407199",
      "street": "R OCTAVIO NUNES GODINHO",
      "house": "4",
      "postcode": "2240-391",
      "city": "FERREIRA DO ZÊZERE",
      "lon": "-8.295600706928939",
      "lat": "39.69197640422415"
    },
    {
      "id": "pt.ine.add.PTCONT.4407200",
      "street": "R OCTAVIO NUNES GODINHO",
      "house": "14",
      "postcode": "2240-391",
      "city": "FERREIRA DO ZÊZERE",
      "lon": "-8.295600706928939",
      "lat": "39.69197640422415"
    },
    {
      "id": "pt.ine.add.PTCONT.4407201",
      "street": "R OCTAVIO NUNES GODINHO",
      "house": "4",
      "postcode": "2240-391",
      "city": "FERREIRA DO ZÊZERE",
      "lon": "-8.295600706928939",
      "lat": "39.69197640422415"
    },
    {
      "id": "pt.ine.add.PTCONT.4409601",
      "street": "R DR AUGUSTO PEREIRA ALMEIDA",
      "house": "",
      "postcode": "2240-391",
      "city": "FERREIRA DO ZÊZERE",
      "lon": "-8.296671771900112",
      "lat": "39.691344433470356"
    },
    {
      "id": "pt.ine.add.PTCONT.4475055",
      "street": "R FONTE DA PRATA",
      "house": "",
      "postcode": "2240-364",
      "city": "FERREIRA DO ZÊZERE",
      "lon": "-8.295831523410127",
      "lat": "39.69097634034111"
    },
    {
      "id": "pt.ine.add.PTCONT.4500298",
      "street": "R BRIG LINO E VALENTE",
      "house": "",
      "postcode": "2240-348",
      "city": "FERREIRA DO ZÊZERE",
      "lon": "-8.295522497740935",
      "lat": "39.69342658763957"
    },
    {
      "id": "pt.ine.add.PTCONT.4511501",
      "street": "R BRIG LINO E VALENTE",
      "house": "",
      "postcode": "2240-348",
      "city": "FERREIRA DO ZÊZERE",
      "lon": "-8.293540043729388",
      "lat": "39.69320417672077"
    },
    {
      "id": "pt.ine.add.PTCONT.4513052",
      "street": "R BRIG LINO E VALENTE",
      "house": "",
      "postcode": "2240-348",
      "city": "FERREIRA DO ZÊZERE",
      "lon": "-8.293540043729388",
      "lat": "39.69320417672077"
    },
    {
      "id": "pt.ine.add.PTCONT.4514308",
      "street": "R FONTE PRATA",
      "house": "60",
      "postcode": "2240-364",
      "city": "FERREIRA DO ZÊZERE",
      "lon": "-8.296122846682984",
      "lat": "39.690921891707255"
    },
    {
      "id": "pt.ine.add.PTCONT.4514309",
      "street": "R DR AUGUSTO PEREIRA ALMEIDA",
      "house": "",
      "postcode": "2240-391",
      "city": "FERREIRA DO ZÊZERE",
      "lon": "-8.29660067619062",
      "lat": "39.69085817323465"
    },
    {
      "id": "pt.ine.add.PTCONT.4516040",
      "street": "R BRIG LINO E VALENTE",
      "house": "",
      "postcode": "2240-348",
      "city": "FERREIRA DO ZÊZERE",
      "lon": "-8.296058933624069",
      "lat": "39.69348888280302"
    },
    {
      "id": "pt.ine.add.PTCONT.4537271",
      "street": "R OCTAVIO NUNES GODINHO",
      "house": "2",
      "postcode": "2240-391",
      "city": "FERREIRA DO ZÊZERE",
      "lon": "-8.295891949970656",
      "lat": "39.691885929600254"
    },
    {
      "id": "pt.ine.add.PTCONT.4537272",
      "street": "R OCTAVIO NUNES GODINHO",
      "house": "2",
      "postcode": "2240-391",
      "city": "FERREIRA DO ZÊZERE",
      "lon": "-8.295891949970656",
      "lat": "39.691885929600254"
    },
    {
      "id": "pt.ine.add.PTCONT.4537273",
      "street": "R OCTAVIO NUNES GODINHO",
      "house": "2",
      "postcode": "2240-391",
      "city": "FERREIRA DO ZÊZERE",
      "lon": "-8.295891949970656",
      "lat": "39.691885929600254"
    },
    {
      "id": "pt.ine.add.PTCONT.4537274",
      "street": "R OCTAVIO NUNES GODINHO",
      "house": "2",
      "postcode": "2240-391",
      "city": "FERREIRA DO ZÊZERE",
      "lon": "-8.295891949970656",
      "lat": "39.691885929600254"
    },
    {
      "id": "pt.ine.add.PTCONT.4537275",
      "street": "R OCTAVIO NUNES GODINHO",
      "house": "2",
      "postcode": "2240-391",
      "city": "FERREIRA DO ZÊZERE",
      "lon": "-8.295891949970656",
      "lat": "39.691885929600254"
    },
    {
      "id": "pt.ine.add.PTCONT.4537276",
      "street": "R OCTAVIO NUNES GODINHO",
      "house": "2",
      "postcode": "2240-391",
      "city": "FERREIRA DO ZÊZERE",
      "lon": "-8.295891949970656",
      "lat": "39.691885929600254"
    },
    {
      "id": "pt.ine.add.PTCONT.4537286",
      "street": "R OCTAVIO NUNES GODINHO",
      "house": "2",
      "postcode": "2240-391",
      "city": "FERREIRA DO ZÊZERE",
      "lon": "-8.295891949970656",
      "lat": "39.691885929600254"
    },
    {
      "id": "pt.ine.add.PTCONT.4537806",
      "street": "R OCTAVIO NUNES GODINHO",
      "house": "2",
      "postcode": "2240-391",
      "city": "FERREIRA DO ZÊZERE",
      "lon": "-8.295891949970656",
      "lat": "39.691885929600254"
    },
    {
      "id": "pt.ine.add.PTCONT.4611890",
      "street": "R FONTE DA PRATA",
      "house": "48",
      "postcode": "2240-364",
      "city": "FERREIRA DO ZÊZERE",
      "lon": "-8.295131916168152",
      "lat": "39.6909232785425"
    },
    {
      "id": "pt.ine.add.PTCONT.4655483",
      "street": "R BRIG LINO E VALENTE",
      "house": "51",
      "postcode": "2240-348",
      "city": "FERREIRA DO ZÊZERE",
      "lon": "-8.295242569059324",
      "lat": "39.69337293880515"
    },
    {
      "id": "pt.ine.add.PTCONT.4657792",
      "street": "R OCTAVIO NUNES GODINHO",
      "house": "2",
      "postcode": "2240-391",
      "city": "FERREIRA DO ZÊZERE",
      "lon": "-8.295891949970656",
      "lat": "39.691885929600254"
    },
    {
      "id": "pt.ine.add.PTCONT.4661273",
      "street": "R BRIG LINO E VALENTE",
      "house": "49",
      "postcode": "2240-348",
      "city": "FERREIRA DO ZÊZERE",
      "lon": "-8.29497436232544",
      "lat": "39.69334629296588"
    }
  ]
}