{
  "data": {
    "distrito": "Lisboa",
    "concelho": "Torres Vedras",
    "freguesia": "Silveira",
    "OBJECTID": 991,
    "BGRI2021": "11131600502",
    "DT21": "11",
    "DTMN21": "1113",
    "DTMNFR21": "111316",
    "DTMNFRSEC21": "111316005",
    "SECNUM21": "005",
    "SSNUM21": "02",
    "SECSSNUM21": "00502",
    "OBJECTID_1": 115442,
    "DT": "11",
    "CC": "13",
    "fr": "16",
    "SEC": "005",
    "SS": "02"
  },
  "addresses": [
    {
      "id": "pt.ine.add.PTCONT.2271811",
      "street": "R PRINCIPAL",
      "house": "6 A",
      "postcode": "2560-407",
      "city": "SILVEIRA",
      "lon": "-9.337833110056286",
      "lat": "39.10645453879705"
    },
    {
      "id": "pt.ine.add.PTCONT.2271812",
      "street": "TV MATIAS",
      "house": "4",
      "postcode": "2560-407",
      "city": "SILVEIRA",
      "lon": "-9.337567506677203",
      "lat": "39.10715083601426"
    },
    {
      "id": "pt.ine.add.PTCONT.2338661",
      "street": "TV MORGADOS",
      "house": "6 A",
      "postcode": "2560-407",
      "city": "SILVEIRA",
      "lon": "-9.337340687669105",
      "lat": "39.106729842148496"
    },
    {
      "id": "pt.ine.add.PTCONT.2502754",
      "street": "TV MATIAS",
      "house": "2",
      "postcode": "2560-407",
      "city": "SILVEIRA",
      "lon": "-9.337505727717923",
      "lat": "39.10691728776455"
    },
    {
      "id": "pt.ine.add.PTCONT.2564034",
      "street": "TV MORGADOS",
      "house": "7",
      "postcode": "2560-407",
      "city": "SILVEIRA",
      "lon": "-9.337572167308565",
      "lat": "39.10674546494442"
    },
    {
      "id": "pt.ine.add.PTCONT.2695234",
      "street": "TV LUZIOS",
      "house": "2",
      "postcode": "2560-407",
      "city": "SILVEIRA",
      "lon": "-9.337183222927981",
      "lat": "39.10630813144207"
    },
    {
      "id": "pt.ine.add.PTCONT.2774128",
      "street": "TV MORGADOS",
      "house": "1",
      "postcode": "2560-407",
      "city": "SILVEIRA",
      "lon": "-9.337599638543372",
      "lat": "39.10632184379889"
    },
    {
      "id": "pt.ine.add.PTCONT.2784209",
      "street": "TV MORGADOS",
      "house": "",
      "postcode": "2560-407",
      "city": "SILVEIRA",
      "lon": "-9.337324071527625",
      "lat": "39.10643277697562"
    },
    {
      "id": "pt.ine.add.PTCONT.2789170",
      "street": "R PRINCIPAL",
      "house": "10",
      "postcode": "2560-407",
      "city": "SILVEIRA",
      "lon": "-9.337722736438705",
      "lat": "39.106761923428614"
    },
    {
      "id": "pt.ine.add.PTCONT.2822664",
      "street": "TV MORGADOS",
      "house": "",
      "postcode": "2560-407",
      "city": "SILVEIRA",
      "lon": "-9.337384010247819",
      "lat": "39.10655825823947"
    },
    {
      "id": "pt.ine.add.PTCONT.2828784",
      "street": "R FONTE",
      "house": "3",
      "postcode": "2560-407",
      "city": "SILVEIRA",
      "lon": "-9.337274094274335",
      "lat": "39.106892659252686"
    },
    {
      "id": "pt.ine.add.PTCONT.2954081",
      "street": "R PRINCIPAL",
      "house": "14",
      "postcode": "2560-407",
      "city": "SILVEIRA",
      "lon": "-9.337995792708686",
      "lat": "39.10718243862418"
    },
    {
      "id": "pt.ine.add.PTCONT.3041084",
      "street": "TV DUS LUZIOS",
      "house": "4",
      "postcode": "2560-407",
      "city": "SILVEIRA",
      "lon": "-9.337379412347227",
      "lat": "39.106288090437346"
    },
    {
      "id": "pt.ine.add.PTCONT.3065278",
      "street": "TV LUZIOS",
      "house": "10",
      "postcode": "2560-407",
      "city": "SILVEIRA",
      "lon": "-9.337796594442253",
      "lat": "39.106346830055465"
    },
    {
      "id": "pt.ine.add.PTCONT.3404491",
      "street": "R SANTO ANTÃ“NIO",
      "house": "8",
      "postcode": "2560-407",
      "city": "SILVEIRA",
      "lon": "-9.33795323798263",
      "lat": "39.107399050675475"
    },
    {
      "id": "pt.ine.add.PTCONT.3409029",
      "street": "TV MORGADOS",
      "house": "9",
      "postcode": "2560-407",
      "city": "SILVEIRA",
      "lon": "-9.337460872469123",
      "lat": "39.10699881578548"
    },
    {
      "id": "pt.ine.add.PTCONT.3444339",
      "street": "TV DOS MATIAS",
      "house": "6",
      "postcode": "2560-407",
      "city": "SILVEIRA",
      "lon": "-9.337500760153198",
      "lat": "39.1073046476429"
    },
    {
      "id": "pt.ine.add.PTCONT.3444489",
      "street": "R PRINCIPAL",
      "house": "8",
      "postcode": "2560-407",
      "city": "SILVEIRA",
      "lon": "-9.337777616733971",
      "lat": "39.10659021994237"
    }
  ]
}