{
  "data": {
    "distrito": "Viseu",
    "concelho": "Resende",
    "freguesia": "União das freguesias de Anreade e São Romão de Aregos",
    "OBJECTID": 398,
    "BGRI2021": "18131600207",
    "DT21": "18",
    "DTMN21": "1813",
    "DTMNFR21": "181316",
    "DTMNFRSEC21": "181316002",
    "SECNUM21": "002",
    "SSNUM21": "07",
    "SECSSNUM21": "00207",
    "OBJECTID_1": 195416,
    "DT": "18",
    "CC": "13",
    "fr": "16",
    "SEC": "002",
    "SS": "07"
  },
  "addresses": [
    {
      "id": "pt.ine.add.PTCONT.5437326",
      "street": "QTA LAVRA",
      "house": "",
      "postcode": "4660-018",
      "city": "ANREADE",
      "lon": "-7.988360523784854",
      "lat": "41.10520819871296"
    },
    {
      "id": "pt.ine.add.PTCONT.5443257",
      "street": "QTA DOS AMENDOS",
      "house": "",
      "postcode": "4660-011",
      "city": "ANREADE",
      "lon": "-7.990255024787282",
      "lat": "41.10443617897691"
    },
    {
      "id": "pt.ine.add.PTCONT.5464589",
      "street": "R ANREADE",
      "house": "",
      "postcode": "4660-015",
      "city": "ANREADE",
      "lon": "-7.989504694081305",
      "lat": "41.10459732666122"
    },
    {
      "id": "pt.ine.add.PTCONT.5557441",
      "street": "R MERCE",
      "house": "",
      "postcode": "4660-018",
      "city": "ANREADE",
      "lon": "-7.989229221508945",
      "lat": "41.10536236271902"
    },
    {
      "id": "pt.ine.add.PTCONT.5646963",
      "street": "QTA LAVRA",
      "house": "",
      "postcode": "4660-018",
      "city": "ANREADE",
      "lon": "-7.986790363053293",
      "lat": "41.10464793844955"
    },
    {
      "id": "pt.ine.add.PTCONT.5656843",
      "street": "R ANREADE",
      "house": "",
      "postcode": "4660-015",
      "city": "ANREADE",
      "lon": "-7.989766454608676",
      "lat": "41.10466068388853"
    }
  ]
}