{
  "data": {
    "distrito": "Guarda",
    "concelho": "Trancoso",
    "freguesia": "Tamanhos",
    "OBJECTID": 483,
    "BGRI2021": "09132100106",
    "DT21": "09",
    "DTMN21": "0913",
    "DTMNFR21": "091321",
    "DTMNFRSEC21": "091321001",
    "SECNUM21": "001",
    "SSNUM21": "06",
    "SECSSNUM21": "00106",
    "OBJECTID_1": 82951,
    "DT": "09",
    "CC": "13",
    "fr": "21",
    "SEC": "001",
    "SS": "06"
  },
  "addresses": [
    {
      "id": "pt.ine.add.PTCONT.1901928",
      "street": "R DA ESCOLA",
      "house": "",
      "postcode": "6420-623",
      "city": "TAMANHOS",
      "lon": "-7.315569909020124",
      "lat": "40.76192526018255"
    },
    {
      "id": "pt.ine.add.PTCONT.1922504",
      "street": "R PRINCIPAL",
      "house": "",
      "postcode": "6420-623",
      "city": "TAMANHOS",
      "lon": "-7.314962659089983",
      "lat": "40.762191102836695"
    },
    {
      "id": "pt.ine.add.PTCONT.1924480",
      "street": "R PRINCIPAL",
      "house": "",
      "postcode": "6420-623",
      "city": "TAMANHOS",
      "lon": "-7.315022972939472",
      "lat": "40.76210148170349"
    },
    {
      "id": "pt.ine.add.PTCONT.1949638",
      "street": "R DO MEIO",
      "house": "33",
      "postcode": "6420-623",
      "city": "TAMANHOS",
      "lon": "-7.315573549897626",
      "lat": "40.76162812520292"
    },
    {
      "id": "pt.ine.add.PTCONT.1959443",
      "street": "R DE VOLTA ATRAZ",
      "house": "",
      "postcode": "6420-623",
      "city": "TAMANHOS",
      "lon": "-7.315367823984613",
      "lat": "40.7619868624937"
    },
    {
      "id": "pt.ine.add.PTCONT.1963642",
      "street": "R PRINCIPAL",
      "house": "",
      "postcode": "6420-623",
      "city": "TAMANHOS",
      "lon": "-7.31532509154609",
      "lat": "40.76160835507083"
    },
    {
      "id": "pt.ine.add.PTCONT.1870234",
      "street": "R DO MEIO",
      "house": "",
      "postcode": "6420-623",
      "city": "TAMANHOS",
      "lon": "-7.31578637250862",
      "lat": "40.761656647294096"
    },
    {
      "id": "pt.ine.add.PTCONT.1874732",
      "street": "R PRINCIPAL",
      "house": "50",
      "postcode": "6420-623",
      "city": "TAMANHOS",
      "lon": "-7.315216859179635",
      "lat": "40.7617426611298"
    },
    {
      "id": "pt.ine.add.PTCONT.1896289",
      "street": "R DE VOLTA ATRAZ",
      "house": "",
      "postcode": "6420-623",
      "city": "TAMANHOS",
      "lon": "-7.315476828852371",
      "lat": "40.76178952766962"
    },
    {
      "id": "pt.ine.add.PTCONT.1897965",
      "street": "R PRINCIPAL",
      "house": "",
      "postcode": "6420-623",
      "city": "TAMANHOS",
      "lon": "-7.315095349343016",
      "lat": "40.76199393629818"
    }
  ]
}