{
  "data": {
    "distrito": "Viana do Castelo",
    "concelho": "Arcos de Valdevez",
    "freguesia": "Couto",
    "OBJECTID": 296,
    "BGRI2021": "16010900121",
    "DT21": "16",
    "DTMN21": "1601",
    "DTMNFR21": "160109",
    "DTMNFRSEC21": "160109001",
    "SECNUM21": "001",
    "SSNUM21": "21",
    "SECSSNUM21": "00121",
    "OBJECTID_1": 172063,
    "DT": "16",
    "CC": "01",
    "fr": "09",
    "SEC": "001",
    "SS": "21"
  },
  "addresses": [
    {
      "id": "pt.ine.add.PTCONT.5137463",
      "street": "ESTR ALDEIA",
      "house": "",
      "postcode": "4970-130",
      "city": "COUTO AVV",
      "lon": "-8.404532489923765",
      "lat": "41.8740436950722"
    },
    {
      "id": "pt.ine.add.PTCONT.5189229",
      "street": "ESTR SELIM",
      "house": "118",
      "postcode": "4970-130",
      "city": "COUTO AVV",
      "lon": "-8.393743091856434",
      "lat": "41.88094716849199"
    },
    {
      "id": "pt.ine.add.PTCONT.5201967",
      "street": "ESTR ALDEIA",
      "house": "",
      "postcode": "4970-130",
      "city": "COUTO AVV",
      "lon": "-8.404142794876199",
      "lat": "41.87304525432744"
    },
    {
      "id": "pt.ine.add.PTCONT.5205592",
      "street": "ESTR POCA MACHO",
      "house": "1",
      "postcode": "4970-130",
      "city": "COUTO AVV",
      "lon": "-8.40291097596809",
      "lat": "41.8723008846409"
    },
    {
      "id": "pt.ine.add.PTCONT.5205593",
      "street": "ESTR POCA DO MACHO",
      "house": "525",
      "postcode": "4970-130",
      "city": "COUTO AVV",
      "lon": "-8.40291097596809",
      "lat": "41.8723008846409"
    },
    {
      "id": "pt.ine.add.PTCONT.5213669",
      "street": "ESTR SELIM",
      "house": "236",
      "postcode": "4970-130",
      "city": "COUTO AVV",
      "lon": "-8.403501957403122",
      "lat": "41.8753335908723"
    },
    {
      "id": "pt.ine.add.PTCONT.5279638",
      "street": "ESTR POCA MACHO",
      "house": "4",
      "postcode": "4970-130",
      "city": "COUTO AVV",
      "lon": "-8.402777905550106",
      "lat": "41.872166148349336"
    },
    {
      "id": "pt.ine.add.PTCONT.5279639",
      "street": "ESTR POCA DO MACHO",
      "house": "",
      "postcode": "4970-130",
      "city": "COUTO AVV",
      "lon": "-8.402777905550106",
      "lat": "41.872166148349336"
    }
  ]
}