{
  "data": {
    "distrito": "Viseu",
    "concelho": "Castro Daire",
    "freguesia": "Moledo",
    "OBJECTID": 350,
    "BGRI2021": "18031300106",
    "DT21": "18",
    "DTMN21": "1803",
    "DTMNFR21": "180313",
    "DTMNFRSEC21": "180313001",
    "SECNUM21": "001",
    "SSNUM21": "06",
    "SECSSNUM21": "00106",
    "OBJECTID_1": 189249,
    "DT": "18",
    "CC": "03",
    "fr": "13",
    "SEC": "001",
    "SS": "06"
  },
  "addresses": [
    {
      "id": "pt.ine.add.PTCONT.5439891",
      "street": "R 16 DE MARÇO",
      "house": "8",
      "postcode": "3600-455",
      "city": "MOLEDO CDR",
      "lon": "-7.929555894858906",
      "lat": "40.81392561383766"
    },
    {
      "id": "pt.ine.add.PTCONT.5445459",
      "street": "R 16 MARCO",
      "house": "6 A",
      "postcode": "3600-455",
      "city": "MOLEDO CDR",
      "lon": "-7.93009073013597",
      "lat": "40.81344029050372"
    },
    {
      "id": "pt.ine.add.PTCONT.5462112",
      "street": "R EIRA",
      "house": "7",
      "postcode": "3600-455",
      "city": "MOLEDO CDR",
      "lon": "-7.928111550955931",
      "lat": "40.813391766461486"
    },
    {
      "id": "pt.ine.add.PTCONT.5494316",
      "street": "R EIRA",
      "house": "",
      "postcode": "3600-455",
      "city": "MOLEDO CDR",
      "lon": "-7.928600145284812",
      "lat": "40.81252816115813"
    },
    {
      "id": "pt.ine.add.PTCONT.5529472",
      "street": "R SENHORA DA GRAÇA",
      "house": "10",
      "postcode": "3600-455",
      "city": "MOLEDO CDR",
      "lon": "-7.9294903146359115",
      "lat": "40.81211550912953"
    },
    {
      "id": "pt.ine.add.PTCONT.5553615",
      "street": "R SRA GRACA",
      "house": "51",
      "postcode": "3600-455",
      "city": "MOLEDO CDR",
      "lon": "-7.9304723293865145",
      "lat": "40.81267554308357"
    },
    {
      "id": "pt.ine.add.PTCONT.5578457",
      "street": "R CRUZEIRO",
      "house": "30",
      "postcode": "3600-455",
      "city": "MOLEDO CDR",
      "lon": "-7.928168761473367",
      "lat": "40.81405823211094"
    },
    {
      "id": "pt.ine.add.PTCONT.5582148",
      "street": "R SENHORA DA GRAÇA",
      "house": "14",
      "postcode": "3600-455",
      "city": "MOLEDO CDR",
      "lon": "-7.9283156686454985",
      "lat": "40.81253666150414"
    },
    {
      "id": "pt.ine.add.PTCONT.5609059",
      "street": "R EIRA",
      "house": "51",
      "postcode": "3600-455",
      "city": "MOLEDO CDR",
      "lon": "-7.928089177091943",
      "lat": "40.81295949054724"
    },
    {
      "id": "pt.ine.add.PTCONT.5609170",
      "street": "R SENHORA DA GRAÇA",
      "house": "13",
      "postcode": "3600-455",
      "city": "MOLEDO CDR",
      "lon": "-7.928435240578486",
      "lat": "40.81219468666437"
    },
    {
      "id": "pt.ine.add.PTCONT.5611703",
      "street": "R SENHORA DA GRAÇA",
      "house": "85",
      "postcode": "3600-455",
      "city": "MOLEDO CDR",
      "lon": "-7.929987136106586",
      "lat": "40.81243155707779"
    },
    {
      "id": "pt.ine.add.PTCONT.5615998",
      "street": "R EIRA",
      "house": "8",
      "postcode": "3600-455",
      "city": "MOLEDO CDR",
      "lon": "-7.9285627639600325",
      "lat": "40.81312241965426"
    },
    {
      "id": "pt.ine.add.PTCONT.5616098",
      "street": "R TAPADA",
      "house": "",
      "postcode": "3600-455",
      "city": "MOLEDO CDR",
      "lon": "-7.92735056102919",
      "lat": "40.810346748264706"
    },
    {
      "id": "pt.ine.add.PTCONT.5621127",
      "street": "R EIRA",
      "house": "3",
      "postcode": "3600-455",
      "city": "MOLEDO CDR",
      "lon": "-7.927437366335679",
      "lat": "40.81294032066594"
    },
    {
      "id": "pt.ine.add.PTCONT.5634792",
      "street": "R EIRA",
      "house": "5",
      "postcode": "3600-455",
      "city": "MOLEDO CDR",
      "lon": "-7.927649398770527",
      "lat": "40.81336392966867"
    },
    {
      "id": "pt.ine.add.PTCONT.5636905",
      "street": "R CRUZEIRO",
      "house": "40",
      "postcode": "3600-455",
      "city": "MOLEDO CDR",
      "lon": "-7.928108557521453",
      "lat": "40.81436429238525"
    }
  ]
}