{
  "data": {
    "distrito": "Lisboa",
    "concelho": "Torres Vedras",
    "freguesia": "Turcifal",
    "OBJECTID": 1909,
    "BGRI2021": "11131700206",
    "DT21": "11",
    "DTMN21": "1113",
    "DTMNFR21": "111317",
    "DTMNFRSEC21": "111317002",
    "SECNUM21": "002",
    "SSNUM21": "06",
    "SECSSNUM21": "00206",
    "OBJECTID_1": 117022,
    "DT": "11",
    "CC": "13",
    "fr": "17",
    "SEC": "002",
    "SS": "06"
  },
  "addresses": [
    {
      "id": "pt.ine.add.PTCONT.2490882",
      "street": "R LOUREIRA",
      "house": "9",
      "postcode": "2565-778",
      "city": "TURCIFAL",
      "lon": "-9.24064755290397",
      "lat": "39.01731833342693"
    },
    {
      "id": "pt.ine.add.PTCONT.2554610",
      "street": "R PRINCIPAL",
      "house": "24",
      "postcode": "2565-778",
      "city": "TURCIFAL",
      "lon": "-9.241256896258347",
      "lat": "39.01641180893162"
    },
    {
      "id": "pt.ine.add.PTCONT.2554611",
      "street": "R EIRAS",
      "house": "2",
      "postcode": "2565-778",
      "city": "TURCIFAL",
      "lon": "-9.243062596096225",
      "lat": "39.01596228701764"
    },
    {
      "id": "pt.ine.add.PTCONT.2597291",
      "street": "R LOUREIRA",
      "house": "7",
      "postcode": "2565-778",
      "city": "TURCIFAL",
      "lon": "-9.240678673561112",
      "lat": "39.017092853610585"
    },
    {
      "id": "pt.ine.add.PTCONT.2662614",
      "street": "LG FLORES",
      "house": "9",
      "postcode": "2565-778",
      "city": "TURCIFAL",
      "lon": "-9.242797500710381",
      "lat": "39.01599183132151"
    },
    {
      "id": "pt.ine.add.PTCONT.2822795",
      "street": "LG PLATANO",
      "house": "7",
      "postcode": "2565-778",
      "city": "TURCIFAL",
      "lon": "-9.242684169564347",
      "lat": "39.01612802000205"
    },
    {
      "id": "pt.ine.add.PTCONT.3050425",
      "street": "R PRINCIPAL",
      "house": "28",
      "postcode": "2565-778",
      "city": "TURCIFAL",
      "lon": "-9.241695018115642",
      "lat": "39.01637161648643"
    },
    {
      "id": "pt.ine.add.PTCONT.3292039",
      "street": "R PRINCIPAL",
      "house": "20",
      "postcode": "2565-778",
      "city": "TURCIFAL",
      "lon": "-9.24086509173934",
      "lat": "39.01646056726025"
    },
    {
      "id": "pt.ine.add.PTCONT.3374933",
      "street": "LG PLATANO",
      "house": "8",
      "postcode": "2565-778",
      "city": "TURCIFAL",
      "lon": "-9.242454128420022",
      "lat": "39.01618425220257"
    },
    {
      "id": "pt.ine.add.PTCONT.3395507",
      "street": "R PRINCIPAL",
      "house": "26",
      "postcode": "2565-778",
      "city": "TURCIFAL",
      "lon": "-9.241337144188362",
      "lat": "39.016375017058465"
    }
  ]
}