{
  "data": {
    "distrito": "Lisboa",
    "concelho": "Cadaval",
    "freguesia": "Vilar",
    "OBJECTID": 325,
    "BGRI2021": "11041000123",
    "DT21": "11",
    "DTMN21": "1104",
    "DTMNFR21": "110410",
    "DTMNFRSEC21": "110410001",
    "SECNUM21": "001",
    "SSNUM21": "23",
    "SECSSNUM21": "00123",
    "OBJECTID_1": 100360,
    "DT": "11",
    "CC": "04",
    "fr": "10",
    "SEC": "001",
    "SS": "23"
  },
  "addresses": [
    {
      "id": "pt.ine.add.PTCONT.2473478",
      "street": "LG COMÉRCIO",
      "house": "4",
      "postcode": "2550-072",
      "city": "VILAR CDV",
      "lon": "-9.097581709761064",
      "lat": "39.19571797055284"
    },
    {
      "id": "pt.ine.add.PTCONT.2594737",
      "street": "TV FLORES",
      "house": "3",
      "postcode": "2550-072",
      "city": "VILAR CDV",
      "lon": "-9.097994559798243",
      "lat": "39.19543532911485"
    },
    {
      "id": "pt.ine.add.PTCONT.2762735",
      "street": "LG SANTO ANTÓNIO",
      "house": "5",
      "postcode": "2550-072",
      "city": "VILAR CDV",
      "lon": "-9.097990001794903",
      "lat": "39.195102100830916"
    },
    {
      "id": "pt.ine.add.PTCONT.2897308",
      "street": "LG SANTO ANTÓNIO",
      "house": "",
      "postcode": "2550-072",
      "city": "VILAR CDV",
      "lon": "-9.098142558798541",
      "lat": "39.19525395947339"
    },
    {
      "id": "pt.ine.add.PTCONT.3018076",
      "street": "TV FLORES",
      "house": "",
      "postcode": "2550-072",
      "city": "VILAR CDV",
      "lon": "-9.097969440625501",
      "lat": "39.1952914221132"
    },
    {
      "id": "pt.ine.add.PTCONT.3081491",
      "street": "TV SANTO ANTÓNIO",
      "house": "8",
      "postcode": "2550-072",
      "city": "VILAR CDV",
      "lon": "-9.09817838989846",
      "lat": "39.19533472737409"
    },
    {
      "id": "pt.ine.add.PTCONT.3108814",
      "street": "LG SANTO ANTÓNIO",
      "house": "3",
      "postcode": "2550-072",
      "city": "VILAR CDV",
      "lon": "-9.097906273637742",
      "lat": "39.19490463605257"
    },
    {
      "id": "pt.ine.add.PTCONT.3145686",
      "street": "LG SANTO ANTÓNIO",
      "house": "4",
      "postcode": "2550-072",
      "city": "VILAR CDV",
      "lon": "-9.097861455673574",
      "lat": "39.19501309348518"
    },
    {
      "id": "pt.ine.add.PTCONT.3145687",
      "street": "LG SANTO ANTÓNIO",
      "house": "4",
      "postcode": "2550-072",
      "city": "VILAR CDV",
      "lon": "-9.097861455673574",
      "lat": "39.19501309348518"
    }
  ]
}