{
  "data": {
    "distrito": "Coimbra",
    "concelho": "Figueira da Foz",
    "freguesia": "Vila Verde",
    "OBJECTID": 1202,
    "BGRI2021": "06051300213",
    "DT21": "06",
    "DTMN21": "0605",
    "DTMNFR21": "060513",
    "DTMNFRSEC21": "060513002",
    "SECNUM21": "002",
    "SSNUM21": "13",
    "SECSSNUM21": "00213",
    "OBJECTID_1": 51001,
    "DT": "06",
    "CC": "05",
    "fr": "13",
    "SEC": "002",
    "SS": "13"
  },
  "addresses": [
    {
      "id": "pt.ine.add.PTCONT.1111066",
      "street": "R ALQUEVES",
      "house": "52",
      "postcode": "3090-653",
      "city": "FIGUEIRA DA FOZ",
      "lon": "-8.813434520956243",
      "lat": "40.14834220584473"
    },
    {
      "id": "pt.ine.add.PTCONT.1115272",
      "street": "VLA ALQUEVES",
      "house": "9",
      "postcode": "3090-653",
      "city": "FIGUEIRA DA FOZ",
      "lon": "-8.811429080855799",
      "lat": "40.147300285442654"
    },
    {
      "id": "pt.ine.add.PTCONT.1210173",
      "street": "VLA ALQUEVES",
      "house": "1",
      "postcode": "3090-653",
      "city": "FIGUEIRA DA FOZ",
      "lon": "-8.811305818831864",
      "lat": "40.14788638841598"
    },
    {
      "id": "pt.ine.add.PTCONT.1214716",
      "street": "TV RUA DOS ALQUEVES",
      "house": "10",
      "postcode": "3090-653",
      "city": "FIGUEIRA DA FOZ",
      "lon": "-8.81391601761537",
      "lat": "40.14837539931765"
    },
    {
      "id": "pt.ine.add.PTCONT.1238481",
      "street": "R ALQUEVES",
      "house": "48",
      "postcode": "3090-653",
      "city": "FIGUEIRA DA FOZ",
      "lon": "-8.811876978141402",
      "lat": "40.14749578974278"
    },
    {
      "id": "pt.ine.add.PTCONT.1252637",
      "street": "R ALQUEVES",
      "house": "54",
      "postcode": "3090-653",
      "city": "FIGUEIRA DA FOZ",
      "lon": "-8.813887512738994",
      "lat": "40.14787123877974"
    },
    {
      "id": "pt.ine.add.PTCONT.1314030",
      "street": "R ALQUEVES",
      "house": "56",
      "postcode": "3090-653",
      "city": "FIGUEIRA DA FOZ",
      "lon": "-8.814592960717857",
      "lat": "40.14800217701984"
    },
    {
      "id": "pt.ine.add.PTCONT.1330326",
      "street": "VLA RUA DOS ALQUEVES",
      "house": "7",
      "postcode": "3090-653",
      "city": "FIGUEIRA DA FOZ",
      "lon": "-8.81139584687354",
      "lat": "40.14749860907224"
    },
    {
      "id": "pt.ine.add.PTCONT.1348716",
      "street": "R ALQUEVES",
      "house": "52",
      "postcode": "3090-653",
      "city": "FIGUEIRA DA FOZ",
      "lon": "-8.813768904603373",
      "lat": "40.14774585400604"
    }
  ]
}