{
  "data": {
    "distrito": "Coimbra",
    "concelho": "Pampilhosa da Serra",
    "freguesia": "Pessegueiro",
    "OBJECTID": 360,
    "BGRI2021": "06120700109",
    "DT21": "06",
    "DTMN21": "0612",
    "DTMNFR21": "061207",
    "DTMNFRSEC21": "061207001",
    "SECNUM21": "001",
    "SSNUM21": "09",
    "SECSSNUM21": "00109",
    "OBJECTID_1": 55289,
    "DT": "06",
    "CC": "12",
    "fr": "07",
    "SEC": "001",
    "SS": "09"
  },
  "addresses": [
    {
      "id": "pt.ine.add.PTCONT.1111463",
      "street": "R VÁRZEA",
      "house": "4",
      "postcode": "3320-310",
      "city": "PESSEGUEIRO",
      "lon": "-8.023451912165854",
      "lat": "40.05111432413081"
    },
    {
      "id": "pt.ine.add.PTCONT.1113854",
      "street": "R VÁRZEA",
      "house": "2",
      "postcode": "3320-310",
      "city": "PESSEGUEIRO",
      "lon": "-8.023440885820373",
      "lat": "40.05068202008786"
    },
    {
      "id": "pt.ine.add.PTCONT.1130197",
      "street": "LG IGREJA",
      "house": "",
      "postcode": "3320-310",
      "city": "PESSEGUEIRO",
      "lon": "-8.023240576762197",
      "lat": "40.0513572890668"
    },
    {
      "id": "pt.ine.add.PTCONT.1138768",
      "street": "R EX-COMBATENTES DO ULTRAMAR",
      "house": "",
      "postcode": "3320-312",
      "city": "PESSEGUEIRO",
      "lon": "-8.018388191462499",
      "lat": "40.05173084309011"
    },
    {
      "id": "pt.ine.add.PTCONT.1142402",
      "street": "CAM RELVA",
      "house": "4",
      "postcode": "3320-310",
      "city": "PESSEGUEIRO",
      "lon": "-8.023674173023256",
      "lat": "40.051366705524444"
    },
    {
      "id": "pt.ine.add.PTCONT.1146048",
      "street": "AV JOSE ANTÓNIO AREOSA",
      "house": "8",
      "postcode": "3320-312",
      "city": "PESSEGUEIRO",
      "lon": "-8.020238707023825",
      "lat": "40.05241712527204"
    },
    {
      "id": "pt.ine.add.PTCONT.1146706",
      "street": "LG JULIO GONÇALVES",
      "house": "3",
      "postcode": "3320-310",
      "city": "PESSEGUEIRO",
      "lon": "-8.023604391028387",
      "lat": "40.05103341328965"
    },
    {
      "id": "pt.ine.add.PTCONT.1152827",
      "street": "R S SIMAO",
      "house": "6",
      "postcode": "3320-310",
      "city": "PESSEGUEIRO",
      "lon": "-8.023392796491517",
      "lat": "40.05143848835173"
    },
    {
      "id": "pt.ine.add.PTCONT.1154553",
      "street": "R S SIMAO",
      "house": "2",
      "postcode": "3320-310",
      "city": "PESSEGUEIRO",
      "lon": "-8.023463270558784",
      "lat": "40.051339487787516"
    },
    {
      "id": "pt.ine.add.PTCONT.1158568",
      "street": "BC SALOIO",
      "house": "5",
      "postcode": "3320-310",
      "city": "PESSEGUEIRO",
      "lon": "-8.023041726891169",
      "lat": "40.05112294131626"
    },
    {
      "id": "pt.ine.add.PTCONT.1165690",
      "street": "AV JOSE ANTÓNIO AREOSA",
      "house": "",
      "postcode": "3320-312",
      "city": "PESSEGUEIRO",
      "lon": "-8.020601933993948",
      "lat": "40.052462509112836"
    },
    {
      "id": "pt.ine.add.PTCONT.1165691",
      "street": "BC FORNO",
      "house": "4",
      "postcode": "3320-310",
      "city": "PESSEGUEIRO",
      "lon": "-8.023428776977864",
      "lat": "40.050925173784016"
    },
    {
      "id": "pt.ine.add.PTCONT.1170476",
      "street": "AV JOSE ANTÓNIO AREOSA",
      "house": "2",
      "postcode": "3320-312",
      "city": "PESSEGUEIRO",
      "lon": "-8.022255419303585",
      "lat": "40.05181566261336"
    },
    {
      "id": "pt.ine.add.PTCONT.1173857",
      "street": "R ALEGRIA",
      "house": "",
      "postcode": "3320-310",
      "city": "PESSEGUEIRO",
      "lon": "-8.023885722547098",
      "lat": "40.05098864825042"
    },
    {
      "id": "pt.ine.add.PTCONT.1195072",
      "street": "R ESCADINHAS DA EIRA",
      "house": "2",
      "postcode": "3320-310",
      "city": "PESSEGUEIRO",
      "lon": "-8.023568930817381",
      "lat": "40.05122250821655"
    },
    {
      "id": "pt.ine.add.PTCONT.1197541",
      "street": "AV JOSE ANTÓNIO AREOSA",
      "house": "",
      "postcode": "3320-312",
      "city": "PESSEGUEIRO",
      "lon": "-8.02034456740174",
      "lat": "40.052183069371935"
    },
    {
      "id": "pt.ine.add.PTCONT.1197542",
      "street": "R VÁRZEA",
      "house": "1",
      "postcode": "3320-310",
      "city": "PESSEGUEIRO",
      "lon": "-8.023464468308065",
      "lat": "40.050591981234255"
    },
    {
      "id": "pt.ine.add.PTCONT.1208752",
      "street": "R VÁRZEA",
      "house": "",
      "postcode": "3320-310",
      "city": "PESSEGUEIRO",
      "lon": "-8.023522400235786",
      "lat": "40.0510063174215"
    },
    {
      "id": "pt.ine.add.PTCONT.1226506",
      "street": "LG JULIO GONÇALVES",
      "house": "1",
      "postcode": "3320-310",
      "city": "PESSEGUEIRO",
      "lon": "-8.023756452155649",
      "lat": "40.051213679231935"
    },
    {
      "id": "pt.ine.add.PTCONT.1238860",
      "street": "BC NETO",
      "house": "",
      "postcode": "3320-310",
      "city": "PESSEGUEIRO",
      "lon": "-8.023545939469315",
      "lat": "40.050943296865725"
    },
    {
      "id": "pt.ine.add.PTCONT.1241144",
      "street": "TV JOAQUIM PEREIRA",
      "house": "2",
      "postcode": "3320-310",
      "city": "PESSEGUEIRO",
      "lon": "-8.023322741256806",
      "lat": "40.05127631190385"
    },
    {
      "id": "pt.ine.add.PTCONT.1259980",
      "street": "R S SIMAO",
      "house": "3",
      "postcode": "3320-310",
      "city": "PESSEGUEIRO",
      "lon": "-8.023556836748561",
      "lat": "40.051456655801466"
    },
    {
      "id": "pt.ine.add.PTCONT.1277993",
      "street": "BC NETO",
      "house": "",
      "postcode": "3320-310",
      "city": "PESSEGUEIRO",
      "lon": "-8.023627959014057",
      "lat": "40.05095238051124"
    },
    {
      "id": "pt.ine.add.PTCONT.1302160",
      "street": "R S SIMAO",
      "house": "1",
      "postcode": "3320-310",
      "city": "PESSEGUEIRO",
      "lon": "-8.023556952098184",
      "lat": "40.05138460698252"
    },
    {
      "id": "pt.ine.add.PTCONT.1314451",
      "street": "TV PEREIRO",
      "house": "",
      "postcode": "3320-312",
      "city": "PESSEGUEIRO",
      "lon": "-8.020637802742021",
      "lat": "40.052030250437575"
    },
    {
      "id": "pt.ine.add.PTCONT.1322714",
      "street": "R S SIMAO",
      "house": "4",
      "postcode": "3320-310",
      "city": "PESSEGUEIRO",
      "lon": "-8.023439745546145",
      "lat": "40.051393502219476"
    },
    {
      "id": "pt.ine.add.PTCONT.1324491",
      "street": "R ESCADINHAS DA EIRA",
      "house": "",
      "postcode": "3320-310",
      "city": "PESSEGUEIRO",
      "lon": "-8.023686036248716",
      "lat": "40.05127665556699"
    },
    {
      "id": "pt.ine.add.PTCONT.1330991",
      "street": "LG JULIO GONÇALVES",
      "house": "2",
      "postcode": "3320-310",
      "city": "PESSEGUEIRO",
      "lon": "-8.023686338681566",
      "lat": "40.0510875274086"
    },
    {
      "id": "pt.ine.add.PTCONT.1341025",
      "street": "LG PEREIRO",
      "house": "",
      "postcode": "3320-312",
      "city": "PESSEGUEIRO",
      "lon": "-8.019945796814802",
      "lat": "40.05237180899079"
    },
    {
      "id": "pt.ine.add.PTCONT.1353340",
      "street": "AV JOSE ANTÓNIO AREOSA",
      "house": "1",
      "postcode": "3320-312",
      "city": "PESSEGUEIRO",
      "lon": "-8.02012154289346",
      "lat": "40.052398998848375"
    },
    {
      "id": "pt.ine.add.PTCONT.1354669",
      "street": "R ALEGRIA",
      "house": "",
      "postcode": "3320-310",
      "city": "PESSEGUEIRO",
      "lon": "-8.023815220683856",
      "lat": "40.05110566128485"
    },
    {
      "id": "pt.ine.add.PTCONT.1354670",
      "street": "LG IGREJA",
      "house": "",
      "postcode": "3320-310",
      "city": "PESSEGUEIRO",
      "lon": "-8.022232593645548",
      "lat": "40.051437383917055"
    }
  ]
}