{
  "data": {
    "distrito": "Lisboa",
    "concelho": "Mafra",
    "freguesia": "Mafra",
    "OBJECTID": 671,
    "BGRI2021": "11090900906",
    "DT21": "11",
    "DTMN21": "1109",
    "DTMNFR21": "110909",
    "DTMNFRSEC21": "110909009",
    "SECNUM21": "009",
    "SSNUM21": "06",
    "SECSSNUM21": "00906",
    "OBJECTID_1": 108816,
    "DT": "11",
    "CC": "09",
    "fr": "09",
    "SEC": "009",
    "SS": "06"
  },
  "addresses": [
    {
      "id": "pt.ine.add.PTCONT.2443028",
      "street": "AV 25 DE ABRIL",
      "house": "12B",
      "postcode": "2640-456",
      "city": "MAFRA",
      "lon": "-9.329558483709224",
      "lat": "38.94085940042769"
    },
    {
      "id": "pt.ine.add.PTCONT.2695998",
      "street": "R MOREIRA",
      "house": "33",
      "postcode": "2640-507",
      "city": "MAFRA",
      "lon": "-9.329365622982321",
      "lat": "38.941050533344686"
    },
    {
      "id": "pt.ine.add.PTCONT.2695999",
      "street": "R MOREIRA",
      "house": "33",
      "postcode": "2640-507",
      "city": "MAFRA",
      "lon": "-9.329365622982321",
      "lat": "38.941050533344686"
    },
    {
      "id": "pt.ine.add.PTCONT.2696000",
      "street": "R MOREIRA",
      "house": "33",
      "postcode": "2640-507",
      "city": "MAFRA",
      "lon": "-9.329365622982321",
      "lat": "38.941050533344686"
    },
    {
      "id": "pt.ine.add.PTCONT.2696001",
      "street": "R MOREIRA",
      "house": "33",
      "postcode": "2640-507",
      "city": "MAFRA",
      "lon": "-9.329365622982321",
      "lat": "38.941050533344686"
    },
    {
      "id": "pt.ine.add.PTCONT.2696002",
      "street": "R MOREIRA",
      "house": "33",
      "postcode": "2640-507",
      "city": "MAFRA",
      "lon": "-9.329365622982321",
      "lat": "38.941050533344686"
    },
    {
      "id": "pt.ine.add.PTCONT.2696003",
      "street": "R MOREIRA",
      "house": "33",
      "postcode": "2640-507",
      "city": "MAFRA",
      "lon": "-9.329365622982321",
      "lat": "38.941050533344686"
    },
    {
      "id": "pt.ine.add.PTCONT.2696004",
      "street": "R MOREIRA",
      "house": "33",
      "postcode": "2640-507",
      "city": "MAFRA",
      "lon": "-9.329365622982321",
      "lat": "38.941050533344686"
    },
    {
      "id": "pt.ine.add.PTCONT.2699066",
      "street": "R MOREIRA",
      "house": "33",
      "postcode": "2640-507",
      "city": "MAFRA",
      "lon": "-9.329365622982321",
      "lat": "38.941050533344686"
    },
    {
      "id": "pt.ine.add.PTCONT.2778544",
      "street": "R MOREIRA",
      "house": "27",
      "postcode": "2640-507",
      "city": "MAFRA",
      "lon": "-9.328739278476515",
      "lat": "38.94084077331437"
    },
    {
      "id": "pt.ine.add.PTCONT.2778545",
      "street": "R MOREIRA",
      "house": "27",
      "postcode": "2640-507",
      "city": "MAFRA",
      "lon": "-9.328739278476515",
      "lat": "38.94084077331437"
    },
    {
      "id": "pt.ine.add.PTCONT.2778546",
      "street": "R MOREIRA",
      "house": "27",
      "postcode": "2640-507",
      "city": "MAFRA",
      "lon": "-9.328739278476515",
      "lat": "38.94084077331437"
    },
    {
      "id": "pt.ine.add.PTCONT.2778547",
      "street": "R MOREIRA",
      "house": "27",
      "postcode": "2640-507",
      "city": "MAFRA",
      "lon": "-9.328739278476515",
      "lat": "38.94084077331437"
    },
    {
      "id": "pt.ine.add.PTCONT.2778548",
      "street": "R MOREIRA",
      "house": "27",
      "postcode": "2640-507",
      "city": "MAFRA",
      "lon": "-9.328739278476515",
      "lat": "38.94084077331437"
    },
    {
      "id": "pt.ine.add.PTCONT.2779159",
      "street": "R MOREIRA",
      "house": "27",
      "postcode": "2640-507",
      "city": "MAFRA",
      "lon": "-9.328739278476515",
      "lat": "38.94084077331437"
    },
    {
      "id": "pt.ine.add.PTCONT.2787015",
      "street": "R ALFREDO FERREIRA",
      "house": "",
      "postcode": "2640-507",
      "city": "MAFRA",
      "lon": "-9.329573497034886",
      "lat": "38.941066417342554"
    },
    {
      "id": "pt.ine.add.PTCONT.2787016",
      "street": "R ALFREDO FERREIRA",
      "house": "",
      "postcode": "2640-507",
      "city": "MAFRA",
      "lon": "-9.329573497034886",
      "lat": "38.941066417342554"
    },
    {
      "id": "pt.ine.add.PTCONT.2787017",
      "street": "R ALFREDO FERREIRA",
      "house": "",
      "postcode": "2640-507",
      "city": "MAFRA",
      "lon": "-9.329573497034886",
      "lat": "38.941066417342554"
    },
    {
      "id": "pt.ine.add.PTCONT.2787018",
      "street": "R ALFREDO FERREIRA",
      "house": "",
      "postcode": "2640-507",
      "city": "MAFRA",
      "lon": "-9.329573497034886",
      "lat": "38.941066417342554"
    },
    {
      "id": "pt.ine.add.PTCONT.2787019",
      "street": "R ALFREDO FERREIRA",
      "house": "",
      "postcode": "2640-507",
      "city": "MAFRA",
      "lon": "-9.329573497034886",
      "lat": "38.941066417342554"
    },
    {
      "id": "pt.ine.add.PTCONT.2787020",
      "street": "R ALFREDO FERREIRA",
      "house": "",
      "postcode": "2640-507",
      "city": "MAFRA",
      "lon": "-9.329573497034886",
      "lat": "38.941066417342554"
    },
    {
      "id": "pt.ine.add.PTCONT.2787021",
      "street": "R ALFREDO FERREIRA",
      "house": "",
      "postcode": "2640-507",
      "city": "MAFRA",
      "lon": "-9.329573497034886",
      "lat": "38.941066417342554"
    },
    {
      "id": "pt.ine.add.PTCONT.2789065",
      "street": "R ALFREDO FERREIRA",
      "house": "",
      "postcode": "2640-507",
      "city": "MAFRA",
      "lon": "-9.329573497034886",
      "lat": "38.941066417342554"
    },
    {
      "id": "pt.ine.add.PTCONT.2820750",
      "street": "AV ENG DUARTE PACHECO",
      "house": "9",
      "postcode": "2640-476",
      "city": "MAFRA",
      "lon": "-9.329034715004417",
      "lat": "38.94057653095173"
    },
    {
      "id": "pt.ine.add.PTCONT.3051909",
      "street": "AV 25 DE ABRIL",
      "house": "12",
      "postcode": "2640-456",
      "city": "MAFRA",
      "lon": "-9.329372008842487",
      "lat": "38.94074421535974"
    },
    {
      "id": "pt.ine.add.PTCONT.3070213",
      "street": "R MOREIRA",
      "house": "29",
      "postcode": "2640-507",
      "city": "MAFRA",
      "lon": "-9.32894730309941",
      "lat": "38.94086566431787"
    },
    {
      "id": "pt.ine.add.PTCONT.3070214",
      "street": "R MOREIRA",
      "house": "29",
      "postcode": "2640-507",
      "city": "MAFRA",
      "lon": "-9.32894730309941",
      "lat": "38.94086566431787"
    },
    {
      "id": "pt.ine.add.PTCONT.3070215",
      "street": "R MOREIRA",
      "house": "29",
      "postcode": "2640-507",
      "city": "MAFRA",
      "lon": "-9.32894730309941",
      "lat": "38.94086566431787"
    },
    {
      "id": "pt.ine.add.PTCONT.3070216",
      "street": "R MOREIRA",
      "house": "29",
      "postcode": "2640-507",
      "city": "MAFRA",
      "lon": "-9.32894730309941",
      "lat": "38.94086566431787"
    },
    {
      "id": "pt.ine.add.PTCONT.3070217",
      "street": "R MOREIRA",
      "house": "29",
      "postcode": "2640-507",
      "city": "MAFRA",
      "lon": "-9.32894730309941",
      "lat": "38.94086566431787"
    },
    {
      "id": "pt.ine.add.PTCONT.3070218",
      "street": "R MOREIRA",
      "house": "29",
      "postcode": "2640-507",
      "city": "MAFRA",
      "lon": "-9.32894730309941",
      "lat": "38.94086566431787"
    },
    {
      "id": "pt.ine.add.PTCONT.3070219",
      "street": "R MOREIRA",
      "house": "29",
      "postcode": "2640-507",
      "city": "MAFRA",
      "lon": "-9.32894730309941",
      "lat": "38.94086566431787"
    },
    {
      "id": "pt.ine.add.PTCONT.3141341",
      "street": "R ALFREDO FERREIRA",
      "house": "",
      "postcode": "2640-456",
      "city": "MAFRA",
      "lon": "-9.329652402599045",
      "lat": "38.94095751928344"
    },
    {
      "id": "pt.ine.add.PTCONT.3141342",
      "street": "R ALFREDO FERREIRA",
      "house": "",
      "postcode": "2640-456",
      "city": "MAFRA",
      "lon": "-9.329652402599045",
      "lat": "38.94095751928344"
    },
    {
      "id": "pt.ine.add.PTCONT.3141343",
      "street": "R ALFREDO FERREIRA",
      "house": "",
      "postcode": "2640-456",
      "city": "MAFRA",
      "lon": "-9.329652402599045",
      "lat": "38.94095751928344"
    },
    {
      "id": "pt.ine.add.PTCONT.3141348",
      "street": "R ALFREDO FERREIRA",
      "house": "",
      "postcode": "2640-456",
      "city": "MAFRA",
      "lon": "-9.329652402599045",
      "lat": "38.94095751928344"
    },
    {
      "id": "pt.ine.add.PTCONT.3141349",
      "street": "R ALFREDO FERREIRA",
      "house": "",
      "postcode": "2640-456",
      "city": "MAFRA",
      "lon": "-9.329652402599045",
      "lat": "38.94095751928344"
    },
    {
      "id": "pt.ine.add.PTCONT.3144990",
      "street": "R ALFREDO FERREIRA",
      "house": "",
      "postcode": "2640-456",
      "city": "MAFRA",
      "lon": "-9.329652402599045",
      "lat": "38.94095751928344"
    },
    {
      "id": "pt.ine.add.PTCONT.3171379",
      "street": "R MOREIRA",
      "house": "31",
      "postcode": "2640-507",
      "city": "MAFRA",
      "lon": "-9.329133777619614",
      "lat": "38.940980850067945"
    },
    {
      "id": "pt.ine.add.PTCONT.3171380",
      "street": "R MOREIRA",
      "house": "31",
      "postcode": "2640-507",
      "city": "MAFRA",
      "lon": "-9.329133777619614",
      "lat": "38.940980850067945"
    },
    {
      "id": "pt.ine.add.PTCONT.3171381",
      "street": "R MOREIRA",
      "house": "31",
      "postcode": "2640-507",
      "city": "MAFRA",
      "lon": "-9.329133777619614",
      "lat": "38.940980850067945"
    },
    {
      "id": "pt.ine.add.PTCONT.3171382",
      "street": "R MOREIRA",
      "house": "31",
      "postcode": "2640-507",
      "city": "MAFRA",
      "lon": "-9.329133777619614",
      "lat": "38.940980850067945"
    },
    {
      "id": "pt.ine.add.PTCONT.3171552",
      "street": "R MOREIRA",
      "house": "31",
      "postcode": "2640-507",
      "city": "MAFRA",
      "lon": "-9.329133777619614",
      "lat": "38.940980850067945"
    },
    {
      "id": "pt.ine.add.PTCONT.3171553",
      "street": "R MOREIRA",
      "house": "31",
      "postcode": "2640-507",
      "city": "MAFRA",
      "lon": "-9.329133777619614",
      "lat": "38.940980850067945"
    },
    {
      "id": "pt.ine.add.PTCONT.3171554",
      "street": "R MOREIRA",
      "house": "31",
      "postcode": "2640-507",
      "city": "MAFRA",
      "lon": "-9.329133777619614",
      "lat": "38.940980850067945"
    },
    {
      "id": "pt.ine.add.PTCONT.3171555",
      "street": "R MOREIRA",
      "house": "31",
      "postcode": "2640-507",
      "city": "MAFRA",
      "lon": "-9.329133777619614",
      "lat": "38.940980850067945"
    },
    {
      "id": "pt.ine.add.PTCONT.3318025",
      "street": "TV ALFREDO FERREIRA LUIS",
      "house": "1",
      "postcode": "2640-507",
      "city": "MAFRA",
      "lon": "-9.329758761881756",
      "lat": "38.94110955506856"
    },
    {
      "id": "pt.ine.add.PTCONT.3318023",
      "street": "TV ALFREDO FERREIRA LUIS",
      "house": "1",
      "postcode": "2640-507",
      "city": "MAFRA",
      "lon": "-9.329758761881756",
      "lat": "38.94110955506856"
    },
    {
      "id": "pt.ine.add.PTCONT.3318024",
      "street": "TV ALFREDO FERREIRA LUIS",
      "house": "1",
      "postcode": "2640-507",
      "city": "MAFRA",
      "lon": "-9.329758761881756",
      "lat": "38.94110955506856"
    },
    {
      "id": "pt.ine.add.PTCONT.3318026",
      "street": "TV ALFREDO FERREIRA LUIS",
      "house": "1",
      "postcode": "2640-507",
      "city": "MAFRA",
      "lon": "-9.329758761881756",
      "lat": "38.94110955506856"
    },
    {
      "id": "pt.ine.add.PTCONT.3318027",
      "street": "TV ALFREDO FERREIRA LUIS",
      "house": "1",
      "postcode": "2640-507",
      "city": "MAFRA",
      "lon": "-9.329758761881756",
      "lat": "38.94110955506856"
    },
    {
      "id": "pt.ine.add.PTCONT.3318028",
      "street": "TV ALFREDO FERREIRA LUIS",
      "house": "1",
      "postcode": "2640-507",
      "city": "MAFRA",
      "lon": "-9.329758761881756",
      "lat": "38.94110955506856"
    },
    {
      "id": "pt.ine.add.PTCONT.3318029",
      "street": "TV ALFREDO FERREIRA LUIS",
      "house": "1",
      "postcode": "2640-507",
      "city": "MAFRA",
      "lon": "-9.329758761881756",
      "lat": "38.94110955506856"
    },
    {
      "id": "pt.ine.add.PTCONT.3318030",
      "street": "TV ALFREDO FERREIRA LUIS",
      "house": "1",
      "postcode": "2640-507",
      "city": "MAFRA",
      "lon": "-9.329758761881756",
      "lat": "38.94110955506856"
    },
    {
      "id": "pt.ine.add.PTCONT.3323823",
      "street": "TV ALFREDO FERREIRA LUIS",
      "house": "1",
      "postcode": "2640-507",
      "city": "MAFRA",
      "lon": "-9.329758761881756",
      "lat": "38.94110955506856"
    },
    {
      "id": "pt.ine.add.PTCONT.3340482",
      "street": "AV ENG DUARTE PACHECO",
      "house": "11",
      "postcode": "2640-476",
      "city": "MAFRA",
      "lon": "-9.328827598873204",
      "lat": "38.94060567536014"
    },
    {
      "id": "pt.ine.add.PTCONT.3340483",
      "street": "AV ENG DUARTE PACHECO",
      "house": "11",
      "postcode": "2640-476",
      "city": "MAFRA",
      "lon": "-9.328827598873204",
      "lat": "38.94060567536014"
    },
    {
      "id": "pt.ine.add.PTCONT.3340484",
      "street": "AV ENG DUARTE PACHECO",
      "house": "11",
      "postcode": "2640-476",
      "city": "MAFRA",
      "lon": "-9.328827598873204",
      "lat": "38.94060567536014"
    }
  ]
}