{
  "data": {
    "distrito": "Lisboa",
    "concelho": "Loures",
    "freguesia": "Loures",
    "OBJECTID": 1596,
    "BGRI2021": "11070701914",
    "DT21": "11",
    "DTMN21": "1107",
    "DTMNFR21": "110707",
    "DTMNFRSEC21": "110707019",
    "SECNUM21": "019",
    "SSNUM21": "14",
    "SECSSNUM21": "01914",
    "OBJECTID_1": 106312,
    "DT": "11",
    "CC": "07",
    "fr": "07",
    "SEC": "019",
    "SS": "14"
  },
  "addresses": [
    {
      "id": "pt.ine.add.PTCONT.2915019",
      "street": "R PAZ",
      "house": "4",
      "postcode": "2670-501",
      "city": "LOURES",
      "lon": "-9.211288060170693",
      "lat": "38.849927492678766"
    },
    {
      "id": "pt.ine.add.PTCONT.3095196",
      "street": "R PAZ",
      "house": "6",
      "postcode": "2670-501",
      "city": "LOURES",
      "lon": "-9.211289827777891",
      "lat": "38.850044575697204"
    },
    {
      "id": "pt.ine.add.PTCONT.3122921",
      "street": "R PAZ",
      "house": "8",
      "postcode": "2670-501",
      "city": "LOURES",
      "lon": "-9.211144314738297",
      "lat": "38.8503251557987"
    },
    {
      "id": "pt.ine.add.PTCONT.3155386",
      "street": "QTA CALDEIRA",
      "house": "",
      "postcode": "2670-522",
      "city": "LOURES",
      "lon": "-9.213343422581845",
      "lat": "38.84949414887606"
    },
    {
      "id": "pt.ine.add.PTCONT.3178548",
      "street": "BC UNIDOS",
      "house": "6",
      "postcode": "2670-501",
      "city": "LOURES",
      "lon": "-9.210725741798887",
      "lat": "38.8500677970398"
    },
    {
      "id": "pt.ine.add.PTCONT.3270690",
      "street": "BC UNIDOS",
      "house": "2",
      "postcode": "2670-501",
      "city": "LOURES",
      "lon": "-9.21088970533557",
      "lat": "38.85024643689409"
    },
    {
      "id": "pt.ine.add.PTCONT.3296767",
      "street": "R PAZ CASAL DOS VENÃ‚NCIOS",
      "house": "9",
      "postcode": "2670-501",
      "city": "LOURES",
      "lon": "-9.212311840465055",
      "lat": "38.849071318788475"
    },
    {
      "id": "pt.ine.add.PTCONT.3382113",
      "street": "BC UNIDOS",
      "house": "10",
      "postcode": "2670-501",
      "city": "LOURES",
      "lon": "-9.211028051728174",
      "lat": "38.8502541677653"
    },
    {
      "id": "pt.ine.add.PTCONT.3406766",
      "street": "BC UNIDOS",
      "house": "10",
      "postcode": "2670-501",
      "city": "LOURES",
      "lon": "-9.21071802944856",
      "lat": "38.85032008215625"
    },
    {
      "id": "pt.ine.add.PTCONT.2270830",
      "street": "BC UNIDOS",
      "house": "4A",
      "postcode": "2670-501",
      "city": "LOURES",
      "lon": "-9.210828448002765",
      "lat": "38.85000379585665"
    },
    {
      "id": "pt.ine.add.PTCONT.2270831",
      "street": "BC UNIDOS",
      "house": "4",
      "postcode": "2670-501",
      "city": "LOURES",
      "lon": "-9.210828448002765",
      "lat": "38.85000379585665"
    },
    {
      "id": "pt.ine.add.PTCONT.2488605",
      "street": "LG AUTOCARROS",
      "house": "6",
      "postcode": "2670-501",
      "city": "LOURES",
      "lon": "-9.21037386145998",
      "lat": "38.8504133336077"
    },
    {
      "id": "pt.ine.add.PTCONT.2730242",
      "street": "LG AUTOCARROS",
      "house": "7",
      "postcode": "2670-501",
      "city": "LOURES",
      "lon": "-9.21008442824519",
      "lat": "38.85031691886462"
    }
  ]
}