{
  "data": {
    "distrito": "Braga",
    "concelho": "Vila Verde",
    "freguesia": "Coucieiro",
    "OBJECTID": 665,
    "BGRI2021": "03131100109",
    "DT21": "03",
    "DTMN21": "0313",
    "DTMNFR21": "031311",
    "DTMNFRSEC21": "031311001",
    "SECNUM21": "001",
    "SSNUM21": "09",
    "SECSSNUM21": "00109",
    "OBJECTID_1": 32627,
    "DT": "03",
    "CC": "13",
    "fr": "11",
    "SEC": "001",
    "SS": "09"
  },
  "addresses": [
    {
      "id": "pt.ine.add.PTCONT.495780",
      "street": "AV LIBERDADE",
      "house": "134",
      "postcode": "4730-120",
      "city": "COUCIEIRO",
      "lon": "-8.402669857998267",
      "lat": "41.67116520933189"
    },
    {
      "id": "pt.ine.add.PTCONT.565011",
      "street": "R SEARA",
      "house": "46",
      "postcode": "4730-120",
      "city": "COUCIEIRO",
      "lon": "-8.401328748422838",
      "lat": "41.674976855955556"
    },
    {
      "id": "pt.ine.add.PTCONT.735921",
      "street": "AV BELA VISTA",
      "house": "10",
      "postcode": "4730-120",
      "city": "COUCIEIRO",
      "lon": "-8.403406271388462",
      "lat": "41.67209985111173"
    },
    {
      "id": "pt.ine.add.PTCONT.751001",
      "street": "AV BELA VISTA",
      "house": "42",
      "postcode": "4730-120",
      "city": "COUCIEIRO",
      "lon": "-8.401843443508701",
      "lat": "41.6745704932479"
    },
    {
      "id": "pt.ine.add.PTCONT.816194",
      "street": "R LAMEIRO",
      "house": "7",
      "postcode": "4730-120",
      "city": "COUCIEIRO",
      "lon": "-8.402901734393264",
      "lat": "41.67205601869088"
    }
  ]
}