{
  "data": {
    "distrito": "Bragança",
    "concelho": "Mirandela",
    "freguesia": "União das freguesias de Barcel, Marmelos e Valverde da Gestosa",
    "OBJECTID": 702,
    "BGRI2021": "04074000104",
    "DT21": "04",
    "DTMN21": "0407",
    "DTMNFR21": "040740",
    "DTMNFRSEC21": "040740001",
    "SECNUM21": "001",
    "SSNUM21": "04",
    "SECSSNUM21": "00104",
    "OBJECTID_1": 37422,
    "DT": "04",
    "CC": "07",
    "fr": "40",
    "SEC": "001",
    "SS": "04"
  },
  "addresses": [
    {
      "id": "pt.ine.add.PTCONT.854140",
      "street": "LG TARRINCHA",
      "house": "",
      "postcode": "5370-060",
      "city": "BARCEL",
      "lon": "-7.239630960670098",
      "lat": "41.37465042259637"
    },
    {
      "id": "pt.ine.add.PTCONT.856659",
      "street": "R 25 DE ABRIL",
      "house": "",
      "postcode": "5370-060",
      "city": "BARCEL",
      "lon": "-7.238188826899704",
      "lat": "41.37434208687771"
    },
    {
      "id": "pt.ine.add.PTCONT.874109",
      "street": "R 25 DE ABRIL",
      "house": "",
      "postcode": "5370-060",
      "city": "BARCEL",
      "lon": "-7.238179589726591",
      "lat": "41.374143929064765"
    },
    {
      "id": "pt.ine.add.PTCONT.876992",
      "street": "R 25 DE ABRIL",
      "house": "",
      "postcode": "5370-060",
      "city": "BARCEL",
      "lon": "-7.23841394207364",
      "lat": "41.37448789995107"
    },
    {
      "id": "pt.ine.add.PTCONT.881756",
      "street": "LG TARRINCHA",
      "house": "",
      "postcode": "5370-060",
      "city": "BARCEL",
      "lon": "-7.239377254872578",
      "lat": "41.37484653833206"
    },
    {
      "id": "pt.ine.add.PTCONT.884108",
      "street": "R ESTRADA",
      "house": "",
      "postcode": "5370-060",
      "city": "BARCEL",
      "lon": "-7.238516343439895",
      "lat": "41.37399348116531"
    },
    {
      "id": "pt.ine.add.PTCONT.887971",
      "street": "R ESTRADA",
      "house": "",
      "postcode": "5370-060",
      "city": "BARCEL",
      "lon": "-7.239134025894091",
      "lat": "41.374277402753684"
    },
    {
      "id": "pt.ine.add.PTCONT.896782",
      "street": "R S JOÃO",
      "house": "",
      "postcode": "5370-060",
      "city": "BARCEL",
      "lon": "-7.237841599966184",
      "lat": "41.37438440543049"
    },
    {
      "id": "pt.ine.add.PTCONT.901083",
      "street": "R ESTRADA",
      "house": "",
      "postcode": "5370-060",
      "city": "BARCEL",
      "lon": "-7.23896743697083",
      "lat": "41.37422208495428"
    },
    {
      "id": "pt.ine.add.PTCONT.902388",
      "street": "LG S CERIACO",
      "house": "",
      "postcode": "5370-060",
      "city": "BARCEL",
      "lon": "-7.238181317366941",
      "lat": "41.374017887787524"
    },
    {
      "id": "pt.ine.add.PTCONT.917151",
      "street": "R SA CARNEIRO",
      "house": "",
      "postcode": "5370-060",
      "city": "BARCEL",
      "lon": "-7.23931096493665",
      "lat": "41.37444985151055"
    },
    {
      "id": "pt.ine.add.PTCONT.919197",
      "street": "R 25 DE ABRIL",
      "house": "",
      "postcode": "5370-060",
      "city": "BARCEL",
      "lon": "-7.238582874822611",
      "lat": "41.37437216252477"
    },
    {
      "id": "pt.ine.add.PTCONT.928547",
      "street": "AV REPUBLICA",
      "house": "",
      "postcode": "5370-060",
      "city": "BARCEL",
      "lon": "-7.239423091732206",
      "lat": "41.37499095684922"
    },
    {
      "id": "pt.ine.add.PTCONT.932390",
      "street": "LG TARRINCHA",
      "house": "",
      "postcode": "5370-060",
      "city": "BARCEL",
      "lon": "-7.239416808399642",
      "lat": "41.374576728307844"
    },
    {
      "id": "pt.ine.add.PTCONT.932846",
      "street": "R 25 ABRIL",
      "house": "",
      "postcode": "5370-060",
      "city": "BARCEL",
      "lon": "-7.238540727519812",
      "lat": "41.37483103415133"
    },
    {
      "id": "pt.ine.add.PTCONT.934689",
      "street": "R SA CARNEIRO",
      "house": "",
      "postcode": "5370-060",
      "city": "BARCEL",
      "lon": "-7.239693554788966",
      "lat": "41.37444381872268"
    },
    {
      "id": "pt.ine.add.PTCONT.937794",
      "street": "R S JOÃO",
      "house": "",
      "postcode": "5370-060",
      "city": "BARCEL",
      "lon": "-7.238221104512998",
      "lat": "41.374603451221624"
    },
    {
      "id": "pt.ine.add.PTCONT.949093",
      "street": "R 25 DE ABRIL",
      "house": "",
      "postcode": "5370-060",
      "city": "BARCEL",
      "lon": "-7.238638688228805",
      "lat": "41.374660721436285"
    }
  ]
}