{
  "data": {
    "distrito": "Bragança",
    "concelho": "Mirandela",
    "freguesia": "União das freguesias de Barcel, Marmelos e Valverde da Gestosa",
    "OBJECTID": 444,
    "BGRI2021": "04074000122",
    "DT21": "04",
    "DTMN21": "0407",
    "DTMNFR21": "040740",
    "DTMNFRSEC21": "040740001",
    "SECNUM21": "001",
    "SSNUM21": "22",
    "SECSSNUM21": "00122",
    "OBJECTID_1": 36675,
    "DT": "04",
    "CC": "07",
    "fr": "40",
    "SEC": "001",
    "SS": "22"
  },
  "addresses": [
    {
      "id": "pt.ine.add.PTCONT.852008",
      "street": "R SANTA CATARINA",
      "house": "28",
      "postcode": "5370-160",
      "city": "MARMELOS",
      "lon": "-7.206570659568528",
      "lat": "41.425810003617485"
    },
    {
      "id": "pt.ine.add.PTCONT.868319",
      "street": "R EIRAS",
      "house": "30",
      "postcode": "5370-160",
      "city": "MARMELOS",
      "lon": "-7.206740550419707",
      "lat": "41.42564029920089"
    },
    {
      "id": "pt.ine.add.PTCONT.882482",
      "street": "R DIREITA",
      "house": "246",
      "postcode": "5370-160",
      "city": "MARMELOS",
      "lon": "-7.207237555588089",
      "lat": "41.42602246058305"
    },
    {
      "id": "pt.ine.add.PTCONT.883264",
      "street": "TV RUA DIREITA",
      "house": "14",
      "postcode": "5370-160",
      "city": "MARMELOS",
      "lon": "-7.207634328309148",
      "lat": "41.42588159203495"
    },
    {
      "id": "pt.ine.add.PTCONT.894097",
      "street": "R DIREITA",
      "house": "350",
      "postcode": "5370-160",
      "city": "MARMELOS",
      "lon": "-7.206482449645489",
      "lat": "41.42612442680788"
    },
    {
      "id": "pt.ine.add.PTCONT.897991",
      "street": "R CANTO",
      "house": "23",
      "postcode": "5370-160",
      "city": "MARMELOS",
      "lon": "-7.20681001527953",
      "lat": "41.425802927278355"
    },
    {
      "id": "pt.ine.add.PTCONT.898805",
      "street": "R DIREITA",
      "house": "238",
      "postcode": "5370-160",
      "city": "MARMELOS",
      "lon": "-7.20739382144411",
      "lat": "41.42596969519664"
    },
    {
      "id": "pt.ine.add.PTCONT.908708",
      "street": "R CANTO",
      "house": "15",
      "postcode": "5370-160",
      "city": "MARMELOS",
      "lon": "-7.206715347977559",
      "lat": "41.425730134450625"
    },
    {
      "id": "pt.ine.add.PTCONT.910206",
      "street": "R DIREITA",
      "house": "332",
      "postcode": "5370-160",
      "city": "MARMELOS",
      "lon": "-7.206686306123766",
      "lat": "41.4260900533362"
    },
    {
      "id": "pt.ine.add.PTCONT.918411",
      "street": "R EIRAS",
      "house": "122",
      "postcode": "5370-160",
      "city": "MARMELOS",
      "lon": "-7.207708781298001",
      "lat": "41.42569311074893"
    },
    {
      "id": "pt.ine.add.PTCONT.948017",
      "street": "R CANTO",
      "house": "21",
      "postcode": "5370-160",
      "city": "MARMELOS",
      "lon": "-7.206750208347989",
      "lat": "41.42580244571273"
    }
  ]
}