{
  "data": {
    "distrito": "Bragança",
    "concelho": "Mirandela",
    "freguesia": "União das freguesias de Barcel, Marmelos e Valverde da Gestosa",
    "OBJECTID": 500,
    "BGRI2021": "04074000131",
    "DT21": "04",
    "DTMN21": "0407",
    "DTMNFR21": "040740",
    "DTMNFRSEC21": "040740001",
    "SECNUM21": "001",
    "SSNUM21": "31",
    "SECSSNUM21": "00131",
    "OBJECTID_1": 37424,
    "DT": "04",
    "CC": "07",
    "fr": "40",
    "SEC": "001",
    "SS": "31"
  },
  "addresses": [
    {
      "id": "pt.ine.add.PTCONT.879269",
      "street": "R ESTRADA",
      "house": "3",
      "postcode": "5370-060",
      "city": "BARCEL",
      "lon": "-7.236523815297454",
      "lat": "41.43114350559569"
    },
    {
      "id": "pt.ine.add.PTCONT.881982",
      "street": "R PRINCIPAL",
      "house": "2",
      "postcode": "5370-670",
      "city": "VALVERDE MDL",
      "lon": "-7.237218752447056",
      "lat": "41.43106788517003"
    },
    {
      "id": "pt.ine.add.PTCONT.887948",
      "street": "R ESTRADA",
      "house": "8",
      "postcode": "5370-060",
      "city": "BARCEL",
      "lon": "-7.236935863505172",
      "lat": "41.4307595519081"
    },
    {
      "id": "pt.ine.add.PTCONT.901697",
      "street": "R ESTRADA",
      "house": "6",
      "postcode": "5370-060",
      "city": "BARCEL",
      "lon": "-7.236802048037516",
      "lat": "41.430920578181166"
    },
    {
      "id": "pt.ine.add.PTCONT.912819",
      "street": "R ESTRADA",
      "house": "4",
      "postcode": "5370-060",
      "city": "BARCEL",
      "lon": "-7.236608791233139",
      "lat": "41.43105412962945"
    },
    {
      "id": "pt.ine.add.PTCONT.923629",
      "street": "R MARMELEIRO",
      "house": "16",
      "postcode": "5370-160",
      "city": "MARMELOS",
      "lon": "-7.240152500114619",
      "lat": "41.43349471427979"
    }
  ]
}