{
  "data": {
    "distrito": "Évora",
    "concelho": "Évora",
    "freguesia": "União das freguesias de Bacelo e Senhora da Saúde",
    "OBJECTID": 1636,
    "BGRI2021": "07052200811",
    "DT21": "07",
    "DTMN21": "0705",
    "DTMNFR21": "070522",
    "DTMNFRSEC21": "070522008",
    "SECNUM21": "008",
    "SSNUM21": "11",
    "SECSSNUM21": "00811",
    "OBJECTID_1": 60579,
    "DT": "07",
    "CC": "05",
    "fr": "22",
    "SEC": "008",
    "SS": "11"
  },
  "addresses": [
    {
      "id": "pt.ine.add.PTCONT.1369822",
      "street": "R REDONDO",
      "house": "9",
      "postcode": "7005-440",
      "city": "ÉVORA",
      "lon": "-7.89681199340045",
      "lat": "38.576397746115376"
    },
    {
      "id": "pt.ine.add.PTCONT.1369823",
      "street": "R REDONDO",
      "house": "9",
      "postcode": "7005-440",
      "city": "ÉVORA",
      "lon": "-7.89681199340045",
      "lat": "38.576397746115376"
    },
    {
      "id": "pt.ine.add.PTCONT.1385401",
      "street": "R FLORBELA ESPANCA",
      "house": "5",
      "postcode": "7005-391",
      "city": "ÉVORA",
      "lon": "-7.896460130289787",
      "lat": "38.57659013100681"
    },
    {
      "id": "pt.ine.add.PTCONT.1385402",
      "street": "R FLORBELA ESPANCA",
      "house": "5",
      "postcode": "7005-391",
      "city": "ÉVORA",
      "lon": "-7.896460130289787",
      "lat": "38.57659013100681"
    },
    {
      "id": "pt.ine.add.PTCONT.1389076",
      "street": "R FLORBELA ESPANCA",
      "house": "3",
      "postcode": "7005-391",
      "city": "ÉVORA",
      "lon": "-7.896479827823367",
      "lat": "38.57651508950134"
    },
    {
      "id": "pt.ine.add.PTCONT.1389254",
      "street": "R FLORBELA ESPANCA",
      "house": "3",
      "postcode": "7005-391",
      "city": "ÉVORA",
      "lon": "-7.896479827823367",
      "lat": "38.57651508950134"
    },
    {
      "id": "pt.ine.add.PTCONT.1403085",
      "street": "R VILA VICOSA",
      "house": "7",
      "postcode": "7005-411",
      "city": "ÉVORA",
      "lon": "-7.8968987664451715",
      "lat": "38.576450081637326"
    },
    {
      "id": "pt.ine.add.PTCONT.1403086",
      "street": "R VILA VICOSA",
      "house": "7",
      "postcode": "7005-411",
      "city": "ÉVORA",
      "lon": "-7.8968987664451715",
      "lat": "38.576450081637326"
    },
    {
      "id": "pt.ine.add.PTCONT.1417786",
      "street": "R VILA VICOSA",
      "house": "3",
      "postcode": "7005-411",
      "city": "ÉVORA",
      "lon": "-7.896805668730531",
      "lat": "38.57662520780966"
    },
    {
      "id": "pt.ine.add.PTCONT.1417787",
      "street": "R VILA VICOSA",
      "house": "3",
      "postcode": "7005-411",
      "city": "ÉVORA",
      "lon": "-7.896805668730531",
      "lat": "38.57662520780966"
    },
    {
      "id": "pt.ine.add.PTCONT.1440337",
      "street": "R VILA VICOSA",
      "house": "1",
      "postcode": "7005-411",
      "city": "ÉVORA",
      "lon": "-7.896658670793822",
      "lat": "38.576799416980194"
    },
    {
      "id": "pt.ine.add.PTCONT.1440555",
      "street": "R VILA VICOSA",
      "house": "1",
      "postcode": "7005-411",
      "city": "ÉVORA",
      "lon": "-7.896658670793822",
      "lat": "38.576799416980194"
    },
    {
      "id": "pt.ine.add.PTCONT.1452548",
      "street": "R REDONDO",
      "house": "15",
      "postcode": "7005-440",
      "city": "ÉVORA",
      "lon": "-7.8966137717903635",
      "lat": "38.576328700052485"
    },
    {
      "id": "pt.ine.add.PTCONT.1452844",
      "street": "R REDONDO",
      "house": "01-01-2015",
      "postcode": "7005-440",
      "city": "ÉVORA",
      "lon": "-7.8966137717903635",
      "lat": "38.576328700052485"
    },
    {
      "id": "pt.ine.add.PTCONT.1455663",
      "street": "R DO REDONDO",
      "house": "11-13",
      "postcode": "7005-440",
      "city": "ÉVORA",
      "lon": "-7.896723247390342",
      "lat": "38.576363747627155"
    },
    {
      "id": "pt.ine.add.PTCONT.1455664",
      "street": "R DO REDONDO",
      "house": "11-13",
      "postcode": "7005-440",
      "city": "ÉVORA",
      "lon": "-7.896723247390342",
      "lat": "38.576363747627155"
    },
    {
      "id": "pt.ine.add.PTCONT.1463210",
      "street": "R FLORBELA ESPANCA",
      "house": "7",
      "postcode": "7005-391",
      "city": "ÉVORA",
      "lon": "-7.896523535997848",
      "lat": "38.57679653779434"
    },
    {
      "id": "pt.ine.add.PTCONT.1463211",
      "street": "R FLORBELA ESPANCA",
      "house": "7",
      "postcode": "7005-391",
      "city": "ÉVORA",
      "lon": "-7.896523535997848",
      "lat": "38.57679653779434"
    }
  ]
}