{
  "data": {
    "distrito": "Setúbal",
    "concelho": "Montijo",
    "freguesia": "União das freguesias de Pegões",
    "OBJECTID": 252,
    "BGRI2021": "15071100208",
    "DT21": "15",
    "DTMN21": "1507",
    "DTMNFR21": "150711",
    "DTMNFRSEC21": "150711002",
    "SECNUM21": "002",
    "SSNUM21": "08",
    "SECSSNUM21": "00208",
    "OBJECTID_1": 164999,
    "DT": "15",
    "CC": "07",
    "fr": "11",
    "SEC": "002",
    "SS": "08"
  },
  "addresses": [
    {
      "id": "pt.ine.add.PTCONT.4719133",
      "street": "AV FRANCISCO SA CARNEIRO",
      "house": "388",
      "postcode": "2985-216",
      "city": "PEGÕES",
      "lon": "-8.60750285596848",
      "lat": "38.682886814783146"
    },
    {
      "id": "pt.ine.add.PTCONT.4719134",
      "street": "AV FRANCISCO SA CARNEIRO",
      "house": "388",
      "postcode": "2985-216",
      "city": "PEGÕES",
      "lon": "-8.60750285596848",
      "lat": "38.682886814783146"
    },
    {
      "id": "pt.ine.add.PTCONT.4719135",
      "street": "AV FRANCISCO SA CARNEIRO",
      "house": "388",
      "postcode": "2985-216",
      "city": "PEGÕES",
      "lon": "-8.60750285596848",
      "lat": "38.682886814783146"
    },
    {
      "id": "pt.ine.add.PTCONT.4719136",
      "street": "AV FRANCISCO SA CARNEIRO",
      "house": "388",
      "postcode": "2985-216",
      "city": "PEGÕES",
      "lon": "-8.60750285596848",
      "lat": "38.682886814783146"
    },
    {
      "id": "pt.ine.add.PTCONT.4719137",
      "street": "AV FRANCISCO SA CARNEIRO",
      "house": "388",
      "postcode": "2985-216",
      "city": "PEGÕES",
      "lon": "-8.60750285596848",
      "lat": "38.682886814783146"
    },
    {
      "id": "pt.ine.add.PTCONT.4719138",
      "street": "AV FRANCISCO SA CARNEIRO",
      "house": "388",
      "postcode": "2985-216",
      "city": "PEGÕES",
      "lon": "-8.60750285596848",
      "lat": "38.682886814783146"
    },
    {
      "id": "pt.ine.add.PTCONT.4719139",
      "street": "AV FRANCISCO SA CARNEIRO",
      "house": "388",
      "postcode": "2985-216",
      "city": "PEGÕES",
      "lon": "-8.60750285596848",
      "lat": "38.682886814783146"
    },
    {
      "id": "pt.ine.add.PTCONT.4748998",
      "street": "AV FRANCISCO SA CARNEIRO",
      "house": "",
      "postcode": "2985-216",
      "city": "PEGÕES",
      "lon": "-8.608951423246296",
      "lat": "38.68296200353604"
    },
    {
      "id": "pt.ine.add.PTCONT.4763283",
      "street": "R FORCAS ARMADAS",
      "house": "406",
      "postcode": "2985-224",
      "city": "PEGÕES",
      "lon": "-8.607307367859987",
      "lat": "38.68286959123131"
    },
    {
      "id": "pt.ine.add.PTCONT.4763284",
      "street": "AV FRANCISCO SA CARNEIRO",
      "house": "406",
      "postcode": "2985-216",
      "city": "PEGÕES",
      "lon": "-8.607307367859987",
      "lat": "38.68286959123131"
    },
    {
      "id": "pt.ine.add.PTCONT.4763285",
      "street": "AV FRANCISCO SA CARNEIRO",
      "house": "406",
      "postcode": "2985-216",
      "city": "PEGÕES",
      "lon": "-8.607307367859987",
      "lat": "38.68286959123131"
    },
    {
      "id": "pt.ine.add.PTCONT.4763298",
      "street": "AV FRANCISCO SA CARNEIRO",
      "house": "406",
      "postcode": "2985-216",
      "city": "PEGÕES",
      "lon": "-8.607307367859987",
      "lat": "38.68286959123131"
    },
    {
      "id": "pt.ine.add.PTCONT.4763299",
      "street": "AV FRANCISCO SA CARNEIRO",
      "house": "406",
      "postcode": "2985-216",
      "city": "PEGÕES",
      "lon": "-8.607307367859987",
      "lat": "38.68286959123131"
    },
    {
      "id": "pt.ine.add.PTCONT.4763300",
      "street": "AV FRANCISCO SA CARNEIRO",
      "house": "406",
      "postcode": "2985-216",
      "city": "PEGÕES",
      "lon": "-8.607307367859987",
      "lat": "38.68286959123131"
    },
    {
      "id": "pt.ine.add.PTCONT.4764734",
      "street": "R FORCAS ARMADAS",
      "house": "406",
      "postcode": "2985-224",
      "city": "PEGÕES",
      "lon": "-8.607307367859987",
      "lat": "38.68286959123131"
    },
    {
      "id": "pt.ine.add.PTCONT.4768339",
      "street": "R IGREJA",
      "house": "",
      "postcode": "2985-213",
      "city": "PEGÕES",
      "lon": "-8.608144339479422",
      "lat": "38.680830346790756"
    },
    {
      "id": "pt.ine.add.PTCONT.4783305",
      "street": "R BALTAZARES",
      "house": "",
      "postcode": "2985-216",
      "city": "PEGÕES",
      "lon": "-8.609001427271464",
      "lat": "38.68183577818332"
    },
    {
      "id": "pt.ine.add.PTCONT.4890946",
      "street": "AV FRANCISCO SA CARNEIRO",
      "house": "51",
      "postcode": "2985-216",
      "city": "PEGÕES",
      "lon": "-8.608170243486537",
      "lat": "38.68301022018833"
    },
    {
      "id": "pt.ine.add.PTCONT.4912187",
      "street": "R BALTAZARES",
      "house": "",
      "postcode": "2985-216",
      "city": "PEGÕES",
      "lon": "-8.608965101589218",
      "lat": "38.68155667252778"
    },
    {
      "id": "pt.ine.add.PTCONT.4919423",
      "street": "R IGREJA",
      "house": "",
      "postcode": "2985-213",
      "city": "PEGÕES",
      "lon": "-8.608316599980261",
      "lat": "38.68081163063178"
    },
    {
      "id": "pt.ine.add.PTCONT.5024860",
      "street": "R BALTAZARES",
      "house": "",
      "postcode": "2985-216",
      "city": "PEGÕES",
      "lon": "-8.609000771026652",
      "lat": "38.68173669091695"
    }
  ]
}