{
  "data": {
    "distrito": "Setúbal",
    "concelho": "Montijo",
    "freguesia": "União das freguesias de Pegões",
    "OBJECTID": 309,
    "BGRI2021": "15071100231",
    "DT21": "15",
    "DTMN21": "1507",
    "DTMNFR21": "150711",
    "DTMNFRSEC21": "150711002",
    "SECNUM21": "002",
    "SSNUM21": "31",
    "SECSSNUM21": "00231",
    "OBJECTID_1": 164688,
    "DT": "15",
    "CC": "07",
    "fr": "11",
    "SEC": "002",
    "SS": "31"
  },
  "addresses": [
    {
      "id": "pt.ine.add.PTCONT.4744900",
      "street": "R ALPENDURADAS",
      "house": "",
      "postcode": "2985-204",
      "city": "PEGÕES",
      "lon": "-8.624800494074393",
      "lat": "38.69818328854115"
    },
    {
      "id": "pt.ine.add.PTCONT.4770731",
      "street": "R 5 DE OUTUBRO",
      "house": "",
      "postcode": "2985-204",
      "city": "PEGÕES",
      "lon": "-8.61879730065828",
      "lat": "38.69607344472841"
    },
    {
      "id": "pt.ine.add.PTCONT.4787909",
      "street": "R 5 DE OUTUBRO",
      "house": "",
      "postcode": "2985-204",
      "city": "PEGÕES",
      "lon": "-8.618897786197683",
      "lat": "38.6973341683789"
    },
    {
      "id": "pt.ine.add.PTCONT.4858337",
      "street": "R FRANCISCO LUCRECIO QTA DE N SRA DE FÁTIMA",
      "house": "",
      "postcode": "2985-204",
      "city": "PEGÕES",
      "lon": "-8.623163878586688",
      "lat": "38.697550580144764"
    },
    {
      "id": "pt.ine.add.PTCONT.4887177",
      "street": "R 5 DE OUTUBRO",
      "house": "",
      "postcode": "2985-204",
      "city": "PEGÕES",
      "lon": "-8.618713628976183",
      "lat": "38.697298900664784"
    },
    {
      "id": "pt.ine.add.PTCONT.4917141",
      "street": "R FRANCISCO LUCRECIO",
      "house": "",
      "postcode": "2985-204",
      "city": "PEGÕES",
      "lon": "-8.624674263346366",
      "lat": "38.696535328230496"
    },
    {
      "id": "pt.ine.add.PTCONT.4923550",
      "street": "R FRANCISCO LUCRECIO",
      "house": "",
      "postcode": "2985-204",
      "city": "PEGÕES",
      "lon": "-8.624673708444815",
      "lat": "38.69645425722287"
    },
    {
      "id": "pt.ine.add.PTCONT.4947531",
      "street": "R FRANCISCO LUCRECIO",
      "house": "",
      "postcode": "2985-204",
      "city": "PEGÕES",
      "lon": "-8.624077598222824",
      "lat": "38.696690973373954"
    },
    {
      "id": "pt.ine.add.PTCONT.5022155",
      "street": "R FRANCISCO LUCRECIO QTA MALU",
      "house": "",
      "postcode": "2985-204",
      "city": "PEGÕES",
      "lon": "-8.624378241828557",
      "lat": "38.69695094704457"
    },
    {
      "id": "pt.ine.add.PTCONT.5061284",
      "street": "R FRANCISCO LUCRECIO",
      "house": "",
      "postcode": "2985-204",
      "city": "PEGÕES",
      "lon": "-8.624697930515804",
      "lat": "38.69663431837745"
    },
    {
      "id": "pt.ine.add.PTCONT.5061285",
      "street": "R FRANCISCO LUCRECIO",
      "house": "",
      "postcode": "2985-204",
      "city": "PEGÕES",
      "lon": "-8.624697930515804",
      "lat": "38.69663431837745"
    }
  ]
}