{
  "data": {
    "distrito": "Leiria",
    "concelho": "Leiria",
    "freguesia": "União das freguesias de Parceiros e Azoia",
    "OBJECTID": 2211,
    "BGRI2021": "10093700611",
    "DT21": "10",
    "DTMN21": "1009",
    "DTMNFR21": "100937",
    "DTMNFRSEC21": "100937006",
    "SECNUM21": "006",
    "SSNUM21": "11",
    "SECSSNUM21": "00611",
    "OBJECTID_1": 90723,
    "DT": "10",
    "CC": "09",
    "fr": "37",
    "SEC": "006",
    "SS": "11"
  },
  "addresses": [
    {
      "id": "pt.ine.add.PTCONT.1997834",
      "street": "R CABEÇO",
      "house": "19",
      "postcode": "2400-432",
      "city": "LEIRIA",
      "lon": "-8.866294473368367",
      "lat": "39.72868357895194"
    },
    {
      "id": "pt.ine.add.PTCONT.2028932",
      "street": "R QUINTA DO PORTO",
      "house": "409",
      "postcode": "2400-432",
      "city": "LEIRIA",
      "lon": "-8.865522969977844",
      "lat": "39.72852633221196"
    },
    {
      "id": "pt.ine.add.PTCONT.2055503",
      "street": "R MARINHA GRANDE",
      "house": "",
      "postcode": "2400-432",
      "city": "LEIRIA",
      "lon": "-8.869912829978581",
      "lat": "39.732200217220004"
    },
    {
      "id": "pt.ine.add.PTCONT.2055504",
      "street": "R MARINHA GRANDE",
      "house": "",
      "postcode": "2400-432",
      "city": "LEIRIA",
      "lon": "-8.869912829978581",
      "lat": "39.732200217220004"
    },
    {
      "id": "pt.ine.add.PTCONT.2068396",
      "street": "R CABEÇO",
      "house": "60",
      "postcode": "2400-432",
      "city": "LEIRIA",
      "lon": "-8.865783474057572",
      "lat": "39.728893954284516"
    },
    {
      "id": "pt.ine.add.PTCONT.2155966",
      "street": "R PRINCIPAL",
      "house": "465",
      "postcode": "2400-432",
      "city": "LEIRIA",
      "lon": "-8.864861106076843",
      "lat": "39.72880970708625"
    },
    {
      "id": "pt.ine.add.PTCONT.2164690",
      "street": "R MARINHA GRANDE",
      "house": "607",
      "postcode": "2400-432",
      "city": "LEIRIA",
      "lon": "-8.870289532666282",
      "lat": "39.73252205888507"
    },
    {
      "id": "pt.ine.add.PTCONT.2224366",
      "street": "R QUINTA DO PORTO",
      "house": "377",
      "postcode": "2400-432",
      "city": "LEIRIA",
      "lon": "-8.865848592553343",
      "lat": "39.728434212542695"
    },
    {
      "id": "pt.ine.add.PTCONT.2228264",
      "street": "R PRINCIPAL",
      "house": "463",
      "postcode": "2400-432",
      "city": "LEIRIA",
      "lon": "-8.865000496421143",
      "lat": "39.72875478946802"
    },
    {
      "id": "pt.ine.add.PTCONT.2259540",
      "street": "R QUINTA DO PORTO",
      "house": "391",
      "postcode": "2400-432",
      "city": "LEIRIA",
      "lon": "-8.865673831999954",
      "lat": "39.728453328439066"
    }
  ]
}