{
  "data": {
    "distrito": "Leiria",
    "concelho": "Pombal",
    "freguesia": "Vermoil",
    "OBJECTID": 2603,
    "BGRI2021": "10151300227",
    "DT21": "10",
    "DTMN21": "1015",
    "DTMNFR21": "101513",
    "DTMNFRSEC21": "101513002",
    "SECNUM21": "002",
    "SSNUM21": "27",
    "SECSSNUM21": "00227",
    "OBJECTID_1": 95552,
    "DT": "10",
    "CC": "15",
    "fr": "13",
    "SEC": "002",
    "SS": "27"
  },
  "addresses": [
    {
      "id": "pt.ine.add.PTCONT.2001671",
      "street": "R DO VALE CARRINHO",
      "house": "31",
      "postcode": "3105-423",
      "city": "VERMOIL",
      "lon": "-8.670449237021367",
      "lat": "39.83077537657544"
    },
    {
      "id": "pt.ine.add.PTCONT.2075590",
      "street": "R ESPERANÃ‡A",
      "house": "",
      "postcode": "3105-357",
      "city": "VERMOIL",
      "lon": "-8.66275318609019",
      "lat": "39.827709007435054"
    },
    {
      "id": "pt.ine.add.PTCONT.2085092",
      "street": "R LAVANDEIRA",
      "house": "3",
      "postcode": "3105-423",
      "city": "VERMOIL",
      "lon": "-8.671230689613669",
      "lat": "39.83032688305101"
    },
    {
      "id": "pt.ine.add.PTCONT.2220014",
      "street": "R LAVANDEIRA",
      "house": "1",
      "postcode": "3105-423",
      "city": "VERMOIL",
      "lon": "-8.67164058180689",
      "lat": "39.83046007700922"
    },
    {
      "id": "pt.ine.add.PTCONT.2242672",
      "street": "R SOL",
      "house": "",
      "postcode": "3105-357",
      "city": "VERMOIL",
      "lon": "-8.662121671689285",
      "lat": "39.82761281826759"
    }
  ]
}