{
  "data": {
    "distrito": "Leiria",
    "concelho": "Pombal",
    "freguesia": "Louriçal",
    "OBJECTID": 1529,
    "BGRI2021": "10150600232",
    "DT21": "10",
    "DTMN21": "1015",
    "DTMNFR21": "101506",
    "DTMNFRSEC21": "101506002",
    "SECNUM21": "002",
    "SSNUM21": "32",
    "SECSSNUM21": "00232",
    "OBJECTID_1": 95637,
    "DT": "10",
    "CC": "15",
    "fr": "06",
    "SEC": "002",
    "SS": "32"
  },
  "addresses": [
    {
      "id": "pt.ine.add.PTCONT.2079805",
      "street": "R BOMBEIROS VOLUNTARIOS",
      "house": "2",
      "postcode": "3105-165",
      "city": "LOURIÇAL",
      "lon": "-8.734410396134878",
      "lat": "40.00089206692912"
    },
    {
      "id": "pt.ine.add.PTCONT.2082954",
      "street": "R BOMBEIROS VOLUNTARIOS",
      "house": "18",
      "postcode": "3105-165",
      "city": "LOURIÇAL",
      "lon": "-8.735524186703813",
      "lat": "40.00103938677944"
    },
    {
      "id": "pt.ine.add.PTCONT.2082955",
      "street": "R BOMBEIROS VOLUNTARIOS",
      "house": "18",
      "postcode": "3105-165",
      "city": "LOURIÇAL",
      "lon": "-8.735524186703813",
      "lat": "40.00103938677944"
    },
    {
      "id": "pt.ine.add.PTCONT.2089012",
      "street": "R MISERICÓRDIA",
      "house": "10",
      "postcode": "3105-165",
      "city": "LOURIÇAL",
      "lon": "-8.736869068752084",
      "lat": "40.003491055774795"
    },
    {
      "id": "pt.ine.add.PTCONT.2105465",
      "street": "R LOUREIROS",
      "house": "",
      "postcode": "3105-165",
      "city": "LOURIÇAL",
      "lon": "-8.733757309708752",
      "lat": "40.005209378865494"
    },
    {
      "id": "pt.ine.add.PTCONT.2147797",
      "street": "R BOMBEIROS VOLUNTARIOS",
      "house": "6",
      "postcode": "3105-165",
      "city": "LOURIÇAL",
      "lon": "-8.73470322391619",
      "lat": "40.00089955339442"
    },
    {
      "id": "pt.ine.add.PTCONT.2172751",
      "street": "R MISERICÓRDIA",
      "house": "",
      "postcode": "3105-165",
      "city": "LOURIÇAL",
      "lon": "-8.73546492984015",
      "lat": "40.00362444773484"
    },
    {
      "id": "pt.ine.add.PTCONT.2209719",
      "street": "R CONVENTO",
      "house": "2",
      "postcode": "3105-165",
      "city": "LOURIÇAL",
      "lon": "-8.736690478641023",
      "lat": "40.003158760096404"
    },
    {
      "id": "pt.ine.add.PTCONT.2226993",
      "street": "R LOUREIROS",
      "house": "",
      "postcode": "3105-165",
      "city": "LOURIÇAL",
      "lon": "-8.733277329143872",
      "lat": "40.00522987771717"
    },
    {
      "id": "pt.ine.add.PTCONT.2244129",
      "street": "R BOMBEIROS VOLUNTARIOS",
      "house": "10",
      "postcode": "3105-165",
      "city": "LOURIÇAL",
      "lon": "-8.734926029240142",
      "lat": "40.000934421079734"
    },
    {
      "id": "pt.ine.add.PTCONT.2262216",
      "street": "R MADRE MARIA DO LADO",
      "house": "21",
      "postcode": "3105-165",
      "city": "LOURIÇAL",
      "lon": "-8.736607237624915",
      "lat": "40.0030150958866"
    },
    {
      "id": "pt.ine.add.PTCONT.2268398",
      "street": "R LOUREIROS",
      "house": "",
      "postcode": "3105-165",
      "city": "LOURIÇAL",
      "lon": "-8.733932417411653",
      "lat": "40.00514542845956"
    }
  ]
}