{
  "data": {
    "distrito": "Porto",
    "concelho": "Marco de Canaveses",
    "freguesia": "Paredes de Viadores e Manhuncelos",
    "OBJECTID": 869,
    "BGRI2021": "13073700125",
    "DT21": "13",
    "DTMN21": "1307",
    "DTMNFR21": "130737",
    "DTMNFRSEC21": "130737001",
    "SECNUM21": "001",
    "SSNUM21": "25",
    "SECSSNUM21": "00125",
    "OBJECTID_1": 131673,
    "DT": "13",
    "CC": "07",
    "fr": "37",
    "SEC": "001",
    "SS": "25"
  },
  "addresses": [
    {
      "id": "pt.ine.add.PTCONT.3624951",
      "street": "R FERREIRO",
      "house": "87",
      "postcode": "4630-539",
      "city": "PAREDES DE VIADORES",
      "lon": "-8.113289869603804",
      "lat": "41.13592154060843"
    },
    {
      "id": "pt.ine.add.PTCONT.3644223",
      "street": "R TUNEL DO JUNCAL",
      "house": "794",
      "postcode": "4630-566",
      "city": "PAREDES DE VIADORES",
      "lon": "-8.115326164490158",
      "lat": "41.137173487540004"
    },
    {
      "id": "pt.ine.add.PTCONT.3741236",
      "street": "R ASSOC C R D DE PAREDES DE VIADORES",
      "house": "84",
      "postcode": "4630-587",
      "city": "PAREDES DE VIADORES",
      "lon": "-8.113135122534516",
      "lat": "41.135642376772985"
    },
    {
      "id": "pt.ine.add.PTCONT.3749817",
      "street": "R FERREIRO",
      "house": "211",
      "postcode": "4630-539",
      "city": "PAREDES DE VIADORES",
      "lon": "-8.115171553019161",
      "lat": "41.13635406122565"
    },
    {
      "id": "pt.ine.add.PTCONT.3760753",
      "street": "TV CASA DO JUNCAL",
      "house": "15",
      "postcode": "4630-587",
      "city": "PAREDES DE VIADORES",
      "lon": "-8.113838133660972",
      "lat": "41.13456196563672"
    },
    {
      "id": "pt.ine.add.PTCONT.3825519",
      "street": "R TUNEL DO JUNCAL",
      "house": "820",
      "postcode": "4630-566",
      "city": "PAREDES DE VIADORES",
      "lon": "-8.116231231864283",
      "lat": "41.137641853548395"
    },
    {
      "id": "pt.ine.add.PTCONT.3890521",
      "street": "R ASSOC C R D DE PAREDES DE VIADORES",
      "house": "31",
      "postcode": "4630-587",
      "city": "PAREDES DE VIADORES",
      "lon": "-8.112968486022304",
      "lat": "41.13530017967302"
    },
    {
      "id": "pt.ine.add.PTCONT.3939181",
      "street": "R CASA DO JUNCAL",
      "house": "333",
      "postcode": "4630-587",
      "city": "PAREDES DE VIADORES",
      "lon": "-8.11415978095693",
      "lat": "41.13428288181432"
    },
    {
      "id": "pt.ine.add.PTCONT.3999222",
      "street": "R FERREIRO",
      "house": "185",
      "postcode": "4630-539",
      "city": "PAREDES DE VIADORES",
      "lon": "-8.114111562328342",
      "lat": "41.136290860354606"
    },
    {
      "id": "pt.ine.add.PTCONT.4009415",
      "street": "R FERREIRO",
      "house": "3",
      "postcode": "4630-539",
      "city": "PAREDES DE VIADORES",
      "lon": "-8.11262306178836",
      "lat": "41.135408171850116"
    },
    {
      "id": "pt.ine.add.PTCONT.4017852",
      "street": "R FERREIRO",
      "house": "211",
      "postcode": "4630-539",
      "city": "PAREDES DE VIADORES",
      "lon": "-8.115064331499863",
      "lat": "41.1364620975446"
    },
    {
      "id": "pt.ine.add.PTCONT.4215583",
      "street": "TV CASA DO JUNCAL",
      "house": "58",
      "postcode": "4630-587",
      "city": "PAREDES DE VIADORES",
      "lon": "-8.113576070722676",
      "lat": "41.134714996722494"
    }
  ]
}