{
  "data": {
    "distrito": "Santarém",
    "concelho": "Ourém",
    "freguesia": "Fátima",
    "OBJECTID": 125,
    "BGRI2021": "14210600107",
    "DT21": "14",
    "DTMN21": "1421",
    "DTMNFR21": "142106",
    "DTMNFRSEC21": "142106001",
    "SECNUM21": "001",
    "SSNUM21": "07",
    "SECSSNUM21": "00107",
    "OBJECTID_1": 158380,
    "DT": "14",
    "CC": "21",
    "fr": "06",
    "SEC": "001",
    "SS": "07"
  },
  "addresses": [
    {
      "id": "pt.ine.add.PTCONT.4399292",
      "street": "R MONSENHOR JOAQUIM ALVES BRÁS",
      "house": "",
      "postcode": "2495-452",
      "city": "FÁTIMA",
      "lon": "-8.66596192124319",
      "lat": "39.63027976884385"
    },
    {
      "id": "pt.ine.add.PTCONT.4423926",
      "street": "AV BEATO NUNO",
      "house": "129",
      "postcode": "2495-401",
      "city": "FÁTIMA",
      "lon": "-8.666409223301844",
      "lat": "39.63089017185854"
    },
    {
      "id": "pt.ine.add.PTCONT.4481627",
      "street": "R S VICENTE DE PAULO",
      "house": "26",
      "postcode": "2495-438",
      "city": "FÁTIMA",
      "lon": "-8.666988412080517",
      "lat": "39.630473203236605"
    },
    {
      "id": "pt.ine.add.PTCONT.4481881",
      "street": "AV BEATO NUNO",
      "house": "125",
      "postcode": "2495-401",
      "city": "FÁTIMA",
      "lon": "-8.665768198264562",
      "lat": "39.63083907273403"
    },
    {
      "id": "pt.ine.add.PTCONT.4483957",
      "street": "R S VICENTE DE PAULO",
      "house": "28",
      "postcode": "2495-438",
      "city": "FÁTIMA",
      "lon": "-8.667304761925008",
      "lat": "39.63071492982811"
    },
    {
      "id": "pt.ine.add.PTCONT.4487321",
      "street": "R MONSENHOR JOAQUIM ALVES BRÁS",
      "house": "2",
      "postcode": "2495-452",
      "city": "FÁTIMA",
      "lon": "-8.665272587648937",
      "lat": "39.63000372100597"
    },
    {
      "id": "pt.ine.add.PTCONT.4487322",
      "street": "R MONSENHOR JOAQUIM ALVES BRÁS",
      "house": "2",
      "postcode": "2495-452",
      "city": "FÁTIMA",
      "lon": "-8.665272587648937",
      "lat": "39.63000372100597"
    },
    {
      "id": "pt.ine.add.PTCONT.4487323",
      "street": "R MONSENHOR JOAQUIM ALVES BRÁS",
      "house": "2",
      "postcode": "2495-452",
      "city": "FÁTIMA",
      "lon": "-8.665272587648937",
      "lat": "39.63000372100597"
    },
    {
      "id": "pt.ine.add.PTCONT.4487324",
      "street": "R MONSENHOR JOAQUIM ALVES BRÁS",
      "house": "2",
      "postcode": "2495-452",
      "city": "FÁTIMA",
      "lon": "-8.665272587648937",
      "lat": "39.63000372100597"
    },
    {
      "id": "pt.ine.add.PTCONT.4487325",
      "street": "R MONSENHOR JOAQUIM ALVES BRÁS",
      "house": "2",
      "postcode": "2495-452",
      "city": "FÁTIMA",
      "lon": "-8.665272587648937",
      "lat": "39.63000372100597"
    },
    {
      "id": "pt.ine.add.PTCONT.4487326",
      "street": "R MONSENHOR JOAQUIM ALVES BRÁS",
      "house": "2",
      "postcode": "2495-452",
      "city": "FÁTIMA",
      "lon": "-8.665272587648937",
      "lat": "39.63000372100597"
    },
    {
      "id": "pt.ine.add.PTCONT.4487327",
      "street": "R MONSENHOR JOAQUIM ALVES BRÁS",
      "house": "2",
      "postcode": "2495-452",
      "city": "FÁTIMA",
      "lon": "-8.665272587648937",
      "lat": "39.63000372100597"
    },
    {
      "id": "pt.ine.add.PTCONT.4487328",
      "street": "R MONSENHOR JOAQUIM ALVES BRÁS",
      "house": "2",
      "postcode": "2495-452",
      "city": "FÁTIMA",
      "lon": "-8.665272587648937",
      "lat": "39.63000372100597"
    },
    {
      "id": "pt.ine.add.PTCONT.4487329",
      "street": "R MONSENHOR JOAQUIM ALVES BRÁS",
      "house": "2",
      "postcode": "2495-452",
      "city": "FÁTIMA",
      "lon": "-8.665272587648937",
      "lat": "39.63000372100597"
    },
    {
      "id": "pt.ine.add.PTCONT.4497990",
      "street": "R S VICENTE DE PAULO",
      "house": "20",
      "postcode": "2495-438",
      "city": "FÁTIMA",
      "lon": "-8.666902381376785",
      "lat": "39.629888163017"
    },
    {
      "id": "pt.ine.add.PTCONT.4498776",
      "street": "R S VICENTE DE PAULO",
      "house": "20",
      "postcode": "2495-438",
      "city": "FÁTIMA",
      "lon": "-8.666902381376785",
      "lat": "39.629888163017"
    },
    {
      "id": "pt.ine.add.PTCONT.4507504",
      "street": "AV BEATO NUNO",
      "house": "107",
      "postcode": "2495-401",
      "city": "FÁTIMA",
      "lon": "-8.665296986378099",
      "lat": "39.63014771645875"
    },
    {
      "id": "pt.ine.add.PTCONT.4507505",
      "street": "AV BEATO NUNO",
      "house": "107",
      "postcode": "2495-401",
      "city": "FÁTIMA",
      "lon": "-8.665296986378099",
      "lat": "39.63014771645875"
    },
    {
      "id": "pt.ine.add.PTCONT.4507506",
      "street": "AV BEATO NUNO",
      "house": "107",
      "postcode": "2495-401",
      "city": "FÁTIMA",
      "lon": "-8.665296986378099",
      "lat": "39.63014771645875"
    },
    {
      "id": "pt.ine.add.PTCONT.4507507",
      "street": "AV BEATO NUNO",
      "house": "107",
      "postcode": "2495-401",
      "city": "FÁTIMA",
      "lon": "-8.665296986378099",
      "lat": "39.63014771645875"
    },
    {
      "id": "pt.ine.add.PTCONT.4507508",
      "street": "AV BEATO NUNO",
      "house": "107",
      "postcode": "2495-401",
      "city": "FÁTIMA",
      "lon": "-8.665296986378099",
      "lat": "39.63014771645875"
    },
    {
      "id": "pt.ine.add.PTCONT.4591694",
      "street": "R S JOÃO DE DEUS",
      "house": "6",
      "postcode": "2495-456",
      "city": "FÁTIMA",
      "lon": "-8.66654370906285",
      "lat": "39.63171817072529"
    },
    {
      "id": "pt.ine.add.PTCONT.4592978",
      "street": "AV BEATO NUNO",
      "house": "115",
      "postcode": "2495-401",
      "city": "FÁTIMA",
      "lon": "-8.665390993337542",
      "lat": "39.63025536616902"
    },
    {
      "id": "pt.ine.add.PTCONT.4592979",
      "street": "AV BEATO NUNO",
      "house": "115",
      "postcode": "2495-401",
      "city": "FÁTIMA",
      "lon": "-8.665390993337542",
      "lat": "39.63025536616902"
    },
    {
      "id": "pt.ine.add.PTCONT.4592980",
      "street": "AV BEATO NUNO",
      "house": "115",
      "postcode": "2495-401",
      "city": "FÁTIMA",
      "lon": "-8.665390993337542",
      "lat": "39.63025536616902"
    },
    {
      "id": "pt.ine.add.PTCONT.4592981",
      "street": "AV BEATO NUNO",
      "house": "115",
      "postcode": "2495-401",
      "city": "FÁTIMA",
      "lon": "-8.665390993337542",
      "lat": "39.63025536616902"
    },
    {
      "id": "pt.ine.add.PTCONT.4593747",
      "street": "AV BEATO NUNO",
      "house": "115",
      "postcode": "2495-401",
      "city": "FÁTIMA",
      "lon": "-8.665390993337542",
      "lat": "39.63025536616902"
    },
    {
      "id": "pt.ine.add.PTCONT.4593881",
      "street": "AV BEATO NUNO",
      "house": "115",
      "postcode": "2495-401",
      "city": "FÁTIMA",
      "lon": "-8.665390993337542",
      "lat": "39.63025536616902"
    },
    {
      "id": "pt.ine.add.PTCONT.4657935",
      "street": "AV BEATO NUNO",
      "house": "107",
      "postcode": "2495-401",
      "city": "FÁTIMA",
      "lon": "-8.665296986378099",
      "lat": "39.63014771645875"
    }
  ]
}