{
  "data": {
    "distrito": "Coimbra",
    "concelho": "Mira",
    "freguesia": "Praia de Mira",
    "OBJECTID": 98,
    "BGRI2021": "06080400101",
    "DT21": "06",
    "DTMN21": "0608",
    "DTMNFR21": "060804",
    "DTMNFRSEC21": "060804001",
    "SECNUM21": "001",
    "SSNUM21": "01",
    "SECSSNUM21": "00101",
    "OBJECTID_1": 53066,
    "DT": "06",
    "CC": "08",
    "fr": "04",
    "SEC": "001",
    "SS": "01"
  },
  "addresses": [
    {
      "id": "pt.ine.add.PTCONT.1124981",
      "street": "R FURRIEL HENRIQUE DA COSTA",
      "house": "",
      "postcode": "3070-799",
      "city": "PRAIA DE MIRA",
      "lon": "-8.802910621696597",
      "lat": "40.45235252614062"
    },
    {
      "id": "pt.ine.add.PTCONT.1126409",
      "street": "R FURRIEL HENRIQUE DA COSTA",
      "house": "",
      "postcode": "3070-799",
      "city": "PRAIA DE MIRA",
      "lon": "-8.802910621696597",
      "lat": "40.45235252614062"
    },
    {
      "id": "pt.ine.add.PTCONT.1156430",
      "street": "R ELÍSIO MOURA",
      "house": "",
      "postcode": "3070-812",
      "city": "PRAIA DE MIRA",
      "lon": "-8.80289053309972",
      "lat": "40.45270385290985"
    },
    {
      "id": "pt.ine.add.PTCONT.1156431",
      "street": "R ELÍSIO MOURA",
      "house": "",
      "postcode": "3070-812",
      "city": "PRAIA DE MIRA",
      "lon": "-8.80289053309972",
      "lat": "40.45270385290985"
    },
    {
      "id": "pt.ine.add.PTCONT.1156433",
      "street": "R ELÍSIO MOURA",
      "house": "",
      "postcode": "3070-812",
      "city": "PRAIA DE MIRA",
      "lon": "-8.80289053309972",
      "lat": "40.45270385290985"
    },
    {
      "id": "pt.ine.add.PTCONT.1156434",
      "street": "R ELÍSIO MOURA",
      "house": "",
      "postcode": "3070-812",
      "city": "PRAIA DE MIRA",
      "lon": "-8.80289053309972",
      "lat": "40.45270385290985"
    },
    {
      "id": "pt.ine.add.PTCONT.1156435",
      "street": "R ELÍSIO MOURA",
      "house": "",
      "postcode": "3070-812",
      "city": "PRAIA DE MIRA",
      "lon": "-8.80289053309972",
      "lat": "40.45270385290985"
    },
    {
      "id": "pt.ine.add.PTCONT.1156436",
      "street": "R ELÍSIO MOURA",
      "house": "",
      "postcode": "3070-812",
      "city": "PRAIA DE MIRA",
      "lon": "-8.80289053309972",
      "lat": "40.45270385290985"
    },
    {
      "id": "pt.ine.add.PTCONT.1156437",
      "street": "R ELÍSIO MOURA",
      "house": "",
      "postcode": "3070-812",
      "city": "PRAIA DE MIRA",
      "lon": "-8.80289053309972",
      "lat": "40.45270385290985"
    },
    {
      "id": "pt.ine.add.PTCONT.1156438",
      "street": "R ELÍSIO MOURA",
      "house": "",
      "postcode": "3070-812",
      "city": "PRAIA DE MIRA",
      "lon": "-8.80289053309972",
      "lat": "40.45270385290985"
    },
    {
      "id": "pt.ine.add.PTCONT.1195379",
      "street": "R ELÍSIO MOURA",
      "house": "",
      "postcode": "3070-812",
      "city": "PRAIA DE MIRA",
      "lon": "-8.802321767963804",
      "lat": "40.45240996907613"
    },
    {
      "id": "pt.ine.add.PTCONT.1195380",
      "street": "R ELÍSIO MOURA",
      "house": "",
      "postcode": "3070-812",
      "city": "PRAIA DE MIRA",
      "lon": "-8.802321767963804",
      "lat": "40.45240996907613"
    },
    {
      "id": "pt.ine.add.PTCONT.1195381",
      "street": "R ELÍSIO MOURA",
      "house": "",
      "postcode": "3070-812",
      "city": "PRAIA DE MIRA",
      "lon": "-8.802321767963804",
      "lat": "40.45240996907613"
    },
    {
      "id": "pt.ine.add.PTCONT.1195382",
      "street": "R ELÍSIO MOURA",
      "house": "",
      "postcode": "3070-812",
      "city": "PRAIA DE MIRA",
      "lon": "-8.802321767963804",
      "lat": "40.45240996907613"
    },
    {
      "id": "pt.ine.add.PTCONT.1195383",
      "street": "R ELÍSIO MOURA",
      "house": "",
      "postcode": "3070-812",
      "city": "PRAIA DE MIRA",
      "lon": "-8.802321767963804",
      "lat": "40.45240996907613"
    },
    {
      "id": "pt.ine.add.PTCONT.1195384",
      "street": "R ELÍSIO MOURA",
      "house": "",
      "postcode": "3070-812",
      "city": "PRAIA DE MIRA",
      "lon": "-8.802321767963804",
      "lat": "40.45240996907613"
    },
    {
      "id": "pt.ine.add.PTCONT.1235141",
      "street": "AV ARRAIS BATISTA CERA",
      "house": "",
      "postcode": "3070-791",
      "city": "PRAIA DE MIRA",
      "lon": "-8.803186302870296",
      "lat": "40.45281020348753"
    },
    {
      "id": "pt.ine.add.PTCONT.1249222",
      "street": "R ANTÓNIO JOSÉ HENRIQUES DA COSTA",
      "house": "51",
      "postcode": "3070-799",
      "city": "PRAIA DE MIRA",
      "lon": "-8.80232891037605",
      "lat": "40.451941647197124"
    },
    {
      "id": "pt.ine.add.PTCONT.1249223",
      "street": "R ANTÓNIO JOSÉ HENRIQUES DA COSTA",
      "house": "51",
      "postcode": "3070-799",
      "city": "PRAIA DE MIRA",
      "lon": "-8.80232891037605",
      "lat": "40.451941647197124"
    },
    {
      "id": "pt.ine.add.PTCONT.1249224",
      "street": "R ANTÓNIO JOSÉ HENRIQUES DA COSTA",
      "house": "51",
      "postcode": "3070-799",
      "city": "PRAIA DE MIRA",
      "lon": "-8.80232891037605",
      "lat": "40.451941647197124"
    },
    {
      "id": "pt.ine.add.PTCONT.1249225",
      "street": "R ANTÓNIO JOSÉ HENRIQUES DA COSTA",
      "house": "51",
      "postcode": "3070-799",
      "city": "PRAIA DE MIRA",
      "lon": "-8.80232891037605",
      "lat": "40.451941647197124"
    },
    {
      "id": "pt.ine.add.PTCONT.1264007",
      "street": "AV DA BARRINHA",
      "house": "51",
      "postcode": "3070-792",
      "city": "PRAIA DE MIRA",
      "lon": "-8.802224339298029",
      "lat": "40.45209534426747"
    },
    {
      "id": "pt.ine.add.PTCONT.1264008",
      "street": "AV DA BARRINHA",
      "house": "51",
      "postcode": "3070-792",
      "city": "PRAIA DE MIRA",
      "lon": "-8.802224339298029",
      "lat": "40.45209534426747"
    },
    {
      "id": "pt.ine.add.PTCONT.1292454",
      "street": "R ELÍSIO MOURA",
      "house": "",
      "postcode": "3070-812",
      "city": "PRAIA DE MIRA",
      "lon": "-8.802712910784793",
      "lat": "40.45262383341831"
    },
    {
      "id": "pt.ine.add.PTCONT.1314371",
      "street": "R FURRIEL HENRIQUE DA COSTA",
      "house": "",
      "postcode": "3070-792",
      "city": "PRAIA DE MIRA",
      "lon": "-8.802471882047996",
      "lat": "40.452093911106346"
    },
    {
      "id": "pt.ine.add.PTCONT.1315049",
      "street": "AV DA BARRINHA",
      "house": "51",
      "postcode": "3070-792",
      "city": "PRAIA DE MIRA",
      "lon": "-8.802070562742841",
      "lat": "40.45204220192737"
    },
    {
      "id": "pt.ine.add.PTCONT.1315050",
      "street": "AV DA BARRINHA",
      "house": "51",
      "postcode": "3070-792",
      "city": "PRAIA DE MIRA",
      "lon": "-8.802070562742841",
      "lat": "40.45204220192737"
    },
    {
      "id": "pt.ine.add.PTCONT.1315051",
      "street": "AV DA BARRINHA",
      "house": "51",
      "postcode": "3070-792",
      "city": "PRAIA DE MIRA",
      "lon": "-8.802070562742841",
      "lat": "40.45204220192737"
    },
    {
      "id": "pt.ine.add.PTCONT.1315052",
      "street": "AV DA BARRINHA",
      "house": "51",
      "postcode": "3070-792",
      "city": "PRAIA DE MIRA",
      "lon": "-8.802070562742841",
      "lat": "40.45204220192737"
    },
    {
      "id": "pt.ine.add.PTCONT.1315075",
      "street": "AV DA BARRINHA",
      "house": "51",
      "postcode": "3070-792",
      "city": "PRAIA DE MIRA",
      "lon": "-8.802070562742841",
      "lat": "40.45204220192737"
    },
    {
      "id": "pt.ine.add.PTCONT.1322414",
      "street": "R ELÍSIO MOURA",
      "house": "",
      "postcode": "3070-812",
      "city": "PRAIA DE MIRA",
      "lon": "-8.80248778015036",
      "lat": "40.452508067194614"
    },
    {
      "id": "pt.ine.add.PTCONT.1335597",
      "street": "R ANTÓNIO JOSÉ HENRIQUES DA COSTA",
      "house": "",
      "postcode": "3070-799",
      "city": "PRAIA DE MIRA",
      "lon": "-8.803313911719416",
      "lat": "40.452602339636336"
    },
    {
      "id": "pt.ine.add.PTCONT.1350093",
      "street": "R ELÍSIO MOURA",
      "house": "",
      "postcode": "3070-812",
      "city": "PRAIA DE MIRA",
      "lon": "-8.802155399013179",
      "lat": "40.45227585120278"
    }
  ]
}