{
  "data": {
    "distrito": "Viseu",
    "concelho": "São Pedro do Sul",
    "freguesia": "União das freguesias de Carvalhais e Candal",
    "OBJECTID": 306,
    "BGRI2021": "18162000201",
    "DT21": "18",
    "DTMN21": "1816",
    "DTMNFR21": "181620",
    "DTMNFRSEC21": "181620002",
    "SECNUM21": "002",
    "SSNUM21": "01",
    "SECSSNUM21": "00201",
    "OBJECTID_1": 196864,
    "DT": "18",
    "CC": "16",
    "fr": "20",
    "SEC": "002",
    "SS": "01"
  },
  "addresses": [
    {
      "id": "pt.ine.add.PTCONT.5438388",
      "street": "AV FREGUESIA DE CARVALHAIS",
      "house": "",
      "postcode": "3660-066",
      "city": "CARVALHAIS SPS",
      "lon": "-8.120410364761124",
      "lat": "40.77317692856266"
    },
    {
      "id": "pt.ine.add.PTCONT.5468803",
      "street": "R CAVADAS",
      "house": "",
      "postcode": "3660-066",
      "city": "CARVALHAIS SPS",
      "lon": "-8.120718056830729",
      "lat": "40.77468980031772"
    },
    {
      "id": "pt.ine.add.PTCONT.5480745",
      "street": "AV FREGUESIA DE CARVALHAIS",
      "house": "",
      "postcode": "3660-066",
      "city": "CARVALHAIS SPS",
      "lon": "-8.119723078549193",
      "lat": "40.77451859441385"
    },
    {
      "id": "pt.ine.add.PTCONT.5496320",
      "street": "CAVADAS",
      "house": "",
      "postcode": "3660-055",
      "city": "CARVALHAIS SPS",
      "lon": "-8.12067065512529",
      "lat": "40.77479785508271"
    },
    {
      "id": "pt.ine.add.PTCONT.5523617",
      "street": "R CAVADAS",
      "house": "",
      "postcode": "3660-066",
      "city": "CARVALHAIS SPS",
      "lon": "-8.121535719879606",
      "lat": "40.77278082727577"
    },
    {
      "id": "pt.ine.add.PTCONT.5550248",
      "street": "AV FREGUESIA DE CARVALHAIS",
      "house": "",
      "postcode": "3660-066",
      "city": "CARVALHAIS SPS",
      "lon": "-8.120848654051557",
      "lat": "40.773068916061014"
    },
    {
      "id": "pt.ine.add.PTCONT.5557087",
      "street": "CC TANQUES",
      "house": "",
      "postcode": "3660-066",
      "city": "CARVALHAIS SPS",
      "lon": "-8.119012404656507",
      "lat": "40.7742933850672"
    },
    {
      "id": "pt.ine.add.PTCONT.5568223",
      "street": "R CAVADAS",
      "house": "",
      "postcode": "3660-066",
      "city": "CARVALHAIS SPS",
      "lon": "-8.121275072877031",
      "lat": "40.77309597554657"
    },
    {
      "id": "pt.ine.add.PTCONT.5623867",
      "street": "R CAVADAS",
      "house": "",
      "postcode": "3660-066",
      "city": "CARVALHAIS SPS",
      "lon": "-8.12049292461525",
      "lat": "40.775058980453856"
    },
    {
      "id": "pt.ine.add.PTCONT.5637812",
      "street": "R CAVADAS",
      "house": "",
      "postcode": "3660-066",
      "city": "CARVALHAIS SPS",
      "lon": "-8.120801052650044",
      "lat": "40.774266574711625"
    }
  ]
}