{
  "data": {
    "distrito": "Viana do Castelo",
    "concelho": "Vila Nova de Cerveira",
    "freguesia": "Sapardos",
    "OBJECTID": 327,
    "BGRI2021": "16101200104",
    "DT21": "16",
    "DTMN21": "1610",
    "DTMNFR21": "161012",
    "DTMNFRSEC21": "161012001",
    "SECNUM21": "001",
    "SSNUM21": "04",
    "SECSSNUM21": "00104",
    "OBJECTID_1": 179435,
    "DT": "16",
    "CC": "10",
    "fr": "12",
    "SEC": "001",
    "SS": "04"
  },
  "addresses": [
    {
      "id": "pt.ine.add.PTCONT.5148822",
      "street": "R ALTO",
      "house": "",
      "postcode": "4920-120",
      "city": "SAPARDOS",
      "lon": "-8.645219228724505",
      "lat": "41.91388107497442"
    },
    {
      "id": "pt.ine.add.PTCONT.5176103",
      "street": "R S BRAZ",
      "house": "",
      "postcode": "4920-120",
      "city": "SAPARDOS",
      "lon": "-8.647143535976651",
      "lat": "41.91184676525097"
    },
    {
      "id": "pt.ine.add.PTCONT.5181225",
      "street": "R SANDE",
      "house": "",
      "postcode": "4920-120",
      "city": "SAPARDOS",
      "lon": "-8.645440823180442",
      "lat": "41.91295276081761"
    },
    {
      "id": "pt.ine.add.PTCONT.5188302",
      "street": "R CARREIRA",
      "house": "",
      "postcode": "4920-120",
      "city": "SAPARDOS",
      "lon": "-8.645903611931114",
      "lat": "41.91204137556203"
    },
    {
      "id": "pt.ine.add.PTCONT.5215927",
      "street": "R S BRAZ",
      "house": "",
      "postcode": "4920-120",
      "city": "SAPARDOS",
      "lon": "-8.647263413599825",
      "lat": "41.911765200075315"
    },
    {
      "id": "pt.ine.add.PTCONT.5224075",
      "street": "R SANDE",
      "house": "",
      "postcode": "4920-120",
      "city": "SAPARDOS",
      "lon": "-8.646627791718284",
      "lat": "41.91216418357502"
    },
    {
      "id": "pt.ine.add.PTCONT.5226444",
      "street": "R SANDE",
      "house": "",
      "postcode": "4920-120",
      "city": "SAPARDOS",
      "lon": "-8.646950691372332",
      "lat": "41.911847628364036"
    },
    {
      "id": "pt.ine.add.PTCONT.5228673",
      "street": "R ALTO",
      "house": "",
      "postcode": "4920-120",
      "city": "SAPARDOS",
      "lon": "-8.645313782605863",
      "lat": "41.91364657104796"
    },
    {
      "id": "pt.ine.add.PTCONT.5238289",
      "street": "R CARREIRA",
      "house": "",
      "postcode": "4920-120",
      "city": "SAPARDOS",
      "lon": "-8.64660029462348",
      "lat": "41.91174115783217"
    },
    {
      "id": "pt.ine.add.PTCONT.5254852",
      "street": "R S BRAZ",
      "house": "",
      "postcode": "4920-120",
      "city": "SAPARDOS",
      "lon": "-8.646499823044152",
      "lat": "41.91424448622076"
    }
  ]
}