{
  "data": {
    "distrito": "Viana do Castelo",
    "concelho": "Vila Nova de Cerveira",
    "freguesia": "Sapardos",
    "OBJECTID": 299,
    "BGRI2021": "16101200106",
    "DT21": "16",
    "DTMN21": "1610",
    "DTMNFR21": "161012",
    "DTMNFRSEC21": "161012001",
    "SECNUM21": "001",
    "SSNUM21": "06",
    "SECSSNUM21": "00106",
    "OBJECTID_1": 179553,
    "DT": "16",
    "CC": "10",
    "fr": "12",
    "SEC": "001",
    "SS": "06"
  },
  "addresses": [
    {
      "id": "pt.ine.add.PTCONT.5137838",
      "street": "R RAMALHAL",
      "house": "",
      "postcode": "4920-120",
      "city": "SAPARDOS",
      "lon": "-8.6483368778737",
      "lat": "41.91635200036812"
    },
    {
      "id": "pt.ine.add.PTCONT.5170768",
      "street": "R TRE PAREDES",
      "house": "",
      "postcode": "4920-120",
      "city": "SAPARDOS",
      "lon": "-8.648300103836661",
      "lat": "41.91777466397686"
    },
    {
      "id": "pt.ine.add.PTCONT.5188055",
      "street": "R RAMALHAL",
      "house": "",
      "postcode": "4920-120",
      "city": "SAPARDOS",
      "lon": "-8.647691622779918",
      "lat": "41.91705714001363"
    },
    {
      "id": "pt.ine.add.PTCONT.5192475",
      "street": "R RAMALHAL",
      "house": "",
      "postcode": "4920-120",
      "city": "SAPARDOS",
      "lon": "-8.647923755666358",
      "lat": "41.91744323518844"
    },
    {
      "id": "pt.ine.add.PTCONT.5208280",
      "street": "TV RAMALHÃO",
      "house": "",
      "postcode": "4920-120",
      "city": "SAPARDOS",
      "lon": "-8.647953869375852",
      "lat": "41.9181903620068"
    },
    {
      "id": "pt.ine.add.PTCONT.5209309",
      "street": "TV RAMALHÃO",
      "house": "",
      "postcode": "4920-120",
      "city": "SAPARDOS",
      "lon": "-8.647954737736576",
      "lat": "41.918298395960925"
    },
    {
      "id": "pt.ine.add.PTCONT.5212782",
      "street": "EN 303",
      "house": "",
      "postcode": "4920-120",
      "city": "SAPARDOS",
      "lon": "-8.64795900724594",
      "lat": "41.91882956287222"
    },
    {
      "id": "pt.ine.add.PTCONT.5222917",
      "street": "TV RAMALHAL",
      "house": "",
      "postcode": "4920-120",
      "city": "SAPARDOS",
      "lon": "-8.6480938122686",
      "lat": "41.91760452941888"
    },
    {
      "id": "pt.ine.add.PTCONT.5224568",
      "street": "R S BRAZ",
      "house": "",
      "postcode": "4920-120",
      "city": "SAPARDOS",
      "lon": "-8.647782121388788",
      "lat": "41.91631847559165"
    },
    {
      "id": "pt.ine.add.PTCONT.5226443",
      "street": "R S BRAZ",
      "house": "",
      "postcode": "4920-120",
      "city": "SAPARDOS",
      "lon": "-8.648203491581008",
      "lat": "41.91625356406823"
    },
    {
      "id": "pt.ine.add.PTCONT.5247599",
      "street": "TV RAMALHAL",
      "house": "",
      "postcode": "4920-120",
      "city": "SAPARDOS",
      "lon": "-8.648262928457678",
      "lat": "41.91764878659917"
    },
    {
      "id": "pt.ine.add.PTCONT.5277645",
      "street": "R S BRAZ",
      "house": "",
      "postcode": "4920-120",
      "city": "SAPARDOS",
      "lon": "-8.648540485692404",
      "lat": "41.916189029774365"
    }
  ]
}