{
  "data": {
    "distrito": "Coimbra",
    "concelho": "Figueira da Foz",
    "freguesia": "Buarcos e São Julião",
    "OBJECTID": 446,
    "BGRI2021": "06052001403",
    "DT21": "06",
    "DTMN21": "0605",
    "DTMNFR21": "060520",
    "DTMNFRSEC21": "060520014",
    "SECNUM21": "014",
    "SSNUM21": "03",
    "SECSSNUM21": "01403",
    "OBJECTID_1": 51435,
    "DT": "06",
    "CC": "05",
    "fr": "20",
    "SEC": "014",
    "SS": "03"
  },
  "addresses": [
    {
      "id": "pt.ine.add.PTCONT.1115045",
      "street": "R COMEND MÁRIO DOS SANTOS BARRACA",
      "house": "3",
      "postcode": "3080-869",
      "city": "FIGUEIRA DA FOZ",
      "lon": "-8.874447119326897",
      "lat": "40.16763638060122"
    },
    {
      "id": "pt.ine.add.PTCONT.1117791",
      "street": "R CAP GUERRA",
      "house": "14 A",
      "postcode": "3080-273",
      "city": "FIGUEIRA DA FOZ",
      "lon": "-8.874627287238802",
      "lat": "40.16693277367308"
    },
    {
      "id": "pt.ine.add.PTCONT.1146234",
      "street": "TV CARDOSOS",
      "house": "",
      "postcode": "3080-312",
      "city": "FIGUEIRA DA FOZ",
      "lon": "-8.874194054989317",
      "lat": "40.16703461144332"
    },
    {
      "id": "pt.ine.add.PTCONT.1195631",
      "street": "R CAP GUERRA",
      "house": "18",
      "postcode": "3080-273",
      "city": "FIGUEIRA DA FOZ",
      "lon": "-8.874678747602875",
      "lat": "40.16734671134106"
    },
    {
      "id": "pt.ine.add.PTCONT.1195632",
      "street": "R CAP GUERRA",
      "house": "14 B",
      "postcode": "3080-273",
      "city": "FIGUEIRA DA FOZ",
      "lon": "-8.874699969859106",
      "lat": "40.1671394417833"
    },
    {
      "id": "pt.ine.add.PTCONT.1216146",
      "street": "VLA SENHORA DA ENCARNAÇÃO",
      "house": "24",
      "postcode": "3080-882",
      "city": "FIGUEIRA DA FOZ",
      "lon": "-8.873730892286616",
      "lat": "40.16762295279672"
    },
    {
      "id": "pt.ine.add.PTCONT.1279904",
      "street": "R COMEND MÁRIO DOS SANTOS BARRACA",
      "house": "5",
      "postcode": "3080-869",
      "city": "FIGUEIRA DA FOZ",
      "lon": "-8.87435311563498",
      "lat": "40.167627976663056"
    },
    {
      "id": "pt.ine.add.PTCONT.1288197",
      "street": "R COMEND MÁRIO DOS SANTOS BARRACA",
      "house": "7",
      "postcode": "3080-869",
      "city": "FIGUEIRA DA FOZ",
      "lon": "-8.874270948126922",
      "lat": "40.167628502688984"
    },
    {
      "id": "pt.ine.add.PTCONT.1291976",
      "street": "1 TRAVESSA SENHORA ENCARNAÇÃO",
      "house": "6",
      "postcode": "3080-234",
      "city": "FIGUEIRA DA FOZ",
      "lon": "-8.874367694714243",
      "lat": "40.167889051789714"
    },
    {
      "id": "pt.ine.add.PTCONT.1303840",
      "street": "R CAP GUERRA",
      "house": "14",
      "postcode": "3080-273",
      "city": "FIGUEIRA DA FOZ",
      "lon": "-8.874554213140101",
      "lat": "40.16669008477292"
    },
    {
      "id": "pt.ine.add.PTCONT.1351069",
      "street": "R CAP GUERRA",
      "house": "24",
      "postcode": "3080-273",
      "city": "FIGUEIRA DA FOZ",
      "lon": "-8.87474341702965",
      "lat": "40.16789565147818"
    },
    {
      "id": "pt.ine.add.PTCONT.1360551",
      "street": "R CAP GUERRA",
      "house": "22",
      "postcode": "3080-273",
      "city": "FIGUEIRA DA FOZ",
      "lon": "-8.874729032526423",
      "lat": "40.167652586775006"
    }
  ]
}