{
  "data": {
    "distrito": "Porto",
    "concelho": "Penafiel",
    "freguesia": "Penafiel",
    "OBJECTID": 1354,
    "BGRI2021": "13113900127",
    "DT21": "13",
    "DTMN21": "1311",
    "DTMNFR21": "131139",
    "DTMNFRSEC21": "131139001",
    "SECNUM21": "001",
    "SSNUM21": "27",
    "SECSSNUM21": "00127",
    "OBJECTID_1": 136981,
    "DT": "13",
    "CC": "11",
    "fr": "39",
    "SEC": "001",
    "SS": "27"
  },
  "addresses": [
    {
      "id": "pt.ine.add.PTCONT.3594940",
      "street": "R SANTO ANTONIO",
      "house": "2050",
      "postcode": "4560-221",
      "city": "MARECOS",
      "lon": "-8.27930850973032",
      "lat": "41.196375868799656"
    },
    {
      "id": "pt.ine.add.PTCONT.3594941",
      "street": "R STO ANTONIO",
      "house": "",
      "postcode": "4560-221",
      "city": "MARECOS",
      "lon": "-8.27930850973032",
      "lat": "41.196375868799656"
    },
    {
      "id": "pt.ine.add.PTCONT.3617973",
      "street": "R AVELEIRA D ALEM",
      "house": "",
      "postcode": "4560-221",
      "city": "MARECOS",
      "lon": "-8.278771104462585",
      "lat": "41.19594434217876"
    },
    {
      "id": "pt.ine.add.PTCONT.3736478",
      "street": "R STO ANTONIO",
      "house": "2018",
      "postcode": "4560-221",
      "city": "MARECOS",
      "lon": "-8.279880599296714",
      "lat": "41.19632111520332"
    },
    {
      "id": "pt.ine.add.PTCONT.3804197",
      "street": "R SANTO ANTÓNIO",
      "house": "2002",
      "postcode": "4560-221",
      "city": "MARECOS",
      "lon": "-8.280106555097902",
      "lat": "41.19607771026876"
    },
    {
      "id": "pt.ine.add.PTCONT.3804198",
      "street": "R SANTO ANTÓNIO",
      "house": "2002",
      "postcode": "4560-221",
      "city": "MARECOS",
      "lon": "-8.280106555097902",
      "lat": "41.19607771026876"
    },
    {
      "id": "pt.ine.add.PTCONT.3810642",
      "street": "TV SANTO ANTÓNIO",
      "house": "14",
      "postcode": "4560-221",
      "city": "MARECOS",
      "lon": "-8.280843105760486",
      "lat": "41.19494222282351"
    },
    {
      "id": "pt.ine.add.PTCONT.3810651",
      "street": "TV SANTO ANTÓNIO",
      "house": "14",
      "postcode": "4560-221",
      "city": "MARECOS",
      "lon": "-8.280843105760486",
      "lat": "41.19494222282351"
    },
    {
      "id": "pt.ine.add.PTCONT.3881006",
      "street": "R VILARSANTO ANTÓNIO",
      "house": "201",
      "postcode": "4560-221",
      "city": "MARECOS",
      "lon": "-8.280032082378304",
      "lat": "41.196199405997625"
    },
    {
      "id": "pt.ine.add.PTCONT.3936572",
      "street": "R AVELEIRA D ALEM",
      "house": "169",
      "postcode": "4560-221",
      "city": "MARECOS",
      "lon": "-8.279296087851275",
      "lat": "41.196150776463675"
    },
    {
      "id": "pt.ine.add.PTCONT.4095555",
      "street": "R SANTO ANTÓNIO",
      "house": "2050",
      "postcode": "4560-221",
      "city": "MARECOS",
      "lon": "-8.279475564851307",
      "lat": "41.196447691203986"
    },
    {
      "id": "pt.ine.add.PTCONT.4095569",
      "street": "R SANTO ANTÓNIO",
      "house": "2050",
      "postcode": "4560-221",
      "city": "MARECOS",
      "lon": "-8.279475564851307",
      "lat": "41.196447691203986"
    },
    {
      "id": "pt.ine.add.PTCONT.4118351",
      "street": "R AVELEIRA D ALEM",
      "house": "54",
      "postcode": "4560-221",
      "city": "MARECOS",
      "lon": "-8.278986201659201",
      "lat": "41.196178182366815"
    },
    {
      "id": "pt.ine.add.PTCONT.4138274",
      "street": "R AVELEIRA D ALEM",
      "house": "2",
      "postcode": "4560-221",
      "city": "MARECOS",
      "lon": "-8.279354510459207",
      "lat": "41.19561944713092"
    },
    {
      "id": "pt.ine.add.PTCONT.4141337",
      "street": "R AVELEIRA D ALEM",
      "house": "2",
      "postcode": "4560-221",
      "city": "MARECOS",
      "lon": "-8.279354510459207",
      "lat": "41.19561944713092"
    },
    {
      "id": "pt.ine.add.PTCONT.4170424",
      "street": "R AVELEIRA D AQUEM",
      "house": "8",
      "postcode": "4560-231",
      "city": "MILHUNDOS",
      "lon": "-8.279139713957088",
      "lat": "41.19552067210817"
    },
    {
      "id": "pt.ine.add.PTCONT.4208759",
      "street": "CAM AVELEIRA",
      "house": "28",
      "postcode": "4560-221",
      "city": "MARECOS",
      "lon": "-8.279439059713976",
      "lat": "41.196114577599346"
    },
    {
      "id": "pt.ine.add.PTCONT.4242649",
      "street": "R AVELEIRA D ALEM",
      "house": "",
      "postcode": "4560-221",
      "city": "MARECOS",
      "lon": "-8.279319388883245",
      "lat": "41.19590763012232"
    },
    {
      "id": "pt.ine.add.PTCONT.4268897",
      "street": "R AVELEIRA D ALEM",
      "house": "",
      "postcode": "4560-221",
      "city": "MARECOS",
      "lon": "-8.279499848320679",
      "lat": "41.196645755461425"
    },
    {
      "id": "pt.ine.add.PTCONT.4321725",
      "street": "R AVELEIRA D ALEM",
      "house": "148",
      "postcode": "4560-221",
      "city": "MARECOS",
      "lon": "-8.278877933742837",
      "lat": "41.19573710754342"
    },
    {
      "id": "pt.ine.add.PTCONT.4321726",
      "street": "R AVELEIRA D ALEM",
      "house": "148",
      "postcode": "4560-221",
      "city": "MARECOS",
      "lon": "-8.278877933742837",
      "lat": "41.19573710754342"
    },
    {
      "id": "pt.ine.add.PTCONT.4342286",
      "street": "R AVELEIRA D ALEM",
      "house": "",
      "postcode": "4560-221",
      "city": "MARECOS",
      "lon": "-8.279378833338926",
      "lat": "41.19583552004239"
    },
    {
      "id": "pt.ine.add.PTCONT.4342287",
      "street": "R AVELEIRA D ALEM",
      "house": "",
      "postcode": "4560-221",
      "city": "MARECOS",
      "lon": "-8.279378833338926",
      "lat": "41.19583552004239"
    }
  ]
}