{
  "data": {
    "distrito": "Vila Real",
    "concelho": "Ribeira de Pena",
    "freguesia": "Canedo",
    "OBJECTID": 122,
    "BGRI2021": "17090200149",
    "DT21": "17",
    "DTMN21": "1709",
    "DTMNFR21": "170902",
    "DTMNFRSEC21": "170902001",
    "SECNUM21": "001",
    "SSNUM21": "49",
    "SECSSNUM21": "00149",
    "OBJECTID_1": 184630,
    "DT": "17",
    "CC": "09",
    "fr": "02",
    "SEC": "001",
    "SS": "49"
  },
  "addresses": [
    {
      "id": "pt.ine.add.PTCONT.5312010",
      "street": "R EIDO MARTINHO",
      "house": "",
      "postcode": "4870-023",
      "city": "CANEDO RPN",
      "lon": "-7.740468848240333",
      "lat": "41.636479985442044"
    },
    {
      "id": "pt.ine.add.PTCONT.5319579",
      "street": "R CORGA SECA",
      "house": "",
      "postcode": "4870-023",
      "city": "CANEDO RPN",
      "lon": "-7.738450144501174",
      "lat": "41.63884102173702"
    },
    {
      "id": "pt.ine.add.PTCONT.5326309",
      "street": "R CORGA SECA",
      "house": "",
      "postcode": "4870-023",
      "city": "CANEDO RPN",
      "lon": "-7.739812171080749",
      "lat": "41.6378913073947"
    },
    {
      "id": "pt.ine.add.PTCONT.5339618",
      "street": "R CORGA SECA",
      "house": "",
      "postcode": "4870-023",
      "city": "CANEDO RPN",
      "lon": "-7.739703662026375",
      "lat": "41.637971968570504"
    },
    {
      "id": "pt.ine.add.PTCONT.5345420",
      "street": "R CORGA SECA",
      "house": "",
      "postcode": "4870-023",
      "city": "CANEDO RPN",
      "lon": "-7.739643214814346",
      "lat": "41.63804379055457"
    },
    {
      "id": "pt.ine.add.PTCONT.5354251",
      "street": "R CORGA SECA",
      "house": "",
      "postcode": "4870-023",
      "city": "CANEDO RPN",
      "lon": "-7.739981017120132",
      "lat": "41.63775683082394"
    },
    {
      "id": "pt.ine.add.PTCONT.5388097",
      "street": "R BARREIRO",
      "house": "",
      "postcode": "4870-023",
      "city": "CANEDO RPN",
      "lon": "-7.7404277064351295",
      "lat": "41.63732618433781"
    },
    {
      "id": "pt.ine.add.PTCONT.5396590",
      "street": "R BARREIRO",
      "house": "",
      "postcode": "4870-023",
      "city": "CANEDO RPN",
      "lon": "-7.74023573385281",
      "lat": "41.63731652477547"
    },
    {
      "id": "pt.ine.add.PTCONT.5399904",
      "street": "R MURO",
      "house": "",
      "postcode": "4870-023",
      "city": "CANEDO RPN",
      "lon": "-7.740679469140514",
      "lat": "41.63737206215256"
    },
    {
      "id": "pt.ine.add.PTCONT.5418059",
      "street": "R PRINCIPAL",
      "house": "",
      "postcode": "4870-023",
      "city": "CANEDO RPN",
      "lon": "-7.737229478247057",
      "lat": "41.63629780646443"
    },
    {
      "id": "pt.ine.add.PTCONT.5425637",
      "street": "R BARREIRO",
      "house": "",
      "postcode": "4870-023",
      "city": "CANEDO RPN",
      "lon": "-7.740582963764926",
      "lat": "41.63745276514602"
    }
  ]
}