{
  "data": {
    "distrito": "Leiria",
    "concelho": "Pombal",
    "freguesia": "Vila Cã",
    "OBJECTID": 2460,
    "BGRI2021": "10151400104",
    "DT21": "10",
    "DTMN21": "1015",
    "DTMNFR21": "101514",
    "DTMNFRSEC21": "101514001",
    "SECNUM21": "001",
    "SSNUM21": "04",
    "SECSSNUM21": "00104",
    "OBJECTID_1": 95605,
    "DT": "10",
    "CC": "15",
    "fr": "14",
    "SEC": "001",
    "SS": "04"
  },
  "addresses": [
    {
      "id": "pt.ine.add.PTCONT.1983967",
      "street": "R SANTO ANTÓNIO",
      "house": "65",
      "postcode": "3100-814",
      "city": "VILA CÃ",
      "lon": "-8.57965229022112",
      "lat": "39.87431538389529"
    },
    {
      "id": "pt.ine.add.PTCONT.2020991",
      "street": "R SANTO ANTÓNIO",
      "house": "",
      "postcode": "3100-814",
      "city": "VILA CÃ",
      "lon": "-8.577351942743366",
      "lat": "39.874684471076684"
    },
    {
      "id": "pt.ine.add.PTCONT.2036676",
      "street": "R CABECO",
      "house": "58",
      "postcode": "3100-806",
      "city": "VILA CÃ",
      "lon": "-8.580584049028364",
      "lat": "39.873798431244474"
    },
    {
      "id": "pt.ine.add.PTCONT.2047527",
      "street": "R SANTO ANTÓNIO",
      "house": "67",
      "postcode": "3100-814",
      "city": "VILA CÃ",
      "lon": "-8.580037841476786",
      "lat": "39.874286879875065"
    },
    {
      "id": "pt.ine.add.PTCONT.2077841",
      "street": "R CABECOI",
      "house": "",
      "postcode": "3100-822",
      "city": "VILA CÃ",
      "lon": "-8.57944097342746",
      "lat": "39.87237082628147"
    },
    {
      "id": "pt.ine.add.PTCONT.2120083",
      "street": "R SANTO ANTÓNIO",
      "house": "71",
      "postcode": "3100-814",
      "city": "VILA CÃ",
      "lon": "-8.580866507897673",
      "lat": "39.8740945506031"
    },
    {
      "id": "pt.ine.add.PTCONT.2154896",
      "street": "R SANTO ANTÓNIO",
      "house": "61",
      "postcode": "3100-814",
      "city": "VILA CÃ",
      "lon": "-8.57926732217628",
      "lat": "39.87443394784612"
    },
    {
      "id": "pt.ine.add.PTCONT.2229362",
      "street": "R LAR",
      "house": "",
      "postcode": "3100-822",
      "city": "VILA CÃ",
      "lon": "-8.578617195038648",
      "lat": "39.87150938375301"
    },
    {
      "id": "pt.ine.add.PTCONT.2247260",
      "street": "R SANTO ANTÓNIO",
      "house": "",
      "postcode": "3100-814",
      "city": "VILA CÃ",
      "lon": "-8.574745003773927",
      "lat": "39.874640388536825"
    },
    {
      "id": "pt.ine.add.PTCONT.2268449",
      "street": "R SANTO ANTÓNIO",
      "house": "58",
      "postcode": "3100-814",
      "city": "VILA CÃ",
      "lon": "-8.5787763964746",
      "lat": "39.87443583520559"
    }
  ]
}