{
  "data": {
    "distrito": "Porto",
    "concelho": "Marco de Canaveses",
    "freguesia": "Avessadas e Rosém",
    "OBJECTID": 72,
    "BGRI2021": "13073300108",
    "DT21": "13",
    "DTMN21": "1307",
    "DTMNFR21": "130733",
    "DTMNFRSEC21": "130733001",
    "SECNUM21": "001",
    "SSNUM21": "08",
    "SECSSNUM21": "00108",
    "OBJECTID_1": 131170,
    "DT": "13",
    "CC": "07",
    "fr": "33",
    "SEC": "001",
    "SS": "08"
  },
  "addresses": [
    {
      "id": "pt.ine.add.PTCONT.3573527",
      "street": "R NOVA",
      "house": "799",
      "postcode": "4625-396",
      "city": "ROSÉM",
      "lon": "-8.183914276169244",
      "lat": "41.14786990249872"
    },
    {
      "id": "pt.ine.add.PTCONT.3605705",
      "street": "CAM HORTINHAS",
      "house": "",
      "postcode": "4625-391",
      "city": "ROSÉM",
      "lon": "-8.185379938529817",
      "lat": "41.14843652414824"
    },
    {
      "id": "pt.ine.add.PTCONT.3788233",
      "street": "CAM CORTES",
      "house": "75CASH2",
      "postcode": "4625-389",
      "city": "ROSÉM",
      "lon": "-8.190757999604152",
      "lat": "41.14119441403708"
    },
    {
      "id": "pt.ine.add.PTCONT.3872045",
      "street": "CAM HORTINHAS",
      "house": "33",
      "postcode": "4625-391",
      "city": "ROSÉM",
      "lon": "-8.184510608025066",
      "lat": "41.14878808703342"
    },
    {
      "id": "pt.ine.add.PTCONT.3967307",
      "street": "R NOVA",
      "house": "781",
      "postcode": "4625-396",
      "city": "ROSÉM",
      "lon": "-8.183854541153252",
      "lat": "41.14764481873611"
    },
    {
      "id": "pt.ine.add.PTCONT.4077792",
      "street": "R NSA SRA DAS NEVES",
      "house": "2635",
      "postcode": "4625-391",
      "city": "ROSÉM",
      "lon": "-8.184522808877013",
      "lat": "41.14915726206205"
    },
    {
      "id": "pt.ine.add.PTCONT.4084402",
      "street": "AV SANTUARIO DO MENINO JESUS DE PRAGA",
      "house": "192",
      "postcode": "4630-001",
      "city": "AVESSADAS",
      "lon": "-8.1964694222342",
      "lat": "41.14744047398179"
    },
    {
      "id": "pt.ine.add.PTCONT.4283040",
      "street": "R NSA SRA DAS NEVES",
      "house": "3049",
      "postcode": "4625-391",
      "city": "ROSÉM",
      "lon": "-8.188692504037997",
      "lat": "41.14952450599256"
    },
    {
      "id": "pt.ine.add.PTCONT.4322132",
      "street": "CC CERDEIRINHAS",
      "house": "65",
      "postcode": "4625-391",
      "city": "ROSÉM",
      "lon": "-8.188334559661076",
      "lat": "41.14884934805016"
    },
    {
      "id": "pt.ine.add.PTCONT.4354872",
      "street": "R NSA SRA DAS NEVES",
      "house": "2517",
      "postcode": "4625-391",
      "city": "ROSÉM",
      "lon": "-8.183438466163917",
      "lat": "41.14876154725001"
    },
    {
      "id": "pt.ine.add.PTCONT.4370147",
      "street": "CAM HORTINHAS",
      "house": "11",
      "postcode": "4625-391",
      "city": "ROSÉM",
      "lon": "-8.185106202450028",
      "lat": "41.148751802118525"
    }
  ]
}