{
  "data": {
    "distrito": "Porto",
    "concelho": "Marco de Canaveses",
    "freguesia": "Avessadas e Rosém",
    "OBJECTID": 103,
    "BGRI2021": "13073300119",
    "DT21": "13",
    "DTMN21": "1307",
    "DTMNFR21": "130733",
    "DTMNFRSEC21": "130733001",
    "SECNUM21": "001",
    "SSNUM21": "19",
    "SECSSNUM21": "00119",
    "OBJECTID_1": 131796,
    "DT": "13",
    "CC": "07",
    "fr": "33",
    "SEC": "001",
    "SS": "19"
  },
  "addresses": [
    {
      "id": "pt.ine.add.PTCONT.3605615",
      "street": "R IGREJA",
      "house": "",
      "postcode": "4630-039",
      "city": "AVESSADAS",
      "lon": "-8.174951080854617",
      "lat": "41.15850769784269"
    },
    {
      "id": "pt.ine.add.PTCONT.3683867",
      "street": "CAM BARREIRO",
      "house": "68",
      "postcode": "4630-009",
      "city": "AVESSADAS",
      "lon": "-8.176475904996462",
      "lat": "41.15820998907761"
    },
    {
      "id": "pt.ine.add.PTCONT.3692974",
      "street": "R IGREJA",
      "house": "",
      "postcode": "4630-039",
      "city": "AVESSADAS",
      "lon": "-8.175737985213004",
      "lat": "41.15938083478268"
    },
    {
      "id": "pt.ine.add.PTCONT.3728817",
      "street": "R VÁRZEAS",
      "house": "59",
      "postcode": "4630-024",
      "city": "AVESSADAS",
      "lon": "-8.176845525429394",
      "lat": "41.15863305552096"
    },
    {
      "id": "pt.ine.add.PTCONT.3764406",
      "street": "R NSA SRA DA NATIVIDADE",
      "house": "199",
      "postcode": "4630-023",
      "city": "AVESSADAS",
      "lon": "-8.172221402527686",
      "lat": "41.156284573028245"
    },
    {
      "id": "pt.ine.add.PTCONT.3832053",
      "street": "R IGREJA",
      "house": "534",
      "postcode": "4630-039",
      "city": "AVESSADAS",
      "lon": "-8.176774302925619",
      "lat": "41.15902927554662"
    },
    {
      "id": "pt.ine.add.PTCONT.3835734",
      "street": "R IGREJA",
      "house": "534",
      "postcode": "4630-039",
      "city": "AVESSADAS",
      "lon": "-8.176774302925619",
      "lat": "41.15902927554662"
    },
    {
      "id": "pt.ine.add.PTCONT.3864187",
      "street": "R IGREJA",
      "house": "929",
      "postcode": "4630-039",
      "city": "AVESSADAS",
      "lon": "-8.17452211796232",
      "lat": "41.158426813381645"
    },
    {
      "id": "pt.ine.add.PTCONT.3932331",
      "street": "R CASTELINHO",
      "house": "305",
      "postcode": "4630-023",
      "city": "AVESSADAS",
      "lon": "-8.17380689252104",
      "lat": "41.15782377433353"
    },
    {
      "id": "pt.ine.add.PTCONT.3939715",
      "street": "R VILARELHO",
      "house": "",
      "postcode": "4630-075",
      "city": "AVESSADAS",
      "lon": "-8.175808156620947",
      "lat": "41.157354821669415"
    },
    {
      "id": "pt.ine.add.PTCONT.4018776",
      "street": "R CURRO",
      "house": "106",
      "postcode": "4630-013",
      "city": "AVESSADAS",
      "lon": "-8.171935975700269",
      "lat": "41.157140086628814"
    },
    {
      "id": "pt.ine.add.PTCONT.4025707",
      "street": "R VÁRZEAS",
      "house": "63",
      "postcode": "4630-024",
      "city": "AVESSADAS",
      "lon": "-8.176762042099913",
      "lat": "41.15850702577286"
    },
    {
      "id": "pt.ine.add.PTCONT.4121470",
      "street": "R VILARELHO",
      "house": "25",
      "postcode": "4630-075",
      "city": "AVESSADAS",
      "lon": "-8.175808156620947",
      "lat": "41.157354821669415"
    },
    {
      "id": "pt.ine.add.PTCONT.4154503",
      "street": "R IGREJA",
      "house": "",
      "postcode": "4630-039",
      "city": "AVESSADAS",
      "lon": "-8.175808156620947",
      "lat": "41.157354821669415"
    },
    {
      "id": "pt.ine.add.PTCONT.4185184",
      "street": "CAM BARREIRO",
      "house": "100",
      "postcode": "4630-009",
      "city": "AVESSADAS",
      "lon": "-8.176249293800428",
      "lat": "41.157840894273825"
    },
    {
      "id": "pt.ine.add.PTCONT.4215532",
      "street": "R IGREJA",
      "house": "",
      "postcode": "4630-039",
      "city": "AVESSADAS",
      "lon": "-8.174712824944876",
      "lat": "41.158552806077914"
    }
  ]
}