{
  "data": {
    "distrito": "Guarda",
    "concelho": "Guarda",
    "freguesia": "Gonçalo",
    "OBJECTID": 1348,
    "BGRI2021": "09075700215",
    "DT21": "09",
    "DTMN21": "0907",
    "DTMNFR21": "090757",
    "DTMNFRSEC21": "090757002",
    "SECNUM21": "002",
    "SSNUM21": "15",
    "SECSSNUM21": "00215",
    "OBJECTID_1": 77814,
    "DT": "09",
    "CC": "07",
    "fr": "57",
    "SEC": "002",
    "SS": "15"
  },
  "addresses": [
    {
      "id": "pt.ine.add.PTCONT.1957990",
      "street": "QTA DAS LANCHEIRAS",
      "house": "",
      "postcode": "6300-115",
      "city": "GONÇALO",
      "lon": "-7.3468551005452944",
      "lat": "40.426449067934534"
    },
    {
      "id": "pt.ine.add.PTCONT.1869174",
      "street": "QTA DOS BALCÕES DA LANCHEIRAS",
      "house": "",
      "postcode": "6300-115",
      "city": "GONÇALO",
      "lon": "-7.342464143098237",
      "lat": "40.42707651551671"
    },
    {
      "id": "pt.ine.add.PTCONT.1876013",
      "street": "QTA DA FRAGA",
      "house": "",
      "postcode": "6300-115",
      "city": "GONÇALO",
      "lon": "-7.350676313974599",
      "lat": "40.42820402897535"
    },
    {
      "id": "pt.ine.add.PTCONT.1882835",
      "street": "EM 527",
      "house": "",
      "postcode": "6300-115",
      "city": "GONÇALO",
      "lon": "-7.3430218938953065",
      "lat": "40.429763935571536"
    },
    {
      "id": "pt.ine.add.PTCONT.1883796",
      "street": "QTA DAS SEIXINHAS",
      "house": "",
      "postcode": "6300-115",
      "city": "GONÇALO",
      "lon": "-7.3431147575664255",
      "lat": "40.425856229453395"
    },
    {
      "id": "pt.ine.add.PTCONT.1890499",
      "street": "QTA DA FRAGA",
      "house": "",
      "postcode": "6300-115",
      "city": "GONÇALO",
      "lon": "-7.3539133530499665",
      "lat": "40.4274964547538"
    },
    {
      "id": "pt.ine.add.PTCONT.1897492",
      "street": "QTA DA FRAGA",
      "house": "",
      "postcode": "6300-115",
      "city": "GONÇALO",
      "lon": "-7.351392174941591",
      "lat": "40.42846102277545"
    }
  ]
}