{
  "data": {
    "distrito": "Beja",
    "concelho": "Odemira",
    "freguesia": "Colos",
    "OBJECTID": 488,
    "BGRI2021": "02111800131",
    "DT21": "02",
    "DTMN21": "0211",
    "DTMNFR21": "021118",
    "DTMNFRSEC21": "021118001",
    "SECNUM21": "001",
    "SSNUM21": "31",
    "SECSSNUM21": "00131",
    "OBJECTID_1": 17896,
    "DT": "02",
    "CC": "11",
    "fr": "18",
    "SEC": "001",
    "SS": "31"
  },
  "addresses": [
    {
      "id": "pt.ine.add.PTCONT.373317",
      "street": "MTE DOS AMORES",
      "house": "",
      "postcode": "7630-291",
      "city": "COLOS",
      "lon": "-8.453331867301326",
      "lat": "37.73491337114492"
    },
    {
      "id": "pt.ine.add.PTCONT.380554",
      "street": "R DO LAGAR",
      "house": "",
      "postcode": "7630-322",
      "city": "COLOS",
      "lon": "-8.455541567365271",
      "lat": "37.73433973876451"
    },
    {
      "id": "pt.ine.add.PTCONT.393423",
      "street": "R DO LAGAR",
      "house": "",
      "postcode": "7630-322",
      "city": "COLOS",
      "lon": "-8.455587413602473",
      "lat": "37.73444772934972"
    },
    {
      "id": "pt.ine.add.PTCONT.404795",
      "street": "R DE VALE DE SANTIAGO",
      "house": "",
      "postcode": "7630-341",
      "city": "COLOS",
      "lon": "-8.455451359564593",
      "lat": "37.73446612080019"
    },
    {
      "id": "pt.ine.add.PTCONT.411331",
      "street": "MTE MAL ESPIGADO",
      "house": "",
      "postcode": "7630-328",
      "city": "COLOS",
      "lon": "-8.454543194442143",
      "lat": "37.734390405782726"
    },
    {
      "id": "pt.ine.add.PTCONT.441331",
      "street": "R DO LAGAR",
      "house": "",
      "postcode": "7630-322",
      "city": "COLOS",
      "lon": "-8.455405240132775",
      "lat": "37.734295063243934"
    }
  ]
}