{
  "data": {
    "distrito": "Beja",
    "concelho": "Odemira",
    "freguesia": "Colos",
    "OBJECTID": 685,
    "BGRI2021": "02111800141",
    "DT21": "02",
    "DTMN21": "0211",
    "DTMNFR21": "021118",
    "DTMNFRSEC21": "021118001",
    "SECNUM21": "001",
    "SSNUM21": "41",
    "SECSSNUM21": "00141",
    "OBJECTID_1": 17897,
    "DT": "02",
    "CC": "11",
    "fr": "18",
    "SEC": "001",
    "SS": "41"
  },
  "addresses": [
    {
      "id": "pt.ine.add.PTCONT.354674",
      "street": "MTE COITO GRANDE",
      "house": "",
      "postcode": "7630-291",
      "city": "COLOS",
      "lon": "-8.465789006405439",
      "lat": "37.740167542686265"
    },
    {
      "id": "pt.ine.add.PTCONT.361204",
      "street": "MTE NOVO",
      "house": "",
      "postcode": "7630-291",
      "city": "COLOS",
      "lon": "-8.449644615531918",
      "lat": "37.742842821807706"
    },
    {
      "id": "pt.ine.add.PTCONT.368389",
      "street": "MTE VALE LAGOS",
      "house": "",
      "postcode": "7630-291",
      "city": "COLOS",
      "lon": "-8.46169832367273",
      "lat": "37.74129621425085"
    },
    {
      "id": "pt.ine.add.PTCONT.387865",
      "street": "MTE CERCO DO MONTADO",
      "house": "",
      "postcode": "7630-291",
      "city": "COLOS",
      "lon": "-8.457501535140333",
      "lat": "37.738938298953364"
    },
    {
      "id": "pt.ine.add.PTCONT.407299",
      "street": "MTE COITO GRANDE",
      "house": "",
      "postcode": "7630-291",
      "city": "COLOS",
      "lon": "-8.469426985546553",
      "lat": "37.739310311362765"
    },
    {
      "id": "pt.ine.add.PTCONT.428986",
      "street": "MTE COITO GRANDE",
      "house": "",
      "postcode": "7630-291",
      "city": "COLOS",
      "lon": "-8.468516449403898",
      "lat": "37.74117790423241"
    }
  ]
}