{
  "data": {
    "distrito": "Coimbra",
    "concelho": "Arganil",
    "freguesia": "Pomares",
    "OBJECTID": 134,
    "BGRI2021": "06011200126",
    "DT21": "06",
    "DTMN21": "0601",
    "DTMNFR21": "060112",
    "DTMNFRSEC21": "060112001",
    "SECNUM21": "001",
    "SSNUM21": "26",
    "SECSSNUM21": "00126",
    "OBJECTID_1": 47012,
    "DT": "06",
    "CC": "01",
    "fr": "12",
    "SEC": "001",
    "SS": "26"
  },
  "addresses": [
    {
      "id": "pt.ine.add.PTCONT.1108007",
      "street": "R D AURORA MENDES CAMPOS",
      "house": "4",
      "postcode": "3305-259",
      "city": "POMARES AGN",
      "lon": "-7.893388526602528",
      "lat": "40.269186093731896"
    },
    {
      "id": "pt.ine.add.PTCONT.1128787",
      "street": "BR TINTO",
      "house": "12",
      "postcode": "3305-259",
      "city": "POMARES AGN",
      "lon": "-7.898316645027864",
      "lat": "40.26859281149459"
    },
    {
      "id": "pt.ine.add.PTCONT.1128788",
      "street": "BR TINTO",
      "house": "12",
      "postcode": "3305-259",
      "city": "POMARES AGN",
      "lon": "-7.898316645027864",
      "lat": "40.26859281149459"
    },
    {
      "id": "pt.ine.add.PTCONT.1135215",
      "street": "CAM FONTANHEIRO",
      "house": "3",
      "postcode": "3305-259",
      "city": "POMARES AGN",
      "lon": "-7.896824066218497",
      "lat": "40.26844568114106"
    },
    {
      "id": "pt.ine.add.PTCONT.1157185",
      "street": "R DR VASCO CAMPOS",
      "house": "1",
      "postcode": "3305-259",
      "city": "POMARES AGN",
      "lon": "-7.897622103560201",
      "lat": "40.26885256742974"
    },
    {
      "id": "pt.ine.add.PTCONT.1199271",
      "street": "R DR VASCO CAMPOS",
      "house": "5",
      "postcode": "3305-259",
      "city": "POMARES AGN",
      "lon": "-7.8980329915661365",
      "lat": "40.269024512431606"
    },
    {
      "id": "pt.ine.add.PTCONT.1243658",
      "street": "BR TINTO",
      "house": "3",
      "postcode": "3305-259",
      "city": "POMARES AGN",
      "lon": "-7.8984336501604275",
      "lat": "40.268755152651025"
    },
    {
      "id": "pt.ine.add.PTCONT.1243659",
      "street": "BR TINTO",
      "house": "3",
      "postcode": "3305-259",
      "city": "POMARES AGN",
      "lon": "-7.8984336501604275",
      "lat": "40.268755152651025"
    },
    {
      "id": "pt.ine.add.PTCONT.1260565",
      "street": "BR TINTO",
      "house": "1",
      "postcode": "3305-259",
      "city": "POMARES AGN",
      "lon": "-7.898715559053691",
      "lat": "40.26882777015481"
    },
    {
      "id": "pt.ine.add.PTCONT.1260567",
      "street": "BR TINTO",
      "house": "1",
      "postcode": "3305-259",
      "city": "POMARES AGN",
      "lon": "-7.898715559053691",
      "lat": "40.26882777015481"
    },
    {
      "id": "pt.ine.add.PTCONT.1264717",
      "street": "BR TINTO",
      "house": "5",
      "postcode": "3305-259",
      "city": "POMARES AGN",
      "lon": "-7.897811238733213",
      "lat": "40.26855576184955"
    },
    {
      "id": "pt.ine.add.PTCONT.1358321",
      "street": "CAM FONTANHEIRO",
      "house": "1",
      "postcode": "3305-259",
      "city": "POMARES AGN",
      "lon": "-7.897105565175246",
      "lat": "40.268635376706754"
    }
  ]
}