{
  "data": {
    "distrito": "Porto",
    "concelho": "Amarante",
    "freguesia": "União das freguesias de Amarante (São Gonçalo), Madalena, Cepelos e Gatão",
    "OBJECTID": 1203,
    "BGRI2021": "13014200407",
    "DT21": "13",
    "DTMN21": "1301",
    "DTMNFR21": "130142",
    "DTMNFRSEC21": "130142004",
    "SECNUM21": "004",
    "SSNUM21": "07",
    "SECSSNUM21": "00407",
    "OBJECTID_1": 125152,
    "DT": "13",
    "CC": "01",
    "fr": "42",
    "SEC": "004",
    "SS": "07"
  },
  "addresses": [
    {
      "id": "pt.ine.add.PTCONT.3623556",
      "street": "R DR MANUEL MONTERROSO",
      "house": "13",
      "postcode": "4600-087",
      "city": "AMARANTE",
      "lon": "-8.067578351243982",
      "lat": "41.26781787408463"
    },
    {
      "id": "pt.ine.add.PTCONT.3630137",
      "street": "R QUEIMADO",
      "house": "121",
      "postcode": "4600-116",
      "city": "AMARANTE",
      "lon": "-8.069274856156126",
      "lat": "41.26590092904887"
    },
    {
      "id": "pt.ine.add.PTCONT.3630138",
      "street": "R QUEIMADO",
      "house": "121",
      "postcode": "4600-245",
      "city": "AMARANTE",
      "lon": "-8.069274856156126",
      "lat": "41.26590092904887"
    },
    {
      "id": "pt.ine.add.PTCONT.3630139",
      "street": "R URBANIZACAO QUEIMADO",
      "house": "121",
      "postcode": "4600-116",
      "city": "AMARANTE",
      "lon": "-8.069274856156126",
      "lat": "41.26590092904887"
    },
    {
      "id": "pt.ine.add.PTCONT.3630140",
      "street": "R URBANIZACAO QUEIMADO",
      "house": "121",
      "postcode": "4600-116",
      "city": "AMARANTE",
      "lon": "-8.069274856156126",
      "lat": "41.26590092904887"
    },
    {
      "id": "pt.ine.add.PTCONT.3630141",
      "street": "R URBANIZACAO QUEIMADO",
      "house": "121",
      "postcode": "4600-116",
      "city": "AMARANTE",
      "lon": "-8.069274856156126",
      "lat": "41.26590092904887"
    },
    {
      "id": "pt.ine.add.PTCONT.3630142",
      "street": "R URBANIZACAO QUEIMADO",
      "house": "121",
      "postcode": "4600-116",
      "city": "AMARANTE",
      "lon": "-8.069274856156126",
      "lat": "41.26590092904887"
    },
    {
      "id": "pt.ine.add.PTCONT.3630143",
      "street": "R URBANIZACAO QUEIMADO",
      "house": "2",
      "postcode": "4600-116",
      "city": "AMARANTE",
      "lon": "-8.069274856156126",
      "lat": "41.26590092904887"
    },
    {
      "id": "pt.ine.add.PTCONT.3630144",
      "street": "R URBANIZACAO QUEIMADO",
      "house": "121",
      "postcode": "4600-116",
      "city": "AMARANTE",
      "lon": "-8.069274856156126",
      "lat": "41.26590092904887"
    },
    {
      "id": "pt.ine.add.PTCONT.3630145",
      "street": "R URBANIZACAO QUEIMADO",
      "house": "121",
      "postcode": "4600-116",
      "city": "AMARANTE",
      "lon": "-8.069274856156126",
      "lat": "41.26590092904887"
    },
    {
      "id": "pt.ine.add.PTCONT.3630146",
      "street": "R URBANIZACAO DO QUEIMADO URBANIZAÇAO DO QUEIMADO",
      "house": "",
      "postcode": "4600-116",
      "city": "AMARANTE",
      "lon": "-8.069274856156126",
      "lat": "41.26590092904887"
    },
    {
      "id": "pt.ine.add.PTCONT.3685766",
      "street": "TV SETE CASAS",
      "house": "23",
      "postcode": "4600-246",
      "city": "AMARANTE",
      "lon": "-8.06692448725254",
      "lat": "41.265332336177465"
    },
    {
      "id": "pt.ine.add.PTCONT.3707817",
      "street": "R QUEIMADO URB DO QUEIMADO",
      "house": "74",
      "postcode": "4600-245",
      "city": "AMARANTE",
      "lon": "-8.068499173593294",
      "lat": "41.265891492155994"
    },
    {
      "id": "pt.ine.add.PTCONT.3707821",
      "street": "R URBANIZACAO QUEIMADO",
      "house": "",
      "postcode": "4600-245",
      "city": "AMARANTE",
      "lon": "-8.068499173593294",
      "lat": "41.265891492155994"
    },
    {
      "id": "pt.ine.add.PTCONT.3707822",
      "street": "R QUEIMADO URB DO QUEIMADO",
      "house": "74",
      "postcode": "4600-245",
      "city": "AMARANTE",
      "lon": "-8.068499173593294",
      "lat": "41.265891492155994"
    },
    {
      "id": "pt.ine.add.PTCONT.3707823",
      "street": "R QUEIMADO URB DO QUEIMADO",
      "house": "74",
      "postcode": "4600-245",
      "city": "AMARANTE",
      "lon": "-8.068499173593294",
      "lat": "41.265891492155994"
    },
    {
      "id": "pt.ine.add.PTCONT.3707824",
      "street": "R QUEIMADO URB DO QUEIMADO",
      "house": "74",
      "postcode": "4600-245",
      "city": "AMARANTE",
      "lon": "-8.068499173593294",
      "lat": "41.265891492155994"
    },
    {
      "id": "pt.ine.add.PTCONT.3707825",
      "street": "R QUEIMADO URB DO QUEIMADO",
      "house": "74",
      "postcode": "4600-245",
      "city": "AMARANTE",
      "lon": "-8.068499173593294",
      "lat": "41.265891492155994"
    },
    {
      "id": "pt.ine.add.PTCONT.3707826",
      "street": "R QUEIMADO URB DO QUEIMADO",
      "house": "74",
      "postcode": "4600-245",
      "city": "AMARANTE",
      "lon": "-8.068499173593294",
      "lat": "41.265891492155994"
    },
    {
      "id": "pt.ine.add.PTCONT.3707827",
      "street": "R QUEIMADO URB DO QUEIMADO",
      "house": "74",
      "postcode": "4600-245",
      "city": "AMARANTE",
      "lon": "-8.068499173593294",
      "lat": "41.265891492155994"
    },
    {
      "id": "pt.ine.add.PTCONT.3712727",
      "street": "R QUEIMADO URB DO QUEIMADO",
      "house": "74",
      "postcode": "4600-245",
      "city": "AMARANTE",
      "lon": "-8.068499173593294",
      "lat": "41.265891492155994"
    },
    {
      "id": "pt.ine.add.PTCONT.3751222",
      "street": "R DR MANUEL MONTERROSO",
      "house": "395",
      "postcode": "4600-087",
      "city": "AMARANTE",
      "lon": "-8.066803174584905",
      "lat": "41.26728618155554"
    },
    {
      "id": "pt.ine.add.PTCONT.3751223",
      "street": "R DR MANUEL MONTERROSO",
      "house": "395",
      "postcode": "4600-087",
      "city": "AMARANTE",
      "lon": "-8.066803174584905",
      "lat": "41.26728618155554"
    },
    {
      "id": "pt.ine.add.PTCONT.3751341",
      "street": "R DR MANUEL MONTERROSO",
      "house": "395",
      "postcode": "4600-087",
      "city": "AMARANTE",
      "lon": "-8.066803174584905",
      "lat": "41.26728618155554"
    },
    {
      "id": "pt.ine.add.PTCONT.3751342",
      "street": "R DR MANUEL MONTERROSO",
      "house": "395",
      "postcode": "4600-087",
      "city": "AMARANTE",
      "lon": "-8.066803174584905",
      "lat": "41.26728618155554"
    },
    {
      "id": "pt.ine.add.PTCONT.3751343",
      "street": "R DR MANUEL MONTERROSO",
      "house": "395",
      "postcode": "4600-087",
      "city": "AMARANTE",
      "lon": "-8.066803174584905",
      "lat": "41.26728618155554"
    },
    {
      "id": "pt.ine.add.PTCONT.3759552",
      "street": "R URBANIZACAO DO QUEIMADO",
      "house": "103",
      "postcode": "4600-116",
      "city": "AMARANTE",
      "lon": "-8.069072062181133",
      "lat": "41.26581977847165"
    },
    {
      "id": "pt.ine.add.PTCONT.3759553",
      "street": "R URBANIZACAO DO QUEIMADO",
      "house": "103",
      "postcode": "4600-116",
      "city": "AMARANTE",
      "lon": "-8.069072062181133",
      "lat": "41.26581977847165"
    },
    {
      "id": "pt.ine.add.PTCONT.3759554",
      "street": "R URBANIZACAO DO QUEIMADO",
      "house": "103",
      "postcode": "4600-116",
      "city": "AMARANTE",
      "lon": "-8.069072062181133",
      "lat": "41.26581977847165"
    },
    {
      "id": "pt.ine.add.PTCONT.3759558",
      "street": "R QUEIMADO",
      "house": "103",
      "postcode": "4600-116",
      "city": "AMARANTE",
      "lon": "-8.069072062181133",
      "lat": "41.26581977847165"
    },
    {
      "id": "pt.ine.add.PTCONT.3759559",
      "street": "R QUEIMADO",
      "house": "103",
      "postcode": "4600-116",
      "city": "AMARANTE",
      "lon": "-8.069072062181133",
      "lat": "41.26581977847165"
    },
    {
      "id": "pt.ine.add.PTCONT.3759560",
      "street": "R QUEIMADO",
      "house": "103",
      "postcode": "4600-116",
      "city": "AMARANTE",
      "lon": "-8.069072062181133",
      "lat": "41.26581977847165"
    },
    {
      "id": "pt.ine.add.PTCONT.3759561",
      "street": "R QUEIMADO",
      "house": "103",
      "postcode": "4600-245",
      "city": "AMARANTE",
      "lon": "-8.069072062181133",
      "lat": "41.26581977847165"
    },
    {
      "id": "pt.ine.add.PTCONT.3764478",
      "street": "R QUEIMADO",
      "house": "103",
      "postcode": "4600-116",
      "city": "AMARANTE",
      "lon": "-8.069072062181133",
      "lat": "41.26581977847165"
    },
    {
      "id": "pt.ine.add.PTCONT.3765810",
      "street": "TV SETE CASAS",
      "house": "58",
      "postcode": "4600-246",
      "city": "AMARANTE",
      "lon": "-8.066566213851194",
      "lat": "41.26559325201227"
    },
    {
      "id": "pt.ine.add.PTCONT.3793084",
      "street": "R ALTO DAS MURTAS",
      "house": "59",
      "postcode": "4600-242",
      "city": "AMARANTE",
      "lon": "-8.067829298395539",
      "lat": "41.26748486067563"
    },
    {
      "id": "pt.ine.add.PTCONT.3830781",
      "street": "R QUEIMADO",
      "house": "118",
      "postcode": "4600-245",
      "city": "AMARANTE",
      "lon": "-8.068988332498238",
      "lat": "41.2660178246691"
    },
    {
      "id": "pt.ine.add.PTCONT.3830782",
      "street": "R URBANIZACAO DO QUEIMADO URBANIZAÇAO DO QUEIMADO",
      "house": "118",
      "postcode": "4600-116",
      "city": "AMARANTE",
      "lon": "-8.068988332498238",
      "lat": "41.2660178246691"
    },
    {
      "id": "pt.ine.add.PTCONT.3830783",
      "street": "R QUEIMADO",
      "house": "118",
      "postcode": "4600-245",
      "city": "AMARANTE",
      "lon": "-8.068988332498238",
      "lat": "41.2660178246691"
    },
    {
      "id": "pt.ine.add.PTCONT.3830784",
      "street": "R URBANIZACAO DO QUEIMADO URBANIZAÇAO DO QUEIMADO",
      "house": "118",
      "postcode": "4600-116",
      "city": "AMARANTE",
      "lon": "-8.068988332498238",
      "lat": "41.2660178246691"
    },
    {
      "id": "pt.ine.add.PTCONT.3830785",
      "street": "R URBANIZACAO DO QUEIMADO URBANIZAÇAO DO QUEIMADO",
      "house": "118",
      "postcode": "4600-116",
      "city": "AMARANTE",
      "lon": "-8.068988332498238",
      "lat": "41.2660178246691"
    },
    {
      "id": "pt.ine.add.PTCONT.3830786",
      "street": "R URBANIZACAO DO QUEIMADO URBANIZAÇAO DO QUEIMADO",
      "house": "118",
      "postcode": "4600-116",
      "city": "AMARANTE",
      "lon": "-8.068988332498238",
      "lat": "41.2660178246691"
    },
    {
      "id": "pt.ine.add.PTCONT.3830787",
      "street": "R URBANIZACAO DO QUEIMADO URBANIZAÇAO DO QUEIMADO",
      "house": "118",
      "postcode": "4600-116",
      "city": "AMARANTE",
      "lon": "-8.068988332498238",
      "lat": "41.2660178246691"
    },
    {
      "id": "pt.ine.add.PTCONT.3830788",
      "street": "R URBANIZACAO QUEIMADO",
      "house": "13",
      "postcode": "4600-116",
      "city": "AMARANTE",
      "lon": "-8.068988332498238",
      "lat": "41.2660178246691"
    },
    {
      "id": "pt.ine.add.PTCONT.3830789",
      "street": "R URBANIZACAO DO QUEIMADO URBANIZAÇAO DO QUEIMADO",
      "house": "118",
      "postcode": "4600-116",
      "city": "AMARANTE",
      "lon": "-8.068988332498238",
      "lat": "41.2660178246691"
    },
    {
      "id": "pt.ine.add.PTCONT.3830790",
      "street": "R URBANIZACAO QUEIMADO",
      "house": "137",
      "postcode": "4600-116",
      "city": "AMARANTE",
      "lon": "-8.068988332498238",
      "lat": "41.2660178246691"
    },
    {
      "id": "pt.ine.add.PTCONT.3924761",
      "street": "TV SETE CASAS",
      "house": "36",
      "postcode": "4600-246",
      "city": "AMARANTE",
      "lon": "-8.066781174589682",
      "lat": "41.26544030433226"
    },
    {
      "id": "pt.ine.add.PTCONT.3929052",
      "street": "R QUEIMADO",
      "house": "137",
      "postcode": "4600-245",
      "city": "AMARANTE",
      "lon": "-8.069453774430333",
      "lat": "41.26599107028793"
    },
    {
      "id": "pt.ine.add.PTCONT.3929053",
      "street": "R QUEIMADO",
      "house": "137",
      "postcode": "4600-245",
      "city": "AMARANTE",
      "lon": "-8.069453774430333",
      "lat": "41.26599107028793"
    },
    {
      "id": "pt.ine.add.PTCONT.3929054",
      "street": "R URBANIZACAO DO QUEIMADO URBANIZAÇAO DO QUEIMADO",
      "house": "137",
      "postcode": "4600-116",
      "city": "AMARANTE",
      "lon": "-8.069453774430333",
      "lat": "41.26599107028793"
    },
    {
      "id": "pt.ine.add.PTCONT.3929055",
      "street": "R URBANIZACAO DO QUEIMADO URBANIZAÇAO DO QUEIMADO",
      "house": "137",
      "postcode": "4600-116",
      "city": "AMARANTE",
      "lon": "-8.069453774430333",
      "lat": "41.26599107028793"
    },
    {
      "id": "pt.ine.add.PTCONT.3929056",
      "street": "R URBANIZACAO DO QUEIMADO URBANIZAÇAO DO QUEIMADO",
      "house": "137",
      "postcode": "4600-116",
      "city": "AMARANTE",
      "lon": "-8.069453774430333",
      "lat": "41.26599107028793"
    },
    {
      "id": "pt.ine.add.PTCONT.3929140",
      "street": "R URBANIZACAO DO QUEIMADO URBANIZAÇAO DO QUEIMADO",
      "house": "137",
      "postcode": "4600-116",
      "city": "AMARANTE",
      "lon": "-8.069453774430333",
      "lat": "41.26599107028793"
    },
    {
      "id": "pt.ine.add.PTCONT.3929141",
      "street": "R URBANIZACAO DO QUEIMADO URBANIZAÇAO DO QUEIMADO",
      "house": "137",
      "postcode": "4600-116",
      "city": "AMARANTE",
      "lon": "-8.069453774430333",
      "lat": "41.26599107028793"
    },
    {
      "id": "pt.ine.add.PTCONT.3929142",
      "street": "R URBANIZACAO DO QUEIMADO URBANIZAÇAO DO QUEIMADO",
      "house": "137",
      "postcode": "4600-116",
      "city": "AMARANTE",
      "lon": "-8.069453774430333",
      "lat": "41.26599107028793"
    },
    {
      "id": "pt.ine.add.PTCONT.3929143",
      "street": "R QUEIMADO",
      "house": "",
      "postcode": "4600-245",
      "city": "AMARANTE",
      "lon": "-8.069453774430333",
      "lat": "41.26599107028793"
    },
    {
      "id": "pt.ine.add.PTCONT.3929144",
      "street": "R URBANIZACAO QUEIMADO",
      "house": "121",
      "postcode": "4600-116",
      "city": "AMARANTE",
      "lon": "-8.069453774430333",
      "lat": "41.26599107028793"
    },
    {
      "id": "pt.ine.add.PTCONT.3929145",
      "street": "R URBANIZACAO DO QUEIMADO URBANIZAÇAO DO QUEIMADO",
      "house": "137",
      "postcode": "4600-116",
      "city": "AMARANTE",
      "lon": "-8.069453774430333",
      "lat": "41.26599107028793"
    },
    {
      "id": "pt.ine.add.PTCONT.3929146",
      "street": "R QUEIMADO",
      "house": "137",
      "postcode": "4600-245",
      "city": "AMARANTE",
      "lon": "-8.069453774430333",
      "lat": "41.26599107028793"
    },
    {
      "id": "pt.ine.add.PTCONT.3929147",
      "street": "R QUEIMADO",
      "house": "",
      "postcode": "4600-245",
      "city": "AMARANTE",
      "lon": "-8.069453774430333",
      "lat": "41.26599107028793"
    },
    {
      "id": "pt.ine.add.PTCONT.3929148",
      "street": "R QUEIMADO",
      "house": "137",
      "postcode": "4600-245",
      "city": "AMARANTE",
      "lon": "-8.069453774430333",
      "lat": "41.26599107028793"
    },
    {
      "id": "pt.ine.add.PTCONT.3932651",
      "street": "R URBANIZACAO DO QUEIMADO URBANIZAÇAO DO QUEIMADO",
      "house": "137",
      "postcode": "4600-116",
      "city": "AMARANTE",
      "lon": "-8.069453774430333",
      "lat": "41.26599107028793"
    },
    {
      "id": "pt.ine.add.PTCONT.3996691",
      "street": "R SETE CASAS",
      "house": "332",
      "postcode": "4600-246",
      "city": "AMARANTE",
      "lon": "-8.066685906288663",
      "lat": "41.26524215659358"
    },
    {
      "id": "pt.ine.add.PTCONT.4052972",
      "street": "R ALTO DAS MURTAS",
      "house": "",
      "postcode": "4600-242",
      "city": "AMARANTE",
      "lon": "-8.067721694747705",
      "lat": "41.26768289235469"
    },
    {
      "id": "pt.ine.add.PTCONT.4096693",
      "street": "R URBANIZACAO QUEIMADO",
      "house": "94",
      "postcode": "4600-116",
      "city": "AMARANTE",
      "lon": "-8.068737794790495",
      "lat": "41.26594565112355"
    },
    {
      "id": "pt.ine.add.PTCONT.4096694",
      "street": "R URBANIZACAO QUEIMADO",
      "house": "94",
      "postcode": "4600-116",
      "city": "AMARANTE",
      "lon": "-8.068737794790495",
      "lat": "41.26594565112355"
    },
    {
      "id": "pt.ine.add.PTCONT.4096695",
      "street": "R URBANIZACAO QUEIMADO",
      "house": "94",
      "postcode": "4600-116",
      "city": "AMARANTE",
      "lon": "-8.068737794790495",
      "lat": "41.26594565112355"
    },
    {
      "id": "pt.ine.add.PTCONT.4096696",
      "street": "R URBANIZACAO QUEIMADO",
      "house": "94",
      "postcode": "4600-116",
      "city": "AMARANTE",
      "lon": "-8.068737794790495",
      "lat": "41.26594565112355"
    },
    {
      "id": "pt.ine.add.PTCONT.4096697",
      "street": "R URBANIZACAO QUEIMADO",
      "house": "94",
      "postcode": "4600-116",
      "city": "AMARANTE",
      "lon": "-8.068737794790495",
      "lat": "41.26594565112355"
    },
    {
      "id": "pt.ine.add.PTCONT.4096698",
      "street": "R URBANIZACAO QUEIMADO",
      "house": "94",
      "postcode": "4600-116",
      "city": "AMARANTE",
      "lon": "-8.068737794790495",
      "lat": "41.26594565112355"
    },
    {
      "id": "pt.ine.add.PTCONT.4096699",
      "street": "R URBANIZACAO QUEIMADO",
      "house": "94",
      "postcode": "4600-116",
      "city": "AMARANTE",
      "lon": "-8.068737794790495",
      "lat": "41.26594565112355"
    },
    {
      "id": "pt.ine.add.PTCONT.4096700",
      "street": "R URBANIZACAO QUEIMADO",
      "house": "94",
      "postcode": "4600-116",
      "city": "AMARANTE",
      "lon": "-8.068737794790495",
      "lat": "41.26594565112355"
    },
    {
      "id": "pt.ine.add.PTCONT.4101580",
      "street": "R QUEIMADO URNANIZACAO DO QUEIMADO",
      "house": "94",
      "postcode": "4600-245",
      "city": "AMARANTE",
      "lon": "-8.068737794790495",
      "lat": "41.26594565112355"
    },
    {
      "id": "pt.ine.add.PTCONT.4161904",
      "street": "R QUEIMADO",
      "house": "140",
      "postcode": "4600-245",
      "city": "AMARANTE",
      "lon": "-8.069155273016776",
      "lat": "41.266152980787666"
    },
    {
      "id": "pt.ine.add.PTCONT.4161905",
      "street": "R URBANIZACAO DO QUEIMADO",
      "house": "140",
      "postcode": "4600-116",
      "city": "AMARANTE",
      "lon": "-8.069155273016776",
      "lat": "41.266152980787666"
    },
    {
      "id": "pt.ine.add.PTCONT.4161906",
      "street": "R URBANIZACAO DO QUEIMADO",
      "house": "140",
      "postcode": "4600-116",
      "city": "AMARANTE",
      "lon": "-8.069155273016776",
      "lat": "41.266152980787666"
    },
    {
      "id": "pt.ine.add.PTCONT.4161907",
      "street": "R QUEIMADO",
      "house": "140",
      "postcode": "4600-245",
      "city": "AMARANTE",
      "lon": "-8.069155273016776",
      "lat": "41.266152980787666"
    },
    {
      "id": "pt.ine.add.PTCONT.4161908",
      "street": "R QUEIMADO",
      "house": "140",
      "postcode": "4600-245",
      "city": "AMARANTE",
      "lon": "-8.069155273016776",
      "lat": "41.266152980787666"
    },
    {
      "id": "pt.ine.add.PTCONT.4161909",
      "street": "R URBANIZACAO DO QUEIMADO",
      "house": "140",
      "postcode": "4600-116",
      "city": "AMARANTE",
      "lon": "-8.069155273016776",
      "lat": "41.266152980787666"
    },
    {
      "id": "pt.ine.add.PTCONT.4161912",
      "street": "R URBANIZACAO DO QUEIMADO",
      "house": "140",
      "postcode": "4600-116",
      "city": "AMARANTE",
      "lon": "-8.069155273016776",
      "lat": "41.266152980787666"
    },
    {
      "id": "pt.ine.add.PTCONT.4161913",
      "street": "R URBANIZACAO DO QUEIMADO",
      "house": "140",
      "postcode": "4600-116",
      "city": "AMARANTE",
      "lon": "-8.069155273016776",
      "lat": "41.266152980787666"
    },
    {
      "id": "pt.ine.add.PTCONT.4166928",
      "street": "R URBANIZACAO QUEIMADO",
      "house": "",
      "postcode": "4600-116",
      "city": "AMARANTE",
      "lon": "-8.069155273016776",
      "lat": "41.266152980787666"
    },
    {
      "id": "pt.ine.add.PTCONT.4187737",
      "street": "R SETE CASAS",
      "house": "460",
      "postcode": "4600-246",
      "city": "AMARANTE",
      "lon": "-8.067485745563669",
      "lat": "41.26495448023618"
    },
    {
      "id": "pt.ine.add.PTCONT.4203894",
      "street": "R DR MANUEL MONTERROSO",
      "house": "421",
      "postcode": "4600-087",
      "city": "AMARANTE",
      "lon": "-8.066958198005148",
      "lat": "41.267403325534666"
    },
    {
      "id": "pt.ine.add.PTCONT.4203895",
      "street": "R DR MANUEL MONTERROSO",
      "house": "421",
      "postcode": "4600-087",
      "city": "AMARANTE",
      "lon": "-8.066958198005148",
      "lat": "41.267403325534666"
    },
    {
      "id": "pt.ine.add.PTCONT.4203896",
      "street": "R DR MANUEL MONTERROSO",
      "house": "421",
      "postcode": "4600-087",
      "city": "AMARANTE",
      "lon": "-8.066958198005148",
      "lat": "41.267403325534666"
    },
    {
      "id": "pt.ine.add.PTCONT.4203897",
      "street": "R DR MANUEL MONTERROSO",
      "house": "421",
      "postcode": "4600-087",
      "city": "AMARANTE",
      "lon": "-8.066958198005148",
      "lat": "41.267403325534666"
    },
    {
      "id": "pt.ine.add.PTCONT.4203898",
      "street": "R DR MANUEL MONTERROSO",
      "house": "",
      "postcode": "4600-087",
      "city": "AMARANTE",
      "lon": "-8.066958198005148",
      "lat": "41.267403325534666"
    },
    {
      "id": "pt.ine.add.PTCONT.4203899",
      "street": "R DR MANUEL MONTERROSO",
      "house": "421",
      "postcode": "4600-087",
      "city": "AMARANTE",
      "lon": "-8.066958198005148",
      "lat": "41.267403325534666"
    },
    {
      "id": "pt.ine.add.PTCONT.4212053",
      "street": "R URBANIZACAO DO QUEIMADO",
      "house": "85",
      "postcode": "4600-116",
      "city": "AMARANTE",
      "lon": "-8.068797710771847",
      "lat": "41.2656935664964"
    },
    {
      "id": "pt.ine.add.PTCONT.4212054",
      "street": "R URBANIZACAO DO QUEIMADO",
      "house": "85",
      "postcode": "4600-116",
      "city": "AMARANTE",
      "lon": "-8.068797710771847",
      "lat": "41.2656935664964"
    },
    {
      "id": "pt.ine.add.PTCONT.4212055",
      "street": "R URBANIZACAO QUEIMADO",
      "house": "",
      "postcode": "4600-116",
      "city": "AMARANTE",
      "lon": "-8.068797710771847",
      "lat": "41.2656935664964"
    },
    {
      "id": "pt.ine.add.PTCONT.4212056",
      "street": "R URBANIZACAO DO QUEIMADO",
      "house": "85",
      "postcode": "4600-116",
      "city": "AMARANTE",
      "lon": "-8.068797710771847",
      "lat": "41.2656935664964"
    },
    {
      "id": "pt.ine.add.PTCONT.4212057",
      "street": "R URBANIZACAO DO QUEIMADO",
      "house": "85",
      "postcode": "4600-116",
      "city": "AMARANTE",
      "lon": "-8.068797710771847",
      "lat": "41.2656935664964"
    },
    {
      "id": "pt.ine.add.PTCONT.4212058",
      "street": "R URBANIZACAO DO QUEIMADO",
      "house": "85",
      "postcode": "4600-116",
      "city": "AMARANTE",
      "lon": "-8.068797710771847",
      "lat": "41.2656935664964"
    },
    {
      "id": "pt.ine.add.PTCONT.4212059",
      "street": "R URBANIZACAO DO QUEIMADO",
      "house": "85",
      "postcode": "4600-116",
      "city": "AMARANTE",
      "lon": "-8.068797710771847",
      "lat": "41.2656935664964"
    },
    {
      "id": "pt.ine.add.PTCONT.4212539",
      "street": "R URBANIZACAO QUEIMADO",
      "house": "",
      "postcode": "4600-116",
      "city": "AMARANTE",
      "lon": "-8.068797710771847",
      "lat": "41.2656935664964"
    },
    {
      "id": "pt.ine.add.PTCONT.4212655",
      "street": "R URBANIZACAO DO QUEIMADO",
      "house": "85",
      "postcode": "4600-116",
      "city": "AMARANTE",
      "lon": "-8.068797710771847",
      "lat": "41.2656935664964"
    },
    {
      "id": "pt.ine.add.PTCONT.4253320",
      "street": "TV SETE CASAS",
      "house": "82",
      "postcode": "4600-246",
      "city": "AMARANTE",
      "lon": "-8.06644673991032",
      "lat": "41.26572824617595"
    },
    {
      "id": "pt.ine.add.PTCONT.4295322",
      "street": "R URBANIZACAO QUEIMADO",
      "house": "50",
      "postcode": "4600-116",
      "city": "AMARANTE",
      "lon": "-8.068272522120628",
      "lat": "41.265801322561785"
    },
    {
      "id": "pt.ine.add.PTCONT.4295323",
      "street": "R QUEIMADO URB DO QUEIMADO",
      "house": "50",
      "postcode": "4600-245",
      "city": "AMARANTE",
      "lon": "-8.068272522120628",
      "lat": "41.265801322561785"
    },
    {
      "id": "pt.ine.add.PTCONT.4295324",
      "street": "R QUEIMADO URB DO QUEIMADO",
      "house": "50",
      "postcode": "4600-245",
      "city": "AMARANTE",
      "lon": "-8.068272522120628",
      "lat": "41.265801322561785"
    },
    {
      "id": "pt.ine.add.PTCONT.4295325",
      "street": "R QUEIMADO URB DO QUEIMADO",
      "house": "50",
      "postcode": "4600-245",
      "city": "AMARANTE",
      "lon": "-8.068272522120628",
      "lat": "41.265801322561785"
    },
    {
      "id": "pt.ine.add.PTCONT.4295326",
      "street": "R QUEIMADO URB DO QUEIMADO",
      "house": "50",
      "postcode": "4600-245",
      "city": "AMARANTE",
      "lon": "-8.068272522120628",
      "lat": "41.265801322561785"
    },
    {
      "id": "pt.ine.add.PTCONT.4295327",
      "street": "R QUEIMADO URB DO QUEIMADO",
      "house": "50",
      "postcode": "4600-245",
      "city": "AMARANTE",
      "lon": "-8.068272522120628",
      "lat": "41.265801322561785"
    },
    {
      "id": "pt.ine.add.PTCONT.4295507",
      "street": "R QUEIMADO URB DO QUEIMADO",
      "house": "50",
      "postcode": "4600-245",
      "city": "AMARANTE",
      "lon": "-8.068272522120628",
      "lat": "41.265801322561785"
    },
    {
      "id": "pt.ine.add.PTCONT.4295508",
      "street": "R QUEIMADO URB DO QUEIMADO",
      "house": "50",
      "postcode": "4600-245",
      "city": "AMARANTE",
      "lon": "-8.068272522120628",
      "lat": "41.265801322561785"
    },
    {
      "id": "pt.ine.add.PTCONT.4295509",
      "street": "R QUEIMADO URB DO QUEIMADO",
      "house": "50",
      "postcode": "4600-245",
      "city": "AMARANTE",
      "lon": "-8.068272522120628",
      "lat": "41.265801322561785"
    },
    {
      "id": "pt.ine.add.PTCONT.4298708",
      "street": "R QUEIMADO URB DO QUEIMADO",
      "house": "50",
      "postcode": "4600-245",
      "city": "AMARANTE",
      "lon": "-8.068272522120628",
      "lat": "41.265801322561785"
    },
    {
      "id": "pt.ine.add.PTCONT.4387564",
      "street": "R QUEIMADO",
      "house": "103",
      "postcode": "4600-116",
      "city": "AMARANTE",
      "lon": "-8.069072062181133",
      "lat": "41.26581977847165"
    },
    {
      "id": "pt.ine.add.PTCONT.4387751",
      "street": "R DR MANUEL MONTERROSO",
      "house": "395",
      "postcode": "4600-087",
      "city": "AMARANTE",
      "lon": "-8.066803174584905",
      "lat": "41.26728618155554"
    },
    {
      "id": "pt.ine.add.PTCONT.4389154",
      "street": "R QUEIMADO",
      "house": "121",
      "postcode": "4600-116",
      "city": "AMARANTE",
      "lon": "-8.069274856156126",
      "lat": "41.26590092904887"
    }
  ]
}