{
  "data": {
    "distrito": "Vila Real",
    "concelho": "Vila Real",
    "freguesia": "União das freguesias de Mouçós e Lamares",
    "OBJECTID": 719,
    "BGRI2021": "17143400101",
    "DT21": "17",
    "DTMN21": "1714",
    "DTMNFR21": "171434",
    "DTMNFRSEC21": "171434001",
    "SECNUM21": "001",
    "SSNUM21": "01",
    "SECSSNUM21": "00101",
    "OBJECTID_1": 188068,
    "DT": "17",
    "CC": "14",
    "fr": "34",
    "SEC": "001",
    "SS": "01"
  },
  "addresses": [
    {
      "id": "pt.ine.add.PTCONT.5292860",
      "street": "R OUTEIRO",
      "house": "",
      "postcode": "5000-132",
      "city": "LAMARES",
      "lon": "-7.629260435115292",
      "lat": "41.330420185804954"
    },
    {
      "id": "pt.ine.add.PTCONT.5308013",
      "street": "R CENTRAL",
      "house": "",
      "postcode": "5000-132",
      "city": "LAMARES",
      "lon": "-7.629870670756418",
      "lat": "41.33028779444526"
    },
    {
      "id": "pt.ine.add.PTCONT.5308014",
      "street": "CASTANHEIRA",
      "house": "",
      "postcode": "5000-132",
      "city": "LAMARES",
      "lon": "-7.629136672529163",
      "lat": "41.32942919591618"
    },
    {
      "id": "pt.ine.add.PTCONT.5338389",
      "street": "AV ELOI RIBEIRO",
      "house": "",
      "postcode": "5000-132",
      "city": "LAMARES",
      "lon": "-7.62968481847633",
      "lat": "41.32960267213817"
    },
    {
      "id": "pt.ine.add.PTCONT.5347927",
      "street": "AV ELOI RIBEIRO",
      "house": "",
      "postcode": "5000-132",
      "city": "LAMARES",
      "lon": "-7.6279312351197905",
      "lat": "41.32774915350055"
    },
    {
      "id": "pt.ine.add.PTCONT.5348351",
      "street": "R CASTANHEIRA",
      "house": "",
      "postcode": "5000-132",
      "city": "LAMARES",
      "lon": "-7.62850720842213",
      "lat": "41.32895822615355"
    },
    {
      "id": "pt.ine.add.PTCONT.5364113",
      "street": "R CENTRAL",
      "house": "",
      "postcode": "5000-132",
      "city": "LAMARES",
      "lon": "-7.629574818827299",
      "lat": "41.32992633760638"
    },
    {
      "id": "pt.ine.add.PTCONT.5383413",
      "street": "R CASTANHEIRA",
      "house": "",
      "postcode": "5000-132",
      "city": "LAMARES",
      "lon": "-7.62880291123248",
      "lat": "41.32933769327852"
    },
    {
      "id": "pt.ine.add.PTCONT.5383414",
      "street": "R CASTANHEIRA",
      "house": "",
      "postcode": "5000-132",
      "city": "LAMARES",
      "lon": "-7.62880291123248",
      "lat": "41.32933769327852"
    },
    {
      "id": "pt.ine.add.PTCONT.5384272",
      "street": "R CENTRAL",
      "house": "",
      "postcode": "5000-132",
      "city": "LAMARES",
      "lon": "-7.629803089227377",
      "lat": "41.32975625862905"
    },
    {
      "id": "pt.ine.add.PTCONT.5388798",
      "street": "R CENTRAL",
      "house": "",
      "postcode": "5000-132",
      "city": "LAMARES",
      "lon": "-7.629788164520503",
      "lat": "41.330143368512296"
    },
    {
      "id": "pt.ine.add.PTCONT.5406938",
      "street": "R CENTRAL",
      "house": "",
      "postcode": "5000-132",
      "city": "LAMARES",
      "lon": "-7.629854499064744",
      "lat": "41.33083697214491"
    }
  ]
}