{
  "data": {
    "distrito": "Vila Real",
    "concelho": "Vila Real",
    "freguesia": "União das freguesias de Mouçós e Lamares",
    "OBJECTID": 746,
    "BGRI2021": "17143400105",
    "DT21": "17",
    "DTMN21": "1714",
    "DTMNFR21": "171434",
    "DTMNFRSEC21": "171434001",
    "SECNUM21": "001",
    "SSNUM21": "05",
    "SECSSNUM21": "00105",
    "OBJECTID_1": 187773,
    "DT": "17",
    "CC": "14",
    "fr": "34",
    "SEC": "001",
    "SS": "05"
  },
  "addresses": [
    {
      "id": "pt.ine.add.PTCONT.5312295",
      "street": "TV CRUZEIRO",
      "house": "",
      "postcode": "5000-132",
      "city": "LAMARES",
      "lon": "-7.631153739368591",
      "lat": "41.332760512654886"
    },
    {
      "id": "pt.ine.add.PTCONT.5329348",
      "street": "R BARREIRA",
      "house": "",
      "postcode": "5000-132",
      "city": "LAMARES",
      "lon": "-7.631368135799504",
      "lat": "41.33284248409373"
    },
    {
      "id": "pt.ine.add.PTCONT.5335885",
      "street": "R CALVÁRIO",
      "house": "",
      "postcode": "5000-132",
      "city": "LAMARES",
      "lon": "-7.6323701765288625",
      "lat": "41.333026929306946"
    },
    {
      "id": "pt.ine.add.PTCONT.5340910",
      "street": "R CENTRAL",
      "house": "",
      "postcode": "5000-132",
      "city": "LAMARES",
      "lon": "-7.631357986633021",
      "lat": "41.33260833405199"
    },
    {
      "id": "pt.ine.add.PTCONT.5346886",
      "street": "R CENTRAL",
      "house": "",
      "postcode": "5000-132",
      "city": "LAMARES",
      "lon": "-7.631298674067879",
      "lat": "41.33255405105431"
    },
    {
      "id": "pt.ine.add.PTCONT.5373988",
      "street": "R BARREIRA",
      "house": "",
      "postcode": "5000-132",
      "city": "LAMARES",
      "lon": "-7.631489041000096",
      "lat": "41.33265392564013"
    },
    {
      "id": "pt.ine.add.PTCONT.5387721",
      "street": "R CRUZEIRO",
      "house": "",
      "postcode": "5000-132",
      "city": "LAMARES",
      "lon": "-7.631155052581",
      "lat": "41.332589441067235"
    },
    {
      "id": "pt.ine.add.PTCONT.5399446",
      "street": "R CENTRAL",
      "house": "",
      "postcode": "5000-132",
      "city": "LAMARES",
      "lon": "-7.6315961356036786",
      "lat": "41.332708416750414"
    },
    {
      "id": "pt.ine.add.PTCONT.5419605",
      "street": "R CENTRAL",
      "house": "",
      "postcode": "5000-132",
      "city": "LAMARES",
      "lon": "-7.632396273818365",
      "lat": "41.332738912631676"
    },
    {
      "id": "pt.ine.add.PTCONT.5424318",
      "street": "R FRAGA",
      "house": "",
      "postcode": "5000-132",
      "city": "LAMARES",
      "lon": "-7.631928744873385",
      "lat": "41.33295297541883"
    }
  ]
}