{
  "data": {
    "distrito": "Santarém",
    "concelho": "Santarém",
    "freguesia": "Abitureiras",
    "OBJECTID": 891,
    "BGRI2021": "14160100135",
    "DT21": "14",
    "DTMN21": "1416",
    "DTMNFR21": "141601",
    "DTMNFRSEC21": "141601001",
    "SECNUM21": "001",
    "SSNUM21": "35",
    "SECSSNUM21": "00135",
    "OBJECTID_1": 154229,
    "DT": "14",
    "CC": "16",
    "fr": "01",
    "SEC": "001",
    "SS": "35"
  },
  "addresses": [
    {
      "id": "pt.ine.add.PTCONT.4402584",
      "street": "R CIDADE SANTARÉM",
      "house": "",
      "postcode": "2005-121",
      "city": "ABITUREIRAS",
      "lon": "-8.783419694580356",
      "lat": "39.324689958455245"
    },
    {
      "id": "pt.ine.add.PTCONT.4421139",
      "street": "R VILA POÇO",
      "house": "",
      "postcode": "2005-121",
      "city": "ABITUREIRAS",
      "lon": "-8.783903906292549",
      "lat": "39.32563300125145"
    },
    {
      "id": "pt.ine.add.PTCONT.4474857",
      "street": "R CIDADE SANTARÉM",
      "house": "",
      "postcode": "2005-121",
      "city": "ABITUREIRAS",
      "lon": "-8.783628844538486",
      "lat": "39.32473382547348"
    },
    {
      "id": "pt.ine.add.PTCONT.4574127",
      "street": "R LAGAR",
      "house": "",
      "postcode": "2005-121",
      "city": "ABITUREIRAS",
      "lon": "-8.783561102379696",
      "lat": "39.324932360970664"
    },
    {
      "id": "pt.ine.add.PTCONT.4650652",
      "street": "R 1 DE MAIO",
      "house": "",
      "postcode": "2005-121",
      "city": "ABITUREIRAS",
      "lon": "-8.783425199861192",
      "lat": "39.325284398501736"
    }
  ]
}