{
  "data": {
    "distrito": "Beja",
    "concelho": "Almodôvar",
    "freguesia": "Rosário",
    "OBJECTID": 76,
    "BGRI2021": "02020300132",
    "DT21": "02",
    "DTMN21": "0202",
    "DTMNFR21": "020203",
    "DTMNFRSEC21": "020203001",
    "SECNUM21": "001",
    "SSNUM21": "32",
    "SECSSNUM21": "00132",
    "OBJECTID_1": 12902,
    "DT": "02",
    "CC": "02",
    "fr": "03",
    "SEC": "001",
    "SS": "32"
  },
  "addresses": [
    {
      "id": "pt.ine.add.PTCONT.355308",
      "street": "R DAS EIRAS",
      "house": "4",
      "postcode": "7700-235",
      "city": "ROSÁRIO",
      "lon": "-8.084488407005859",
      "lat": "37.608678562160605"
    },
    {
      "id": "pt.ine.add.PTCONT.369894",
      "street": "LOTEAM MUNICIPAL DA ZONA NORTE",
      "house": "1",
      "postcode": "7700-235",
      "city": "ROSÁRIO",
      "lon": "-8.08213184606021",
      "lat": "37.60996598248891"
    },
    {
      "id": "pt.ine.add.PTCONT.380685",
      "street": "EN 2",
      "house": "",
      "postcode": "7700-235",
      "city": "ROSÁRIO",
      "lon": "-8.082618249413832",
      "lat": "37.61084916095326"
    },
    {
      "id": "pt.ine.add.PTCONT.392764",
      "street": "LOTEAM MUNICIPAL DA ZONA NORTE",
      "house": "2",
      "postcode": "7700-235",
      "city": "ROSÁRIO",
      "lon": "-8.08207530431165",
      "lat": "37.60983981956096"
    },
    {
      "id": "pt.ine.add.PTCONT.400740",
      "street": "R DAS EIRAS",
      "house": "2",
      "postcode": "7700-235",
      "city": "ROSÁRIO",
      "lon": "-8.084375211866233",
      "lat": "37.608588416529756"
    },
    {
      "id": "pt.ine.add.PTCONT.405323",
      "street": "R DAS EIRAS",
      "house": "6",
      "postcode": "7700-235",
      "city": "ROSÁRIO",
      "lon": "-8.084726152706232",
      "lat": "37.60881380827886"
    },
    {
      "id": "pt.ine.add.PTCONT.406578",
      "street": "EN 2",
      "house": "21",
      "postcode": "7700-235",
      "city": "ROSÁRIO",
      "lon": "-8.082380091037017",
      "lat": "37.61131757312191"
    },
    {
      "id": "pt.ine.add.PTCONT.428216",
      "street": "R EIRAS CX POSTAL 165",
      "house": "8",
      "postcode": "7700-235",
      "city": "ROSÁRIO",
      "lon": "-8.08499785815821",
      "lat": "37.60897609744562"
    },
    {
      "id": "pt.ine.add.PTCONT.432782",
      "street": "R PROJECTADA A ESTRADA NACIONAL",
      "house": "",
      "postcode": "7700-235",
      "city": "ROSÁRIO",
      "lon": "-8.08240389870739",
      "lat": "37.60961471388609"
    }
  ]
}