{
  "data": {
    "distrito": "Évora",
    "concelho": "Montemor-O-Novo",
    "freguesia": "São Cristóvão",
    "OBJECTID": 63,
    "BGRI2021": "07060600104",
    "DT21": "07",
    "DTMN21": "0706",
    "DTMNFR21": "070606",
    "DTMNFRSEC21": "070606001",
    "SECNUM21": "001",
    "SSNUM21": "04",
    "SECSSNUM21": "00104",
    "OBJECTID_1": 61610,
    "DT": "07",
    "CC": "06",
    "fr": "06",
    "SEC": "001",
    "SS": "04"
  },
  "addresses": [
    {
      "id": "pt.ine.add.PTCONT.1368001",
      "street": "COURELA DO OLIVAL",
      "house": "",
      "postcode": "7050-586",
      "city": "SÃO CRISTÓVÃO",
      "lon": "-8.304136541740112",
      "lat": "38.47220676239629"
    },
    {
      "id": "pt.ine.add.PTCONT.1369413",
      "street": "FONTE DOS CARVALHEIROS",
      "house": "",
      "postcode": "7050-586",
      "city": "SÃO CRISTÓVÃO",
      "lon": "-8.312012344832644",
      "lat": "38.473564300191754"
    },
    {
      "id": "pt.ine.add.PTCONT.1383799",
      "street": "COURELA DOS CARVALHEIROS",
      "house": "",
      "postcode": "7050-586",
      "city": "SÃO CRISTÓVÃO",
      "lon": "-8.306232314145022",
      "lat": "38.47647373930433"
    },
    {
      "id": "pt.ine.add.PTCONT.1407841",
      "street": "EM 535 - COURELA DO ZAMBUJEIRO",
      "house": "40",
      "postcode": "7050-586",
      "city": "SÃO CRISTÓVÃO",
      "lon": "-8.311879641022523",
      "lat": "38.47087094387056"
    },
    {
      "id": "pt.ine.add.PTCONT.1407842",
      "street": "EM 535 - COURELA DO ZAMBUJEIRO",
      "house": "40",
      "postcode": "7050-586",
      "city": "SÃO CRISTÓVÃO",
      "lon": "-8.311879641022523",
      "lat": "38.47087094387056"
    },
    {
      "id": "pt.ine.add.PTCONT.1411089",
      "street": "MTE PEREIRA",
      "house": "32",
      "postcode": "7050-586",
      "city": "SÃO CRISTÓVÃO",
      "lon": "-8.30496666710005",
      "lat": "38.474340575620445"
    },
    {
      "id": "pt.ine.add.PTCONT.1421439",
      "street": "COURELA DOS CARVALHEIROS",
      "house": "",
      "postcode": "7050-586",
      "city": "SÃO CRISTÓVÃO",
      "lon": "-8.306175424341944",
      "lat": "38.47664498585759"
    },
    {
      "id": "pt.ine.add.PTCONT.1426532",
      "street": "FONTE DOS CARVALHEIROS",
      "house": "",
      "postcode": "7050-586",
      "city": "SÃO CRISTÓVÃO",
      "lon": "-8.311700987078062",
      "lat": "38.472772022280964"
    },
    {
      "id": "pt.ine.add.PTCONT.1446358",
      "street": "EM 535",
      "house": "",
      "postcode": "7050-586",
      "city": "SÃO CRISTÓVÃO",
      "lon": "-8.316424882897381",
      "lat": "38.46930543853647"
    },
    {
      "id": "pt.ine.add.PTCONT.1447114",
      "street": "EM 535 - COURELAS DA PEREIRA",
      "house": "42",
      "postcode": "7050-586",
      "city": "SÃO CRISTÓVÃO",
      "lon": "-8.3128303282654",
      "lat": "38.47070733516438"
    },
    {
      "id": "pt.ine.add.PTCONT.1448690",
      "street": "COURELA DO PINHEIRO",
      "house": "",
      "postcode": "7050-583",
      "city": "SÃO CRISTÓVÃO",
      "lon": "-8.306346062628466",
      "lat": "38.47132968553043"
    },
    {
      "id": "pt.ine.add.PTCONT.1459106",
      "street": "COURELA DOS CARVALHEIROS",
      "house": "",
      "postcode": "7050-586",
      "city": "SÃO CRISTÓVÃO",
      "lon": "-8.305667777404691",
      "lat": "38.47521337479353"
    },
    {
      "id": "pt.ine.add.PTCONT.1461922",
      "street": "EM 535 - COURELAS DA PEREIRA",
      "house": "",
      "postcode": "7050-586",
      "city": "SÃO CRISTÓVÃO",
      "lon": "-8.313598522772493",
      "lat": "38.470886325341255"
    },
    {
      "id": "pt.ine.add.PTCONT.1465204",
      "street": "EM 535",
      "house": "",
      "postcode": "7050-586",
      "city": "SÃO CRISTÓVÃO",
      "lon": "-8.316424882897381",
      "lat": "38.46930543853647"
    },
    {
      "id": "pt.ine.add.PTCONT.1465413",
      "street": "EM 535 - COURELA DO ZAMBUJEIRO",
      "house": "38",
      "postcode": "7050-586",
      "city": "SÃO CRISTÓVÃO",
      "lon": "-8.31263729183503",
      "lat": "38.47141930738134"
    }
  ]
}