{
  "data": {
    "distrito": "Évora",
    "concelho": "Montemor-O-Novo",
    "freguesia": "São Cristóvão",
    "OBJECTID": 464,
    "BGRI2021": "07060600146",
    "DT21": "07",
    "DTMN21": "0706",
    "DTMNFR21": "070606",
    "DTMNFRSEC21": "070606001",
    "SECNUM21": "001",
    "SSNUM21": "46",
    "SECSSNUM21": "00146",
    "OBJECTID_1": 61689,
    "DT": "07",
    "CC": "06",
    "fr": "06",
    "SEC": "001",
    "SS": "46"
  },
  "addresses": [
    {
      "id": "pt.ine.add.PTCONT.1395317",
      "street": "HRD DO SOBRAL",
      "house": "",
      "postcode": "7050-601",
      "city": "SÃO CRISTÓVÃO",
      "lon": "-8.263904137466998",
      "lat": "38.56133458068473"
    },
    {
      "id": "pt.ine.add.PTCONT.1409827",
      "street": "MTE DO ARRANHADOURO",
      "house": "",
      "postcode": "7050-601",
      "city": "SÃO CRISTÓVÃO",
      "lon": "-8.261424623466342",
      "lat": "38.5477075608097"
    },
    {
      "id": "pt.ine.add.PTCONT.1411132",
      "street": "HRD DO SOBRAL",
      "house": "",
      "postcode": "7050-601",
      "city": "SÃO CRISTÓVÃO",
      "lon": "-8.262285629755214",
      "lat": "38.5609039733915"
    },
    {
      "id": "pt.ine.add.PTCONT.1423203",
      "street": "MTE DO ARRANHADOURO",
      "house": "",
      "postcode": "7050-601",
      "city": "SÃO CRISTÓVÃO",
      "lon": "-8.262167986212493",
      "lat": "38.55285957293549"
    },
    {
      "id": "pt.ine.add.PTCONT.1444023",
      "street": "MTE DA SESTA VELHA",
      "house": "",
      "postcode": "7050-601",
      "city": "SÃO CRISTÓVÃO",
      "lon": "-8.26084640689239",
      "lat": "38.55804087237469"
    },
    {
      "id": "pt.ine.add.PTCONT.1449482",
      "street": "MTE SEXTA",
      "house": "",
      "postcode": "7050-600",
      "city": "SÃO CRISTÓVÃO",
      "lon": "-8.254431282140892",
      "lat": "38.556948667688076"
    }
  ]
}