{
  "data": {
    "distrito": "Bragança",
    "concelho": "Mirandela",
    "freguesia": "Múrias",
    "OBJECTID": 110,
    "BGRI2021": "04072200115",
    "DT21": "04",
    "DTMN21": "0407",
    "DTMNFR21": "040722",
    "DTMNFRSEC21": "040722001",
    "SECNUM21": "001",
    "SSNUM21": "15",
    "SECSSNUM21": "00115",
    "OBJECTID_1": 37017,
    "DT": "04",
    "CC": "07",
    "fr": "22",
    "SEC": "001",
    "SS": "15"
  },
  "addresses": [
    {
      "id": "pt.ine.add.PTCONT.858965",
      "street": "R RIBEIRAL",
      "house": "",
      "postcode": "5385-055",
      "city": "MÚRIAS",
      "lon": "-7.145125392079612",
      "lat": "41.60570509356594"
    },
    {
      "id": "pt.ine.add.PTCONT.882546",
      "street": "R OUTEIRO",
      "house": "",
      "postcode": "5385-055",
      "city": "MÚRIAS",
      "lon": "-7.142823701887774",
      "lat": "41.6048209504403"
    },
    {
      "id": "pt.ine.add.PTCONT.895891",
      "street": "R CALVÁRIO",
      "house": "",
      "postcode": "5385-055",
      "city": "MÚRIAS",
      "lon": "-7.142394791528334",
      "lat": "41.60384487406618"
    },
    {
      "id": "pt.ine.add.PTCONT.896804",
      "street": "R OUTEIRO",
      "house": "",
      "postcode": "5385-055",
      "city": "MÚRIAS",
      "lon": "-7.143145617741604",
      "lat": "41.604949772463435"
    },
    {
      "id": "pt.ine.add.PTCONT.901517",
      "street": "R RIBEIRAL",
      "house": "",
      "postcode": "5385-055",
      "city": "MÚRIAS",
      "lon": "-7.1449136152567325",
      "lat": "41.60543316753408"
    },
    {
      "id": "pt.ine.add.PTCONT.909849",
      "street": "R OUTEIRO",
      "house": "",
      "postcode": "5385-055",
      "city": "MÚRIAS",
      "lon": "-7.142992446036221",
      "lat": "41.60476838280368"
    },
    {
      "id": "pt.ine.add.PTCONT.925013",
      "street": "R BANDARRA OCHOA",
      "house": "",
      "postcode": "5385-055",
      "city": "MÚRIAS",
      "lon": "-7.143496200654799",
      "lat": "41.604772720524906"
    },
    {
      "id": "pt.ine.add.PTCONT.930135",
      "street": "R BANDARRA OCHOA",
      "house": "",
      "postcode": "5385-055",
      "city": "MÚRIAS",
      "lon": "-7.143132384978906",
      "lat": "41.60503069022907"
    },
    {
      "id": "pt.ine.add.PTCONT.932460",
      "street": "R OUTEIRO",
      "house": "",
      "postcode": "5385-055",
      "city": "MÚRIAS",
      "lon": "-7.143014645097974",
      "lat": "41.604885619825254"
    },
    {
      "id": "pt.ine.add.PTCONT.939340",
      "street": "R BANDARRA OCHOA",
      "house": "",
      "postcode": "5385-055",
      "city": "MÚRIAS",
      "lon": "-7.143339175878162",
      "lat": "41.60484339685596"
    },
    {
      "id": "pt.ine.add.PTCONT.943340",
      "street": "R CEMITÉRIO",
      "house": "",
      "postcode": "5385-055",
      "city": "MÚRIAS",
      "lon": "-7.142670393708403",
      "lat": "41.604648562699616"
    },
    {
      "id": "pt.ine.add.PTCONT.943348",
      "street": "R RIBEIRAL",
      "house": "",
      "postcode": "5385-055",
      "city": "MÚRIAS",
      "lon": "-7.144848285875896",
      "lat": "41.60578374337404"
    }
  ]
}