{
  "data": {
    "distrito": "Porto",
    "concelho": "Amarante",
    "freguesia": "União das freguesias de Figueiró (Santiago e Santa Cristina)",
    "OBJECTID": 1028,
    "BGRI2021": "13014400121",
    "DT21": "13",
    "DTMN21": "1301",
    "DTMNFR21": "130144",
    "DTMNFRSEC21": "130144001",
    "SECNUM21": "001",
    "SSNUM21": "21",
    "SECSSNUM21": "00121",
    "OBJECTID_1": 125753,
    "DT": "13",
    "CC": "01",
    "fr": "44",
    "SEC": "001",
    "SS": "21"
  },
  "addresses": [
    {
      "id": "pt.ine.add.PTCONT.3558242",
      "street": "CC CHAMUSCA",
      "house": "30",
      "postcode": "4615-090",
      "city": "FIGUEIRÓ (SANTA CRISTINA)",
      "lon": "-8.164950076596945",
      "lat": "41.29575412449952"
    },
    {
      "id": "pt.ine.add.PTCONT.3597905",
      "street": "R ZONA INDUSTRIAL",
      "house": "445",
      "postcode": "4615-132",
      "city": "FIGUEIRÓ (SANTA CRISTINA)",
      "lon": "-8.166215959862644",
      "lat": "41.29641107189948"
    },
    {
      "id": "pt.ine.add.PTCONT.3776232",
      "street": "TV CHAMUSCA",
      "house": "",
      "postcode": "4615-090",
      "city": "FIGUEIRÓ (SANTA CRISTINA)",
      "lon": "-8.165475168163628",
      "lat": "41.29528576110838"
    },
    {
      "id": "pt.ine.add.PTCONT.3841658",
      "street": "TV CHAMUSCA",
      "house": "",
      "postcode": "4615-090",
      "city": "FIGUEIRÓ (SANTA CRISTINA)",
      "lon": "-8.16700290819277",
      "lat": "41.29439390828089"
    },
    {
      "id": "pt.ine.add.PTCONT.3863046",
      "street": "CC NOVA DA CHAMUSCA",
      "house": "52",
      "postcode": "4615-090",
      "city": "FIGUEIRÓ (SANTA CRISTINA)",
      "lon": "-8.165093412489501",
      "lat": "41.295889147339125"
    },
    {
      "id": "pt.ine.add.PTCONT.3882169",
      "street": "TV CHAMUSCA",
      "house": "215",
      "postcode": "4615-090",
      "city": "FIGUEIRÓ (SANTA CRISTINA)",
      "lon": "-8.165128996660842",
      "lat": "41.2954119163321"
    },
    {
      "id": "pt.ine.add.PTCONT.4096723",
      "street": "TV CHAMUSCA",
      "house": "165",
      "postcode": "4615-090",
      "city": "FIGUEIRÓ (SANTA CRISTINA)",
      "lon": "-8.165749744423826",
      "lat": "41.29524066271792"
    },
    {
      "id": "pt.ine.add.PTCONT.4161938",
      "street": "TV CHAMUSCA",
      "house": "",
      "postcode": "4615-090",
      "city": "FIGUEIRÓ (SANTA CRISTINA)",
      "lon": "-8.165319982348231",
      "lat": "41.29533082549851"
    },
    {
      "id": "pt.ine.add.PTCONT.4206248",
      "street": "CC NOVA DA CHAMUSCA",
      "house": "49",
      "postcode": "4615-090",
      "city": "FIGUEIRÓ (SANTA CRISTINA)",
      "lon": "-8.165308242526766",
      "lat": "41.295736016529894"
    },
    {
      "id": "pt.ine.add.PTCONT.4278120",
      "street": "R CHAMUSCA",
      "house": "286",
      "postcode": "4615-081",
      "city": "FIGUEIRÓ (SANTA CRISTINA)",
      "lon": "-8.166346848550626",
      "lat": "41.29553762955103"
    },
    {
      "id": "pt.ine.add.PTCONT.4313574",
      "street": "TV CHAMUSCA",
      "house": "249",
      "postcode": "4615-090",
      "city": "FIGUEIRÓ (SANTA CRISTINA)",
      "lon": "-8.16484251506052",
      "lat": "41.295529049901035"
    },
    {
      "id": "pt.ine.add.PTCONT.4313575",
      "street": "TV CHAMUSCA",
      "house": "249",
      "postcode": "4615-090",
      "city": "FIGUEIRÓ (SANTA CRISTINA)",
      "lon": "-8.16484251506052",
      "lat": "41.295529049901035"
    }
  ]
}