{
  "data": {
    "distrito": "Viseu",
    "concelho": "Nelas",
    "freguesia": "Nelas",
    "OBJECTID": 62,
    "BGRI2021": "18090300413",
    "DT21": "18",
    "DTMN21": "1809",
    "DTMNFR21": "180903",
    "DTMNFRSEC21": "180903004",
    "SECNUM21": "004",
    "SSNUM21": "13",
    "SECSSNUM21": "00413",
    "OBJECTID_1": 193755,
    "DT": "18",
    "CC": "09",
    "fr": "03",
    "SEC": "004",
    "SS": "13"
  },
  "addresses": [
    {
      "id": "pt.ine.add.PTCONT.5487003",
      "street": "AV D MARIA II",
      "house": "60",
      "postcode": "3520-086",
      "city": "NELAS",
      "lon": "-7.847840648163059",
      "lat": "40.537637321846276"
    },
    {
      "id": "pt.ine.add.PTCONT.5499945",
      "street": "BR TOICAS",
      "house": "13",
      "postcode": "3520-045",
      "city": "NELAS",
      "lon": "-7.848063500419252",
      "lat": "40.537971069476974"
    },
    {
      "id": "pt.ine.add.PTCONT.5499946",
      "street": "R ASSOCIAÇÃO CIMO DO POVO",
      "house": "",
      "postcode": "3520-016",
      "city": "NELAS",
      "lon": "-7.848063500419252",
      "lat": "40.537971069476974"
    },
    {
      "id": "pt.ine.add.PTCONT.5499947",
      "street": "R ASSOCIAÇÃO CIMO DO POVO",
      "house": "",
      "postcode": "3520-016",
      "city": "NELAS",
      "lon": "-7.848063500419252",
      "lat": "40.537971069476974"
    },
    {
      "id": "pt.ine.add.PTCONT.5499948",
      "street": "BR TOICAS",
      "house": "13",
      "postcode": "3520-045",
      "city": "NELAS",
      "lon": "-7.848063500419252",
      "lat": "40.537971069476974"
    },
    {
      "id": "pt.ine.add.PTCONT.5499949",
      "street": "R ASSOCIAÇÃO CIMO DO POVO",
      "house": "",
      "postcode": "3520-016",
      "city": "NELAS",
      "lon": "-7.848063500419252",
      "lat": "40.537971069476974"
    },
    {
      "id": "pt.ine.add.PTCONT.5501170",
      "street": "R ASSOCIAÇÃO CIMO DO POVO",
      "house": "",
      "postcode": "3520-016",
      "city": "NELAS",
      "lon": "-7.848063500419252",
      "lat": "40.537971069476974"
    },
    {
      "id": "pt.ine.add.PTCONT.5501292",
      "street": "R ASSOCIAÇÃO CIMO POVO",
      "house": "13",
      "postcode": "3520-016",
      "city": "NELAS",
      "lon": "-7.848063500419252",
      "lat": "40.537971069476974"
    },
    {
      "id": "pt.ine.add.PTCONT.5501293",
      "street": "R ASSOCIAÇÃO CIMO POVO",
      "house": "13",
      "postcode": "3520-016",
      "city": "NELAS",
      "lon": "-7.848063500419252",
      "lat": "40.537971069476974"
    },
    {
      "id": "pt.ine.add.PTCONT.5503550",
      "street": "R JOSE MARIA DA FONSECA",
      "house": "",
      "postcode": "3520-099",
      "city": "NELAS",
      "lon": "-7.848052880177972",
      "lat": "40.53769187768011"
    },
    {
      "id": "pt.ine.add.PTCONT.5507590",
      "street": "R ASSOCIAÇÃO CIMO DO POVO",
      "house": "15",
      "postcode": "3520-016",
      "city": "NELAS",
      "lon": "-7.848275771807246",
      "lat": "40.53801661965495"
    },
    {
      "id": "pt.ine.add.PTCONT.5507591",
      "street": "R ASSOCIAÇÃO CIMO DO POVO",
      "house": "15",
      "postcode": "3520-016",
      "city": "NELAS",
      "lon": "-7.848275771807246",
      "lat": "40.53801661965495"
    },
    {
      "id": "pt.ine.add.PTCONT.5507592",
      "street": "R ASSOCIAÇÃO CIMO DO POVO",
      "house": "15",
      "postcode": "3520-016",
      "city": "NELAS",
      "lon": "-7.848275771807246",
      "lat": "40.53801661965495"
    },
    {
      "id": "pt.ine.add.PTCONT.5507593",
      "street": "R ASSOCIAÇÃO CIMO DO POVO",
      "house": "15",
      "postcode": "3520-016",
      "city": "NELAS",
      "lon": "-7.848275771807246",
      "lat": "40.53801661965495"
    },
    {
      "id": "pt.ine.add.PTCONT.5507594",
      "street": "R ASSOCIAÇÃO CIMO DO POVO",
      "house": "15",
      "postcode": "3520-016",
      "city": "NELAS",
      "lon": "-7.848275771807246",
      "lat": "40.53801661965495"
    },
    {
      "id": "pt.ine.add.PTCONT.5507595",
      "street": "R ASSOCIAÇÃO CIMO DO POVO",
      "house": "15",
      "postcode": "3520-016",
      "city": "NELAS",
      "lon": "-7.848275771807246",
      "lat": "40.53801661965495"
    },
    {
      "id": "pt.ine.add.PTCONT.5507596",
      "street": "R ASSOCIAÇÃO CIMO DO POVO",
      "house": "15",
      "postcode": "3520-016",
      "city": "NELAS",
      "lon": "-7.848275771807246",
      "lat": "40.53801661965495"
    },
    {
      "id": "pt.ine.add.PTCONT.5507603",
      "street": "R ASSOCIAÇÃO CIMO DO POVO",
      "house": "15",
      "postcode": "3520-016",
      "city": "NELAS",
      "lon": "-7.848275771807246",
      "lat": "40.53801661965495"
    },
    {
      "id": "pt.ine.add.PTCONT.5512756",
      "street": "R JOSE MARIA DA FONSECA",
      "house": "26",
      "postcode": "3520-099",
      "city": "NELAS",
      "lon": "-7.848737134703592",
      "lat": "40.537774611821305"
    },
    {
      "id": "pt.ine.add.PTCONT.5556605",
      "street": "R JOSE MARIA DA FONSECA",
      "house": "22",
      "postcode": "3520-099",
      "city": "NELAS",
      "lon": "-7.848501218839986",
      "lat": "40.53773800959358"
    },
    {
      "id": "pt.ine.add.PTCONT.5556606",
      "street": "R JOSE MARIA DA FONSECA",
      "house": "22",
      "postcode": "3520-099",
      "city": "NELAS",
      "lon": "-7.848501218839986",
      "lat": "40.53773800959358"
    },
    {
      "id": "pt.ine.add.PTCONT.5561878",
      "street": "R ASSOCIAÇÃO CIMO DO POVO",
      "house": "",
      "postcode": "3520-016",
      "city": "NELAS",
      "lon": "-7.847662144953156",
      "lat": "40.53797908399369"
    },
    {
      "id": "pt.ine.add.PTCONT.5561879",
      "street": "R ASSOCIAÇÃO CIMO DO POVO",
      "house": "",
      "postcode": "3520-016",
      "city": "NELAS",
      "lon": "-7.847662144953156",
      "lat": "40.53797908399369"
    },
    {
      "id": "pt.ine.add.PTCONT.5563225",
      "street": "BR TOICAS",
      "house": "",
      "postcode": "3520-045",
      "city": "NELAS",
      "lon": "-7.847662144953156",
      "lat": "40.53797908399369"
    },
    {
      "id": "pt.ine.add.PTCONT.5617174",
      "street": "R ASSOCIAÇÃO CIMO POVO",
      "house": "2",
      "postcode": "3520-016",
      "city": "NELAS",
      "lon": "-7.84864110763801",
      "lat": "40.538152599797776"
    },
    {
      "id": "pt.ine.add.PTCONT.5623222",
      "street": "R ASSOCIAÇÃO CIMO DO POVO",
      "house": "15A",
      "postcode": "3520-016",
      "city": "NELAS",
      "lon": "-7.848428873687952",
      "lat": "40.53809804504221"
    },
    {
      "id": "pt.ine.add.PTCONT.5623223",
      "street": "R ASSOCIAÇÃO CIMO DO POVO",
      "house": "15A",
      "postcode": "3520-016",
      "city": "NELAS",
      "lon": "-7.848428873687952",
      "lat": "40.53809804504221"
    },
    {
      "id": "pt.ine.add.PTCONT.5623224",
      "street": "R ASSOCIAÇÃO CIMO DO POVO",
      "house": "15A",
      "postcode": "3520-016",
      "city": "NELAS",
      "lon": "-7.848428873687952",
      "lat": "40.53809804504221"
    },
    {
      "id": "pt.ine.add.PTCONT.5623225",
      "street": "R ASSOCIAÇÃO CIMO DO POVO",
      "house": "15A",
      "postcode": "3520-016",
      "city": "NELAS",
      "lon": "-7.848428873687952",
      "lat": "40.53809804504221"
    },
    {
      "id": "pt.ine.add.PTCONT.5623226",
      "street": "R ASSOCIAÇÃO CIMO DO POVO",
      "house": "15A",
      "postcode": "3520-016",
      "city": "NELAS",
      "lon": "-7.848428873687952",
      "lat": "40.53809804504221"
    },
    {
      "id": "pt.ine.add.PTCONT.5623227",
      "street": "R ASSOCIAÇÃO CIMO DO POVO",
      "house": "15A",
      "postcode": "3520-016",
      "city": "NELAS",
      "lon": "-7.848428873687952",
      "lat": "40.53809804504221"
    },
    {
      "id": "pt.ine.add.PTCONT.5623228",
      "street": "R ASSOCIAÇÃO CIMO DO POVO",
      "house": "15A",
      "postcode": "3520-016",
      "city": "NELAS",
      "lon": "-7.848428873687952",
      "lat": "40.53809804504221"
    },
    {
      "id": "pt.ine.add.PTCONT.5623229",
      "street": "R ASSOCIAÇÃO CIMO DO POVO",
      "house": "15A",
      "postcode": "3520-016",
      "city": "NELAS",
      "lon": "-7.848428873687952",
      "lat": "40.53809804504221"
    },
    {
      "id": "pt.ine.add.PTCONT.5623230",
      "street": "R ASSOCIAÇÃO CIMO DO POVO",
      "house": "15A",
      "postcode": "3520-016",
      "city": "NELAS",
      "lon": "-7.848428873687952",
      "lat": "40.53809804504221"
    },
    {
      "id": "pt.ine.add.PTCONT.5623231",
      "street": "R ASSOCIAÇÃO CIMO DO POVO",
      "house": "15A",
      "postcode": "3520-016",
      "city": "NELAS",
      "lon": "-7.848428873687952",
      "lat": "40.53809804504221"
    },
    {
      "id": "pt.ine.add.PTCONT.5623232",
      "street": "R ASSOCIAÇÃO CIMO DO POVO",
      "house": "15A",
      "postcode": "3520-016",
      "city": "NELAS",
      "lon": "-7.848428873687952",
      "lat": "40.53809804504221"
    },
    {
      "id": "pt.ine.add.PTCONT.5623233",
      "street": "R ASSOCIAÇÃO CIMO DO POVO",
      "house": "15A",
      "postcode": "3520-016",
      "city": "NELAS",
      "lon": "-7.848428873687952",
      "lat": "40.53809804504221"
    },
    {
      "id": "pt.ine.add.PTCONT.5623234",
      "street": "R ASSOCIAÇÃO CIMO DO POVO",
      "house": "15A",
      "postcode": "3520-016",
      "city": "NELAS",
      "lon": "-7.848428873687952",
      "lat": "40.53809804504221"
    },
    {
      "id": "pt.ine.add.PTCONT.5646122",
      "street": "R JOSE MARIA DA FONSECA",
      "house": "",
      "postcode": "3520-099",
      "city": "NELAS",
      "lon": "-7.848277030361988",
      "lat": "40.5377194464781"
    },
    {
      "id": "pt.ine.add.PTCONT.5656636",
      "street": "R ASSOCIAÇÃO CIMO POVO",
      "house": "11",
      "postcode": "3520-016",
      "city": "NELAS",
      "lon": "-7.847827584241751",
      "lat": "40.53793446587397"
    },
    {
      "id": "pt.ine.add.PTCONT.5656637",
      "street": "R ASSOCIAÇÃO CIMO POVO",
      "house": "11",
      "postcode": "3520-016",
      "city": "NELAS",
      "lon": "-7.847827584241751",
      "lat": "40.53793446587397"
    },
    {
      "id": "pt.ine.add.PTCONT.5656638",
      "street": "R ASSOCIAÇÃO CIMO POVO",
      "house": "11",
      "postcode": "3520-016",
      "city": "NELAS",
      "lon": "-7.847827584241751",
      "lat": "40.53793446587397"
    },
    {
      "id": "pt.ine.add.PTCONT.5656639",
      "street": "R ASSOCIAÇÃO CIMO POVO",
      "house": "11",
      "postcode": "3520-016",
      "city": "NELAS",
      "lon": "-7.847827584241751",
      "lat": "40.53793446587397"
    },
    {
      "id": "pt.ine.add.PTCONT.5656640",
      "street": "R ASSOCIAÇÃO CIMO POVO",
      "house": "11",
      "postcode": "3520-016",
      "city": "NELAS",
      "lon": "-7.847827584241751",
      "lat": "40.53793446587397"
    },
    {
      "id": "pt.ine.add.PTCONT.5666028",
      "street": "BR TOICAS",
      "house": "1",
      "postcode": "3520-045",
      "city": "NELAS",
      "lon": "-7.847827584241751",
      "lat": "40.53793446587397"
    }
  ]
}