{
  "data": {
    "distrito": "Aveiro",
    "concelho": "Anadia",
    "freguesia": "Avelãs de Cima",
    "OBJECTID": 528,
    "BGRI2021": "01030500234",
    "DT21": "01",
    "DTMN21": "0103",
    "DTMNFR21": "010305",
    "DTMNFRSEC21": "010305002",
    "SECNUM21": "002",
    "SSNUM21": "34",
    "SECSSNUM21": "00234",
    "OBJECTID_1": 1975,
    "DT": "01",
    "CC": "03",
    "fr": "05",
    "SEC": "002",
    "SS": "34"
  },
  "addresses": [
    {
      "id": "pt.ine.add.PTCONT.336840",
      "street": "R DR SA CARNEIRO",
      "house": "5",
      "postcode": "3780-415",
      "city": "AVELÃS DE CIMA",
      "lon": "-8.417334473297883",
      "lat": "40.48386873979277"
    },
    {
      "id": "pt.ine.add.PTCONT.340337",
      "street": "R OLIVAIS",
      "house": "10",
      "postcode": "3780-415",
      "city": "AVELÃS DE CIMA",
      "lon": "-8.417985387707635",
      "lat": "40.48439845736997"
    },
    {
      "id": "pt.ine.add.PTCONT.343544",
      "street": "TV OLIVAIS",
      "house": "2",
      "postcode": "3780-415",
      "city": "AVELÃS DE CIMA",
      "lon": "-8.417827574954224",
      "lat": "40.48333620596718"
    },
    {
      "id": "pt.ine.add.PTCONT.37691",
      "street": "R OLIVAIS",
      "house": "8",
      "postcode": "3780-415",
      "city": "AVELÃS DE CIMA",
      "lon": "-8.41807901657496",
      "lat": "40.4842271234754"
    },
    {
      "id": "pt.ine.add.PTCONT.69910",
      "street": "R OLIVAIS FAMILIA LEITÃO",
      "house": "17",
      "postcode": "3780-415",
      "city": "AVELÃS DE CIMA",
      "lon": "-8.418034429811375",
      "lat": "40.48483960229745"
    },
    {
      "id": "pt.ine.add.PTCONT.84815",
      "street": "R OLIVAIS",
      "house": "7",
      "postcode": "3780-415",
      "city": "AVELÃS DE CIMA",
      "lon": "-8.418690588607722",
      "lat": "40.483820369808406"
    },
    {
      "id": "pt.ine.add.PTCONT.86913",
      "street": "R DR SA CARNEIRO",
      "house": "7",
      "postcode": "3780-415",
      "city": "AVELÃS DE CIMA",
      "lon": "-8.41738218103994",
      "lat": "40.48399469842591"
    },
    {
      "id": "pt.ine.add.PTCONT.171496",
      "street": "R PALMEIRAS",
      "house": "56",
      "postcode": "3780-415",
      "city": "AVELÃS DE CIMA",
      "lon": "-8.417213306344355",
      "lat": "40.48310357642844"
    },
    {
      "id": "pt.ine.add.PTCONT.181073",
      "street": "R OLIVAIS",
      "house": "19",
      "postcode": "3780-415",
      "city": "AVELÃS DE CIMA",
      "lon": "-8.417952556086572",
      "lat": "40.4850019017442"
    },
    {
      "id": "pt.ine.add.PTCONT.193810",
      "street": "R OLIVAIS",
      "house": "11",
      "postcode": "3780-415",
      "city": "AVELÃS DE CIMA",
      "lon": "-8.418456730585703",
      "lat": "40.48429823496828"
    },
    {
      "id": "pt.ine.add.PTCONT.193812",
      "street": "R OLIVAIS",
      "house": "6",
      "postcode": "3780-415",
      "city": "AVELÃS DE CIMA",
      "lon": "-8.418172797355332",
      "lat": "40.484091810828296"
    },
    {
      "id": "pt.ine.add.PTCONT.210701",
      "street": "R PALMEIRAS",
      "house": "58",
      "postcode": "3780-415",
      "city": "AVELÃS DE CIMA",
      "lon": "-8.417426013299487",
      "lat": "40.48320211307745"
    }
  ]
}