{
  "data": {
    "distrito": "Viseu",
    "concelho": "Vila Nova de Paiva",
    "freguesia": "Queiriga",
    "OBJECTID": 329,
    "BGRI2021": "18220400111",
    "DT21": "18",
    "DTMN21": "1822",
    "DTMNFR21": "182204",
    "DTMNFRSEC21": "182204001",
    "SECNUM21": "001",
    "SSNUM21": "11",
    "SECSSNUM21": "00111",
    "OBJECTID_1": 200388,
    "DT": "18",
    "CC": "22",
    "fr": "04",
    "SEC": "001",
    "SS": "11"
  },
  "addresses": [
    {
      "id": "pt.ine.add.PTCONT.5443108",
      "street": "QTA LOPES",
      "house": "",
      "postcode": "3650-051",
      "city": "QUEIRIGA",
      "lon": "-7.735848642092405",
      "lat": "40.778896395720636"
    },
    {
      "id": "pt.ine.add.PTCONT.5493497",
      "street": "ESTR MUNICIPAL",
      "house": "",
      "postcode": "3650-049",
      "city": "QUEIRIGA",
      "lon": "-7.740857267263521",
      "lat": "40.77928273212518"
    },
    {
      "id": "pt.ine.add.PTCONT.5512284",
      "street": "QTA MATA",
      "house": "",
      "postcode": "3650-049",
      "city": "QUEIRIGA",
      "lon": "-7.736471865897593",
      "lat": "40.77967296513016"
    },
    {
      "id": "pt.ine.add.PTCONT.5543830",
      "street": "QTA MATA",
      "house": "",
      "postcode": "3650-049",
      "city": "QUEIRIGA",
      "lon": "-7.736661990636734",
      "lat": "40.7795745640131"
    },
    {
      "id": "pt.ine.add.PTCONT.5606784",
      "street": "R REGADA CIMEIRA",
      "house": "",
      "postcode": "3650-049",
      "city": "QUEIRIGA",
      "lon": "-7.738610217536482",
      "lat": "40.77865373075145"
    },
    {
      "id": "pt.ine.add.PTCONT.5659611",
      "street": "ESTR MUNICIPAL",
      "house": "",
      "postcode": "3650-049",
      "city": "QUEIRIGA",
      "lon": "-7.741069593939698",
      "lat": "40.77943653779862"
    }
  ]
}