{
  "data": {
    "distrito": "Beja",
    "concelho": "Ourique",
    "freguesia": "Santana da Serra",
    "OBJECTID": 161,
    "BGRI2021": "02120600128",
    "DT21": "02",
    "DTMN21": "0212",
    "DTMNFR21": "021206",
    "DTMNFRSEC21": "021206001",
    "SECNUM21": "001",
    "SSNUM21": "28",
    "SECSSNUM21": "00128",
    "OBJECTID_1": 18346,
    "DT": "02",
    "CC": "12",
    "fr": "06",
    "SEC": "001",
    "SS": "28"
  },
  "addresses": [
    {
      "id": "pt.ine.add.PTCONT.365725",
      "street": "R POÇO VELHO",
      "house": "8",
      "postcode": "7670-613",
      "city": "SANTANA DA SERRA",
      "lon": "-8.30066302049027",
      "lat": "37.50052209824166"
    },
    {
      "id": "pt.ine.add.PTCONT.368516",
      "street": "R FÁBRICA",
      "house": "10",
      "postcode": "7670-613",
      "city": "SANTANA DA SERRA",
      "lon": "-8.301020037045692",
      "lat": "37.500429491486315"
    },
    {
      "id": "pt.ine.add.PTCONT.388674",
      "street": "R FÁBRICA",
      "house": "",
      "postcode": "7670-613",
      "city": "SANTANA DA SERRA",
      "lon": "-8.300772614593628",
      "lat": "37.50037567989317"
    },
    {
      "id": "pt.ine.add.PTCONT.393175",
      "street": "R CEMITÉRIO",
      "house": "11",
      "postcode": "7670-613",
      "city": "SANTANA DA SERRA",
      "lon": "-8.300689312677873",
      "lat": "37.50002054800544"
    },
    {
      "id": "pt.ine.add.PTCONT.399625",
      "street": "R POÇO VELHO",
      "house": "",
      "postcode": "7670-613",
      "city": "SANTANA DA SERRA",
      "lon": "-8.300493405716194",
      "lat": "37.500531348746755"
    },
    {
      "id": "pt.ine.add.PTCONT.402464",
      "street": "R IGREJA",
      "house": "",
      "postcode": "7670-612",
      "city": "SANTANA DA SERRA",
      "lon": "-8.300425451229819",
      "lat": "37.500486394762014"
    },
    {
      "id": "pt.ine.add.PTCONT.406591",
      "street": "R CEMITÉRIO",
      "house": "1",
      "postcode": "7670-613",
      "city": "SANTANA DA SERRA",
      "lon": "-8.301204004268506",
      "lat": "37.50011322665215"
    },
    {
      "id": "pt.ine.add.PTCONT.406592",
      "street": "R CEMITÉRIO",
      "house": "1",
      "postcode": "7670-613",
      "city": "SANTANA DA SERRA",
      "lon": "-8.301204004268506",
      "lat": "37.50011322665215"
    },
    {
      "id": "pt.ine.add.PTCONT.407339",
      "street": "R FÁBRICA",
      "house": "",
      "postcode": "7670-613",
      "city": "SANTANA DA SERRA",
      "lon": "-8.301120768422914",
      "lat": "37.500334480541454"
    },
    {
      "id": "pt.ine.add.PTCONT.417771",
      "street": "R FÁBRICA",
      "house": "6A",
      "postcode": "7670-613",
      "city": "SANTANA DA SERRA",
      "lon": "-8.301158346645703",
      "lat": "37.500255053949644"
    },
    {
      "id": "pt.ine.add.PTCONT.428789",
      "street": "TV RUA DIREITA",
      "house": "7",
      "postcode": "7670-603",
      "city": "SANTANA DA SERRA",
      "lon": "-8.300606032750903",
      "lat": "37.500323957945405"
    }
  ]
}