{
  "data": {
    "distrito": "Beja",
    "concelho": "Ourique",
    "freguesia": "Santana da Serra",
    "OBJECTID": 256,
    "BGRI2021": "02120600149",
    "DT21": "02",
    "DTMN21": "0212",
    "DTMNFR21": "021206",
    "DTMNFRSEC21": "021206001",
    "SECNUM21": "001",
    "SSNUM21": "49",
    "SECSSNUM21": "00149",
    "OBJECTID_1": 18271,
    "DT": "02",
    "CC": "12",
    "fr": "06",
    "SEC": "001",
    "SS": "49"
  },
  "addresses": [
    {
      "id": "pt.ine.add.PTCONT.363321",
      "street": "MTE TELHADO",
      "house": "",
      "postcode": "7670-613",
      "city": "SANTANA DA SERRA",
      "lon": "-8.345325805467976",
      "lat": "37.54567154654397"
    },
    {
      "id": "pt.ine.add.PTCONT.374712",
      "street": "MTE AVESSA",
      "house": "",
      "postcode": "7670-613",
      "city": "SANTANA DA SERRA",
      "lon": "-8.355399630225191",
      "lat": "37.53134515642441"
    },
    {
      "id": "pt.ine.add.PTCONT.379504",
      "street": "MTE ÁGUAS BELAS",
      "house": "",
      "postcode": "7670-613",
      "city": "SANTANA DA SERRA",
      "lon": "-8.354544868736808",
      "lat": "37.54836661973947"
    },
    {
      "id": "pt.ine.add.PTCONT.381104",
      "street": "MTE SELAO NOVO",
      "house": "",
      "postcode": "7670-613",
      "city": "SANTANA DA SERRA",
      "lon": "-8.34548724907803",
      "lat": "37.53476917606437"
    },
    {
      "id": "pt.ine.add.PTCONT.386406",
      "street": "MTE SELAO",
      "house": "",
      "postcode": "7670-613",
      "city": "SANTANA DA SERRA",
      "lon": "-8.337970918796113",
      "lat": "37.52927734576254"
    },
    {
      "id": "pt.ine.add.PTCONT.389111",
      "street": "MTE FORNALHAS",
      "house": "",
      "postcode": "7670-613",
      "city": "SANTANA DA SERRA",
      "lon": "-8.320643519811615",
      "lat": "37.53114417207487"
    },
    {
      "id": "pt.ine.add.PTCONT.394766",
      "street": "MTE SALGUEIROS DE BAIXO",
      "house": "",
      "postcode": "7670-613",
      "city": "SANTANA DA SERRA",
      "lon": "-8.326075486764573",
      "lat": "37.53169404142129"
    },
    {
      "id": "pt.ine.add.PTCONT.398834",
      "street": "MTE AZINHEIRAS",
      "house": "",
      "postcode": "7670-613",
      "city": "SANTANA DA SERRA",
      "lon": "-8.32196841795908",
      "lat": "37.54059354412759"
    },
    {
      "id": "pt.ine.add.PTCONT.399915",
      "street": "MTE NOVO DA CHAMINÉ",
      "house": "",
      "postcode": "7670-613",
      "city": "SANTANA DA SERRA",
      "lon": "-8.329824667536577",
      "lat": "37.53765247220557"
    },
    {
      "id": "pt.ine.add.PTCONT.406200",
      "street": "MTE AVESSA",
      "house": "",
      "postcode": "7670-613",
      "city": "SANTANA DA SERRA",
      "lon": "-8.355371919169821",
      "lat": "37.53344453719976"
    },
    {
      "id": "pt.ine.add.PTCONT.408641",
      "street": "MTE SALGUEIROS",
      "house": "",
      "postcode": "7670-613",
      "city": "SANTANA DA SERRA",
      "lon": "-8.325563183738799",
      "lat": "37.53485738639063"
    },
    {
      "id": "pt.ine.add.PTCONT.419027",
      "street": "MTE AVESSA",
      "house": "",
      "postcode": "7670-613",
      "city": "SANTANA DA SERRA",
      "lon": "-8.360554023848069",
      "lat": "37.53354279035959"
    },
    {
      "id": "pt.ine.add.PTCONT.420008",
      "street": "MTE CORTE DALVA",
      "house": "",
      "postcode": "7670-613",
      "city": "SANTANA DA SERRA",
      "lon": "-8.34237603227274",
      "lat": "37.55102873420917"
    },
    {
      "id": "pt.ine.add.PTCONT.426587",
      "street": "MTE NOVO DAS AZINHEIRAS",
      "house": "",
      "postcode": "7670-613",
      "city": "SANTANA DA SERRA",
      "lon": "-8.328191564849785",
      "lat": "37.54053837745661"
    },
    {
      "id": "pt.ine.add.PTCONT.431959",
      "street": "MTE AVESSA",
      "house": "",
      "postcode": "7670-613",
      "city": "SANTANA DA SERRA",
      "lon": "-8.364457549767632",
      "lat": "37.5519155605942"
    },
    {
      "id": "pt.ine.add.PTCONT.433548",
      "street": "MTE MOINHO DAS AZINHEIRAS",
      "house": "",
      "postcode": "7670-613",
      "city": "SANTANA DA SERRA",
      "lon": "-8.329574242689969",
      "lat": "37.541392033720655"
    },
    {
      "id": "pt.ine.add.PTCONT.437824",
      "street": "MTE SERRINHO",
      "house": "",
      "postcode": "7670-613",
      "city": "SANTANA DA SERRA",
      "lon": "-8.345549385298504",
      "lat": "37.54470707707764"
    }
  ]
}