{
  "data": {
    "distrito": "Leiria",
    "concelho": "Leiria",
    "freguesia": "Maceira",
    "OBJECTID": 2063,
    "BGRI2021": "10091300801",
    "DT21": "10",
    "DTMN21": "1009",
    "DTMNFR21": "100913",
    "DTMNFRSEC21": "100913008",
    "SECNUM21": "008",
    "SSNUM21": "01",
    "SECSSNUM21": "00801",
    "OBJECTID_1": 90345,
    "DT": "10",
    "CC": "09",
    "fr": "13",
    "SEC": "008",
    "SS": "01"
  },
  "addresses": [
    {
      "id": "pt.ine.add.PTCONT.2000569",
      "street": "R PRINCIPAL",
      "house": "116",
      "postcode": "2405-018",
      "city": "MACEIRA LRA",
      "lon": "-8.89868943487685",
      "lat": "39.68445955260323"
    },
    {
      "id": "pt.ine.add.PTCONT.2000570",
      "street": "EN 356",
      "house": "116",
      "postcode": "2405-018",
      "city": "MACEIRA LRA",
      "lon": "-8.89868943487685",
      "lat": "39.68445955260323"
    },
    {
      "id": "pt.ine.add.PTCONT.2049487",
      "street": "ESTR PRINCIPAL",
      "house": "356",
      "postcode": "2405-024",
      "city": "MACEIRA LRA",
      "lon": "-8.899291901877392",
      "lat": "39.684347613146606"
    },
    {
      "id": "pt.ine.add.PTCONT.2050942",
      "street": "R PRINCIPAL",
      "house": "119",
      "postcode": "2405-018",
      "city": "MACEIRA LRA",
      "lon": "-8.898975049081141",
      "lat": "39.68440362998998"
    },
    {
      "id": "pt.ine.add.PTCONT.2055386",
      "street": "CSL DO LEBRE",
      "house": "",
      "postcode": "2405-017",
      "city": "MACEIRA LRA",
      "lon": "-8.898114357332805",
      "lat": "39.68432835707233"
    },
    {
      "id": "pt.ine.add.PTCONT.2101779",
      "street": "R PRINCIPAL",
      "house": "55",
      "postcode": "2405-018",
      "city": "MACEIRA LRA",
      "lon": "-8.899170231457898",
      "lat": "39.684368432908016"
    },
    {
      "id": "pt.ine.add.PTCONT.2112557",
      "street": "R PRINCIPAL PATEO DA LEBRE",
      "house": "",
      "postcode": "2405-018",
      "city": "MACEIRA LRA",
      "lon": "-8.898438827274148",
      "lat": "39.68451880138446"
    },
    {
      "id": "pt.ine.add.PTCONT.2121225",
      "street": "PTO PATEO DO LEBRE",
      "house": "1",
      "postcode": "2405-017",
      "city": "MACEIRA LRA",
      "lon": "-8.898032856531106",
      "lat": "39.684244661193475"
    },
    {
      "id": "pt.ine.add.PTCONT.2140741",
      "street": "R PRINCIPAL",
      "house": "",
      "postcode": "2405-018",
      "city": "MACEIRA LRA",
      "lon": "-8.898334995721555",
      "lat": "39.684526938575566"
    },
    {
      "id": "pt.ine.add.PTCONT.2155803",
      "street": "LG MERCADO",
      "house": "",
      "postcode": "2405-018",
      "city": "MACEIRA LRA",
      "lon": "-8.898310345791113",
      "lat": "39.68439531190962"
    },
    {
      "id": "pt.ine.add.PTCONT.2193357",
      "street": "PTO LEBRE",
      "house": "",
      "postcode": "2405-018",
      "city": "MACEIRA LRA",
      "lon": "-8.898127816794496",
      "lat": "39.684568291803615"
    },
    {
      "id": "pt.ine.add.PTCONT.2193358",
      "street": "CSL POMBAS",
      "house": "121",
      "postcode": "2405-018",
      "city": "MACEIRA LRA",
      "lon": "-8.898803729801376",
      "lat": "39.68444902421583"
    },
    {
      "id": "pt.ine.add.PTCONT.2200046",
      "street": "R PRINCIPAL",
      "house": "",
      "postcode": "2405-018",
      "city": "MACEIRA LRA",
      "lon": "-8.899443030383594",
      "lat": "39.68431058973174"
    },
    {
      "id": "pt.ine.add.PTCONT.2257172",
      "street": "EN 356 1",
      "house": "6",
      "postcode": "2405-018",
      "city": "MACEIRA LRA",
      "lon": "-8.898226702744507",
      "lat": "39.68455563908093"
    }
  ]
}