{
  "data": {
    "distrito": "Braga",
    "concelho": "Fafe",
    "freguesia": "Fafe",
    "OBJECTID": 553,
    "BGRI2021": "03070900503",
    "DT21": "03",
    "DTMN21": "0307",
    "DTMNFR21": "030709",
    "DTMNFRSEC21": "030709005",
    "SECNUM21": "005",
    "SSNUM21": "03",
    "SECSSNUM21": "00503",
    "OBJECTID_1": 25511,
    "DT": "03",
    "CC": "07",
    "fr": "09",
    "SEC": "005",
    "SS": "03"
  },
  "addresses": [
    {
      "id": "pt.ine.add.PTCONT.526779",
      "street": "R DAMÃO",
      "house": "57",
      "postcode": "4820-212",
      "city": "FAFE",
      "lon": "-8.1720227416705",
      "lat": "41.44403073439401"
    },
    {
      "id": "pt.ine.add.PTCONT.528567",
      "street": "R JOSE RIBEIRO VIEIRA DE CASTRO",
      "house": "364B",
      "postcode": "4820-273",
      "city": "FAFE",
      "lon": "-8.171520210269303",
      "lat": "41.44412094266936"
    },
    {
      "id": "pt.ine.add.PTCONT.528568",
      "street": "R JOSE RIBEIRO VIEIRA DE CASTRO",
      "house": "364B",
      "postcode": "4820-273",
      "city": "FAFE",
      "lon": "-8.171520210269303",
      "lat": "41.44412094266936"
    },
    {
      "id": "pt.ine.add.PTCONT.528569",
      "street": "R JOSE RIBEIRO VIEIRA DE CASTRO",
      "house": "364B",
      "postcode": "4820-273",
      "city": "FAFE",
      "lon": "-8.171520210269303",
      "lat": "41.44412094266936"
    },
    {
      "id": "pt.ine.add.PTCONT.528570",
      "street": "R JOSE RIBEIRO VIEIRA DE CASTRO",
      "house": "364B",
      "postcode": "4820-273",
      "city": "FAFE",
      "lon": "-8.171520210269303",
      "lat": "41.44412094266936"
    },
    {
      "id": "pt.ine.add.PTCONT.528571",
      "street": "R JOSE RIBEIRO VIEIRA DE CASTRO",
      "house": "364B",
      "postcode": "4820-273",
      "city": "FAFE",
      "lon": "-8.171520210269303",
      "lat": "41.44412094266936"
    },
    {
      "id": "pt.ine.add.PTCONT.528572",
      "street": "R JOSE RIBEIRO VIEIRA DE CASTRO",
      "house": "364B",
      "postcode": "4820-273",
      "city": "FAFE",
      "lon": "-8.171520210269303",
      "lat": "41.44412094266936"
    },
    {
      "id": "pt.ine.add.PTCONT.528573",
      "street": "R JOSE RIBEIRO VIEIRA CASTRO",
      "house": "374",
      "postcode": "4820-273",
      "city": "FAFE",
      "lon": "-8.171520210269303",
      "lat": "41.44412094266936"
    },
    {
      "id": "pt.ine.add.PTCONT.528574",
      "street": "R JOSE RIBEIRO VIEIRA CASTRO",
      "house": "386",
      "postcode": "4820-273",
      "city": "FAFE",
      "lon": "-8.171520210269303",
      "lat": "41.44412094266936"
    },
    {
      "id": "pt.ine.add.PTCONT.528575",
      "street": "R JOSE RIBEIRO VIEIRA DE CASTRO",
      "house": "364B",
      "postcode": "4820-273",
      "city": "FAFE",
      "lon": "-8.171520210269303",
      "lat": "41.44412094266936"
    },
    {
      "id": "pt.ine.add.PTCONT.528583",
      "street": "R JOSE RIBEIRO VIEIRA DE CASTRO",
      "house": "364B",
      "postcode": "4820-273",
      "city": "FAFE",
      "lon": "-8.171520210269303",
      "lat": "41.44412094266936"
    },
    {
      "id": "pt.ine.add.PTCONT.528584",
      "street": "R JOSE RIBEIRO VIEIRA CASTRO",
      "house": "374",
      "postcode": "4820-273",
      "city": "FAFE",
      "lon": "-8.171520210269303",
      "lat": "41.44412094266936"
    },
    {
      "id": "pt.ine.add.PTCONT.537429",
      "street": "R JOSE RIBEIRO VIEIRA DE CASTRO",
      "house": "404-408",
      "postcode": "4820-273",
      "city": "FAFE",
      "lon": "-8.171448258684833",
      "lat": "41.44385985243916"
    },
    {
      "id": "pt.ine.add.PTCONT.640081",
      "street": "R JOSE RIBEIRO VIEIRA DE CASTRO",
      "house": "416-424",
      "postcode": "4820-273",
      "city": "FAFE",
      "lon": "-8.171472106365785",
      "lat": "41.44371578145986"
    },
    {
      "id": "pt.ine.add.PTCONT.681469",
      "street": "R DAMÃO",
      "house": "79",
      "postcode": "4820-212",
      "city": "FAFE",
      "lon": "-8.171902982163912",
      "lat": "41.4438687039377"
    },
    {
      "id": "pt.ine.add.PTCONT.785750",
      "street": "R DAMAO",
      "house": "7",
      "postcode": "4820-212",
      "city": "FAFE",
      "lon": "-8.172166504618568",
      "lat": "41.44430980777595"
    },
    {
      "id": "pt.ine.add.PTCONT.785751",
      "street": "R DAMAO",
      "house": "7",
      "postcode": "4820-212",
      "city": "FAFE",
      "lon": "-8.172166504618568",
      "lat": "41.44430980777595"
    },
    {
      "id": "pt.ine.add.PTCONT.785752",
      "street": "R DAMAO",
      "house": "14D",
      "postcode": "4820-212",
      "city": "FAFE",
      "lon": "-8.172166504618568",
      "lat": "41.44430980777595"
    },
    {
      "id": "pt.ine.add.PTCONT.785753",
      "street": "R DAMAO",
      "house": "1-14D",
      "postcode": "4820-212",
      "city": "FAFE",
      "lon": "-8.172166504618568",
      "lat": "41.44430980777595"
    },
    {
      "id": "pt.ine.add.PTCONT.785754",
      "street": "R DAMAO",
      "house": "7/14D",
      "postcode": "4820-212",
      "city": "FAFE",
      "lon": "-8.172166504618568",
      "lat": "41.44430980777595"
    },
    {
      "id": "pt.ine.add.PTCONT.785755",
      "street": "R DAMAO",
      "house": "14 D",
      "postcode": "4820-212",
      "city": "FAFE",
      "lon": "-8.172166504618568",
      "lat": "41.44430980777595"
    },
    {
      "id": "pt.ine.add.PTCONT.785756",
      "street": "GAV VIA",
      "house": "14D",
      "postcode": "4820-212",
      "city": "FAFE",
      "lon": "-8.172166504618568",
      "lat": "41.44430980777595"
    },
    {
      "id": "pt.ine.add.PTCONT.785757",
      "street": "R DAMAO",
      "house": "7",
      "postcode": "4820-212",
      "city": "FAFE",
      "lon": "-8.172166504618568",
      "lat": "41.44430980777595"
    },
    {
      "id": "pt.ine.add.PTCONT.785758",
      "street": "R DAMAO",
      "house": "7",
      "postcode": "4820-212",
      "city": "FAFE",
      "lon": "-8.172166504618568",
      "lat": "41.44430980777595"
    },
    {
      "id": "pt.ine.add.PTCONT.785759",
      "street": "R DAMAO",
      "house": "14D",
      "postcode": "4820-212",
      "city": "FAFE",
      "lon": "-8.172166504618568",
      "lat": "41.44430980777595"
    },
    {
      "id": "pt.ine.add.PTCONT.785760",
      "street": "R DAMAO",
      "house": "14D",
      "postcode": "4820-212",
      "city": "FAFE",
      "lon": "-8.172166504618568",
      "lat": "41.44430980777595"
    },
    {
      "id": "pt.ine.add.PTCONT.786950",
      "street": "R DAMAO",
      "house": "7",
      "postcode": "4820-212",
      "city": "FAFE",
      "lon": "-8.172166504618568",
      "lat": "41.44430980777595"
    },
    {
      "id": "pt.ine.add.PTCONT.795290",
      "street": "R JOSE RIBEIRO VIEIRA DE CASTRO",
      "house": "",
      "postcode": "4820-273",
      "city": "FAFE",
      "lon": "-8.17160359132645",
      "lat": "41.44347263116841"
    },
    {
      "id": "pt.ine.add.PTCONT.849025",
      "street": "R JOSE RIBEIRO VIEIRA CASTRO",
      "house": "386",
      "postcode": "4820-273",
      "city": "FAFE",
      "lon": "-8.171520210269303",
      "lat": "41.44412094266936"
    }
  ]
}