{
  "data": {
    "distrito": "Setúbal",
    "concelho": "Santiago do Cacém",
    "freguesia": "União das freguesias de Santiago do Cacém, Santa Cruz e São Bartolomeu da Serra",
    "OBJECTID": 833,
    "BGRI2021": "15091200329",
    "DT21": "15",
    "DTMN21": "1509",
    "DTMNFR21": "150912",
    "DTMNFRSEC21": "150912003",
    "SECNUM21": "003",
    "SSNUM21": "29",
    "SECSSNUM21": "00329",
    "OBJECTID_1": 166261,
    "DT": "15",
    "CC": "09",
    "fr": "12",
    "SEC": "003",
    "SS": "29"
  },
  "addresses": [
    {
      "id": "pt.ine.add.PTCONT.4718995",
      "street": "MTE VINHA",
      "house": "",
      "postcode": "7540-055",
      "city": "SANTA CRUZ STC",
      "lon": "-8.721136182608191",
      "lat": "38.07856928644417"
    },
    {
      "id": "pt.ine.add.PTCONT.4727059",
      "street": "MTE A CABANA",
      "house": "",
      "postcode": "7540-051",
      "city": "SANTA CRUZ STC",
      "lon": "-8.719568885786462",
      "lat": "38.072126627321786"
    },
    {
      "id": "pt.ine.add.PTCONT.4752420",
      "street": "MTE CAMARINHEIRA",
      "house": "",
      "postcode": "7540-055",
      "city": "SANTA CRUZ STC",
      "lon": "-8.719282012089897",
      "lat": "38.076164120435045"
    },
    {
      "id": "pt.ine.add.PTCONT.4763205",
      "street": "MTE BOAVISTA NOVA",
      "house": "",
      "postcode": "7540-055",
      "city": "SANTA CRUZ STC",
      "lon": "-8.724240180777022",
      "lat": "38.07197709850189"
    },
    {
      "id": "pt.ine.add.PTCONT.4803492",
      "street": "MTE BARREIRINHAS NOVAS",
      "house": "",
      "postcode": "7540-055",
      "city": "SANTA CRUZ STC",
      "lon": "-8.721402845244027",
      "lat": "38.076288659432876"
    },
    {
      "id": "pt.ine.add.PTCONT.4824650",
      "street": "MTE CHAPARRAL",
      "house": "",
      "postcode": "7540-055",
      "city": "SANTA CRUZ STC",
      "lon": "-8.720540562025297",
      "lat": "38.0725001557029"
    },
    {
      "id": "pt.ine.add.PTCONT.4886237",
      "street": "MTE ARRAMADINHA",
      "house": "",
      "postcode": "7540-055",
      "city": "SANTA CRUZ STC",
      "lon": "-8.721192445539923",
      "lat": "38.078478914325956"
    },
    {
      "id": "pt.ine.add.PTCONT.4959000",
      "street": "ROCHA",
      "house": "",
      "postcode": "7540-055",
      "city": "SANTA CRUZ STC",
      "lon": "-8.720096780929586",
      "lat": "38.07686276081084"
    },
    {
      "id": "pt.ine.add.PTCONT.4969683",
      "street": "MTE BOAVISTA",
      "house": "",
      "postcode": "7540-055",
      "city": "SANTA CRUZ STC",
      "lon": "-8.724175502995358",
      "lat": "38.07243688625545"
    },
    {
      "id": "pt.ine.add.PTCONT.5017116",
      "street": "MTE CHAPARRAL",
      "house": "",
      "postcode": "7540-055",
      "city": "SANTA CRUZ STC",
      "lon": "-8.721289020738327",
      "lat": "38.07488381515495"
    },
    {
      "id": "pt.ine.add.PTCONT.5021730",
      "street": "MTE ALAGUICA",
      "house": "",
      "postcode": "7540-055",
      "city": "SANTA CRUZ STC",
      "lon": "-8.723085806048612",
      "lat": "38.07723518363322"
    },
    {
      "id": "pt.ine.add.PTCONT.5075129",
      "street": "MTE BARREIRINHAS NOVAS",
      "house": "",
      "postcode": "7540-055",
      "city": "SANTA CRUZ STC",
      "lon": "-8.720202087327062",
      "lat": "38.077204579172005"
    },
    {
      "id": "pt.ine.add.PTCONT.5107281",
      "street": "",
      "house": "",
      "postcode": "7540-055",
      "city": "SANTA CRUZ STC",
      "lon": "-8.72196898748439",
      "lat": "38.075826361958775"
    },
    {
      "id": "pt.ine.add.PTCONT.5110797",
      "street": "MTE VINHA NOVA",
      "house": "",
      "postcode": "7540-051",
      "city": "SANTA CRUZ STC",
      "lon": "-8.72110242478321",
      "lat": "38.07862350970204"
    },
    {
      "id": "pt.ine.add.PTCONT.5118291",
      "street": "MTE CHAPARRAL",
      "house": "",
      "postcode": "7540-055",
      "city": "SANTA CRUZ STC",
      "lon": "-8.72031941359184",
      "lat": "38.07334811325586"
    }
  ]
}