{
  "data": {
    "distrito": "Braga",
    "concelho": "Amares",
    "freguesia": "União das freguesias de Vilela, Seramil e Paredes Secas",
    "OBJECTID": 258,
    "BGRI2021": "03012900106",
    "DT21": "03",
    "DTMN21": "0301",
    "DTMNFR21": "030129",
    "DTMNFRSEC21": "030129001",
    "SECNUM21": "001",
    "SSNUM21": "06",
    "SECSSNUM21": "00106",
    "OBJECTID_1": 19920,
    "DT": "03",
    "CC": "01",
    "fr": "29",
    "SEC": "001",
    "SS": "06"
  },
  "addresses": [
    {
      "id": "pt.ine.add.PTCONT.464875",
      "street": "R TRAVESSA DO MONTE",
      "house": "1",
      "postcode": "4720-779",
      "city": "VILELA AMR",
      "lon": "-8.327407174372507",
      "lat": "41.66087292394441"
    },
    {
      "id": "pt.ine.add.PTCONT.492832",
      "street": "R MONTE",
      "house": "163",
      "postcode": "4720-779",
      "city": "VILELA AMR",
      "lon": "-8.327117834394988",
      "lat": "41.66047725460565"
    },
    {
      "id": "pt.ine.add.PTCONT.500453",
      "street": "R S TIAGO",
      "house": "467",
      "postcode": "4720-782",
      "city": "VILELA AMR",
      "lon": "-8.324508166541431",
      "lat": "41.659023047543776"
    },
    {
      "id": "pt.ine.add.PTCONT.523406",
      "street": "R CHOUSELAS",
      "house": "311",
      "postcode": "4720-001",
      "city": "VILELA AMR",
      "lon": "-8.326352747436154",
      "lat": "41.66158598528434"
    },
    {
      "id": "pt.ine.add.PTCONT.568750",
      "street": "R MOINHOS",
      "house": "5",
      "postcode": "4720-062",
      "city": "PAREDES SECAS",
      "lon": "-8.329140740983837",
      "lat": "41.65844801359458"
    },
    {
      "id": "pt.ine.add.PTCONT.573641",
      "street": "R CHOUSELAS",
      "house": "223",
      "postcode": "4720-001",
      "city": "VILELA AMR",
      "lon": "-8.325498361946952",
      "lat": "41.66093915992482"
    },
    {
      "id": "pt.ine.add.PTCONT.586134",
      "street": "R PORTELA DO VALE",
      "house": "22",
      "postcode": "4720-782",
      "city": "VILELA AMR",
      "lon": "-8.323400279851539",
      "lat": "41.657890433886685"
    },
    {
      "id": "pt.ine.add.PTCONT.661126",
      "street": "R ANTÓNIO RIBEIRO",
      "house": "115",
      "postcode": "4720-779",
      "city": "VILELA AMR",
      "lon": "-8.327020704273137",
      "lat": "41.6601172747779"
    },
    {
      "id": "pt.ine.add.PTCONT.693633",
      "street": "R S TIAGO",
      "house": "541",
      "postcode": "4720-782",
      "city": "VILELA AMR",
      "lon": "-8.323256740672347",
      "lat": "41.65807074337449"
    },
    {
      "id": "pt.ine.add.PTCONT.769613",
      "street": "R PORTELA DO VALE",
      "house": "90",
      "postcode": "4720-782",
      "city": "VILELA AMR",
      "lon": "-8.323833495812421",
      "lat": "41.658231852553115"
    },
    {
      "id": "pt.ine.add.PTCONT.832602",
      "street": "R CHOUSELAS",
      "house": "71",
      "postcode": "4720-001",
      "city": "VILELA AMR",
      "lon": "-8.324546690831898",
      "lat": "41.65986932129801"
    },
    {
      "id": "pt.ine.add.PTCONT.832603",
      "street": "TV MONTE",
      "house": "42",
      "postcode": "4720-779",
      "city": "VILELA AMR",
      "lon": "-8.327225484751843",
      "lat": "41.66034201895617"
    }
  ]
}