{
  "data": {
    "distrito": "Aveiro",
    "concelho": "Vagos",
    "freguesia": "Sosa",
    "OBJECTID": 1,
    "BGRI2021": "01180700121",
    "DT21": "01",
    "DTMN21": "0118",
    "DTMNFR21": "011807",
    "DTMNFRSEC21": "011807001",
    "SECNUM21": "001",
    "SSNUM21": "21",
    "SECSSNUM21": "00121",
    "OBJECTID_1": 11604,
    "DT": "01",
    "CC": "18",
    "fr": "07",
    "SEC": "001",
    "SS": "21"
  },
  "addresses": [
    {
      "id": "pt.ine.add.PTCONT.329633",
      "street": "LAD PRADO",
      "house": "27",
      "postcode": "3840-353",
      "city": "SOZA",
      "lon": "-8.665722980622034",
      "lat": "40.5486849014356"
    },
    {
      "id": "pt.ine.add.PTCONT.7417",
      "street": "LAD PRADO RESTAJRANTE RAMPINHA",
      "house": "",
      "postcode": "3840-353",
      "city": "SOZA",
      "lon": "-8.66699941839178",
      "lat": "40.54886812097263"
    },
    {
      "id": "pt.ine.add.PTCONT.42280",
      "street": "LAD PRADO",
      "house": "1",
      "postcode": "3840-353",
      "city": "SOZA",
      "lon": "-8.663009635041895",
      "lat": "40.54742763306262"
    },
    {
      "id": "pt.ine.add.PTCONT.153921",
      "street": "LAD PRADO",
      "house": "39",
      "postcode": "3840-353",
      "city": "SOZA",
      "lon": "-8.666680612060189",
      "lat": "40.54886058845599"
    },
    {
      "id": "pt.ine.add.PTCONT.156748",
      "street": "R SEM NOME ATRIBUIDO",
      "house": "",
      "postcode": "3840-347",
      "city": "SOZA",
      "lon": "-8.663404817097515",
      "lat": "40.546642360168725"
    },
    {
      "id": "pt.ine.add.PTCONT.186110",
      "street": "LAD PRADO",
      "house": "17",
      "postcode": "3840-353",
      "city": "SOZA",
      "lon": "-8.66464602320419",
      "lat": "40.54834766042325"
    },
    {
      "id": "pt.ine.add.PTCONT.202013",
      "street": "R CONS SANTOS VICTOR",
      "house": "11",
      "postcode": "3840-356",
      "city": "SOZA",
      "lon": "-8.6625319849254",
      "lat": "40.546736415875216"
    },
    {
      "id": "pt.ine.add.PTCONT.205097",
      "street": "LAD PRADO RESTAURANTE RAMPINHA",
      "house": "",
      "postcode": "3840-353",
      "city": "SOZA",
      "lon": "-8.666857615468032",
      "lat": "40.54885076559533"
    },
    {
      "id": "pt.ine.add.PTCONT.247312",
      "street": "LAD PRADO",
      "house": "3",
      "postcode": "3840-353",
      "city": "SOZA",
      "lon": "-8.6635919046014",
      "lat": "40.547911246359426"
    },
    {
      "id": "pt.ine.add.PTCONT.270168",
      "street": "LAD PRADO",
      "house": "21",
      "postcode": "3840-353",
      "city": "SOZA",
      "lon": "-8.665107198417791",
      "lat": "40.54844459591344"
    }
  ]
}