{
  "data": {
    "distrito": "Aveiro",
    "concelho": "Vagos",
    "freguesia": "Sosa",
    "OBJECTID": 3,
    "BGRI2021": "01180700122",
    "DT21": "01",
    "DTMN21": "0118",
    "DTMNFR21": "011807",
    "DTMNFRSEC21": "011807001",
    "SECNUM21": "001",
    "SSNUM21": "22",
    "SECSSNUM21": "00122",
    "OBJECTID_1": 11669,
    "DT": "01",
    "CC": "18",
    "fr": "07",
    "SEC": "001",
    "SS": "22"
  },
  "addresses": [
    {
      "id": "pt.ine.add.PTCONT.309963",
      "street": "LG IGREJA",
      "house": "",
      "postcode": "3840-375",
      "city": "SOZA",
      "lon": "-8.663035702970422",
      "lat": "40.54474393828482"
    },
    {
      "id": "pt.ine.add.PTCONT.325962",
      "street": "R MÁRIO REIS PEDREIRAS",
      "house": "14",
      "postcode": "3840-375",
      "city": "SOZA",
      "lon": "-8.664180928798537",
      "lat": "40.54327081783338"
    },
    {
      "id": "pt.ine.add.PTCONT.342218",
      "street": "R FAREJA",
      "house": "",
      "postcode": "3840-347",
      "city": "SOZA",
      "lon": "-8.670253859912993",
      "lat": "40.54690789555229"
    },
    {
      "id": "pt.ine.add.PTCONT.343120",
      "street": "LG IGREJA",
      "house": "",
      "postcode": "3840-375",
      "city": "SOZA",
      "lon": "-8.663177638267106",
      "lat": "40.54477930835062"
    },
    {
      "id": "pt.ine.add.PTCONT.20493",
      "street": "R DIREITA",
      "house": "2",
      "postcode": "3840-347",
      "city": "SOZA",
      "lon": "-8.661725215534883",
      "lat": "40.54472292565523"
    },
    {
      "id": "pt.ine.add.PTCONT.74574",
      "street": "R FRANCISCO ALMEIDA BRITO",
      "house": "4",
      "postcode": "3840-367",
      "city": "SOZA",
      "lon": "-8.661890546224503",
      "lat": "40.54473117439671"
    },
    {
      "id": "pt.ine.add.PTCONT.130210",
      "street": "R FRANCISCO ALMEIDA BRITO",
      "house": "4",
      "postcode": "3840-367",
      "city": "SOZA",
      "lon": "-8.661441276059282",
      "lat": "40.544643176802765"
    },
    {
      "id": "pt.ine.add.PTCONT.136126",
      "street": "R MÁRIO REIS PEDREIRAS",
      "house": "21",
      "postcode": "3840-375",
      "city": "SOZA",
      "lon": "-8.664532487232517",
      "lat": "40.54294501092369"
    },
    {
      "id": "pt.ine.add.PTCONT.179549",
      "street": "R DR JOSE ANTÓNIO DE ALMEIDA",
      "house": "2C",
      "postcode": "3840-365",
      "city": "SOZA",
      "lon": "-8.66156454096383",
      "lat": "40.54380512117899"
    },
    {
      "id": "pt.ine.add.PTCONT.213030",
      "street": "LG IGREJA",
      "house": "",
      "postcode": "3840-375",
      "city": "SOZA",
      "lon": "-8.66310667060031",
      "lat": "40.54476162333967"
    },
    {
      "id": "pt.ine.add.PTCONT.245934",
      "street": "R MÁRIO REIS PEDREIRAS",
      "house": "19",
      "postcode": "3840-375",
      "city": "SOZA",
      "lon": "-8.66439204925563",
      "lat": "40.54309874671971"
    },
    {
      "id": "pt.ine.add.PTCONT.267769",
      "street": "LG SANTINHA",
      "house": "6",
      "postcode": "3840-374",
      "city": "SOZA",
      "lon": "-8.662411139522108",
      "lat": "40.544881880533886"
    }
  ]
}