{
  "data": {
    "distrito": "Viseu",
    "concelho": "Santa Comba Dão",
    "freguesia": "União das freguesias de Santa Comba Dão e Couto do Mosteiro",
    "OBJECTID": 183,
    "BGRI2021": "18141100317",
    "DT21": "18",
    "DTMN21": "1814",
    "DTMNFR21": "181411",
    "DTMNFRSEC21": "181411003",
    "SECNUM21": "003",
    "SSNUM21": "17",
    "SECSSNUM21": "00317",
    "OBJECTID_1": 195970,
    "DT": "18",
    "CC": "14",
    "fr": "11",
    "SEC": "003",
    "SS": "17"
  },
  "addresses": [
    {
      "id": "pt.ine.add.PTCONT.5434176",
      "street": "R REGO DE AGUA",
      "house": "2",
      "postcode": "3440-305",
      "city": "SANTA COMBA DÃO",
      "lon": "-8.147595777020552",
      "lat": "40.39394603974617"
    },
    {
      "id": "pt.ine.add.PTCONT.5439706",
      "street": "R FONTAÍNHAS",
      "house": "20",
      "postcode": "3440-305",
      "city": "SANTA COMBA DÃO",
      "lon": "-8.14668873277377",
      "lat": "40.39341482033386"
    },
    {
      "id": "pt.ine.add.PTCONT.5472531",
      "street": "R NOVA DO COLADINHO",
      "house": "10",
      "postcode": "3440-305",
      "city": "SANTA COMBA DÃO",
      "lon": "-8.14608813199737",
      "lat": "40.393901190880634"
    },
    {
      "id": "pt.ine.add.PTCONT.5479720",
      "street": "R CHAFARIZ",
      "house": "1",
      "postcode": "3440-305",
      "city": "SANTA COMBA DÃO",
      "lon": "-8.14758402368108",
      "lat": "40.394063113811605"
    },
    {
      "id": "pt.ine.add.PTCONT.5545469",
      "street": "R FONTAÍNHAS",
      "house": "18",
      "postcode": "3440-305",
      "city": "SANTA COMBA DÃO",
      "lon": "-8.147136392900071",
      "lat": "40.39382001820684"
    },
    {
      "id": "pt.ine.add.PTCONT.5593142",
      "street": "R NOVA DO COLADINHO",
      "house": "8",
      "postcode": "3440-305",
      "city": "SANTA COMBA DÃO",
      "lon": "-8.146029270973948",
      "lat": "40.39406329798749"
    },
    {
      "id": "pt.ine.add.PTCONT.5669561",
      "street": "R CHAFARIZ",
      "house": "3",
      "postcode": "3440-305",
      "city": "SANTA COMBA DÃO",
      "lon": "-8.147748950950849",
      "lat": "40.39419817680677"
    }
  ]
}