{
  "data": {
    "distrito": "Braga",
    "concelho": "Guimarães",
    "freguesia": "União das freguesias de Serzedo e Calvos",
    "OBJECTID": 2095,
    "BGRI2021": "03088900129",
    "DT21": "03",
    "DTMN21": "0308",
    "DTMNFR21": "030889",
    "DTMNFRSEC21": "030889001",
    "SECNUM21": "001",
    "SSNUM21": "29",
    "SECSSNUM21": "00129",
    "OBJECTID_1": 26213,
    "DT": "03",
    "CC": "08",
    "fr": "89",
    "SEC": "001",
    "SS": "29"
  },
  "addresses": [
    {
      "id": "pt.ine.add.PTCONT.472348",
      "street": "R S MIGUEL",
      "house": "1522",
      "postcode": "4810-858",
      "city": "SERZEDO GMR",
      "lon": "-8.233018717806212",
      "lat": "41.4074558373351"
    },
    {
      "id": "pt.ine.add.PTCONT.526937",
      "street": "R OLEIROS",
      "house": "699",
      "postcode": "4810-843",
      "city": "SERZEDO GMR",
      "lon": "-8.232720952553677",
      "lat": "41.40825745099524"
    },
    {
      "id": "pt.ine.add.PTCONT.530154",
      "street": "R VILA ALEXANDRE",
      "house": "938",
      "postcode": "4810-861",
      "city": "SERZEDO GMR",
      "lon": "-8.23238661506252",
      "lat": "41.408608895698066"
    },
    {
      "id": "pt.ine.add.PTCONT.587516",
      "street": "R VILA ALEXANDRE",
      "house": "871",
      "postcode": "4810-861",
      "city": "SERZEDO GMR",
      "lon": "-8.232206931031964",
      "lat": "41.40841996673543"
    },
    {
      "id": "pt.ine.add.PTCONT.595390",
      "street": "R S MIGUEL",
      "house": "1382",
      "postcode": "4810-858",
      "city": "SERZEDO GMR",
      "lon": "-8.23350815916212",
      "lat": "41.406870151606945"
    },
    {
      "id": "pt.ine.add.PTCONT.711376",
      "street": "R CABO DE VILA",
      "house": "475",
      "postcode": "4810-850",
      "city": "SERZEDO GMR",
      "lon": "-8.231967463134522",
      "lat": "41.40824009286019"
    },
    {
      "id": "pt.ine.add.PTCONT.717500",
      "street": "R CABO DE VILA",
      "house": "451",
      "postcode": "4810-850",
      "city": "SERZEDO GMR",
      "lon": "-8.232266154781463",
      "lat": "41.40804174797707"
    },
    {
      "id": "pt.ine.add.PTCONT.735277",
      "street": "R OLEIROS",
      "house": "465",
      "postcode": "4810-843",
      "city": "SERZEDO GMR",
      "lon": "-8.232518502049201",
      "lat": "41.40882487765732"
    },
    {
      "id": "pt.ine.add.PTCONT.816405",
      "street": "R CABO DE VILA",
      "house": "471",
      "postcode": "4810-850",
      "city": "SERZEDO GMR",
      "lon": "-8.231991259692618",
      "lat": "41.408159036468234"
    },
    {
      "id": "pt.ine.add.PTCONT.819139",
      "street": "TV CABO",
      "house": "42",
      "postcode": "4810-850",
      "city": "SERZEDO GMR",
      "lon": "-8.232205617599563",
      "lat": "41.40755558443373"
    },
    {
      "id": "pt.ine.add.PTCONT.819140",
      "street": "TV CABO",
      "house": "48",
      "postcode": "4810-850",
      "city": "SERZEDO GMR",
      "lon": "-8.232205617599563",
      "lat": "41.40755558443373"
    },
    {
      "id": "pt.ine.add.PTCONT.820302",
      "street": "R S MIGUEL",
      "house": "1478",
      "postcode": "4810-858",
      "city": "SERZEDO GMR",
      "lon": "-8.233126050143838",
      "lat": "41.407257656195476"
    }
  ]
}