{
  "data": {
    "distrito": "Coimbra",
    "concelho": "Penacova",
    "freguesia": "Penacova",
    "OBJECTID": 473,
    "BGRI2021": "06130700111",
    "DT21": "06",
    "DTMN21": "0613",
    "DTMNFR21": "061307",
    "DTMNFRSEC21": "061307001",
    "SECNUM21": "001",
    "SSNUM21": "11",
    "SECSSNUM21": "00111",
    "OBJECTID_1": 55539,
    "DT": "06",
    "CC": "13",
    "fr": "07",
    "SEC": "001",
    "SS": "11"
  },
  "addresses": [
    {
      "id": "pt.ine.add.PTCONT.1142466",
      "street": "AV JOÃO ANTÓNIO GOMES",
      "house": "14",
      "postcode": "3360-184",
      "city": "PENACOVA",
      "lon": "-8.28351568876216",
      "lat": "40.26541913387661"
    },
    {
      "id": "pt.ine.add.PTCONT.1148453",
      "street": "R LAMEIRO",
      "house": "7",
      "postcode": "3360-184",
      "city": "PENACOVA",
      "lon": "-8.284099666629126",
      "lat": "40.26369826918502"
    },
    {
      "id": "pt.ine.add.PTCONT.1162703",
      "street": "R FONTE",
      "house": "5",
      "postcode": "3360-184",
      "city": "PENACOVA",
      "lon": "-8.28420675072651",
      "lat": "40.26427449946161"
    },
    {
      "id": "pt.ine.add.PTCONT.1173527",
      "street": "R PORTELINHA",
      "house": "12",
      "postcode": "3360-184",
      "city": "PENACOVA",
      "lon": "-8.283727637171692",
      "lat": "40.26557195645688"
    },
    {
      "id": "pt.ine.add.PTCONT.1176618",
      "street": "R LAMEIRO",
      "house": "1",
      "postcode": "3360-184",
      "city": "PENACOVA",
      "lon": "-8.284041608421953",
      "lat": "40.26402255308327"
    },
    {
      "id": "pt.ine.add.PTCONT.1182762",
      "street": "R PORTELINHA",
      "house": "6",
      "postcode": "3360-184",
      "city": "PENACOVA",
      "lon": "-8.28367969434647",
      "lat": "40.265157752973955"
    },
    {
      "id": "pt.ine.add.PTCONT.1182763",
      "street": "R PORTELINHA",
      "house": "6",
      "postcode": "3360-184",
      "city": "PENACOVA",
      "lon": "-8.28367969434647",
      "lat": "40.265157752973955"
    },
    {
      "id": "pt.ine.add.PTCONT.1182764",
      "street": "R PORTELINHA",
      "house": "6",
      "postcode": "3360-184",
      "city": "PENACOVA",
      "lon": "-8.28367969434647",
      "lat": "40.265157752973955"
    },
    {
      "id": "pt.ine.add.PTCONT.1182765",
      "street": "R PORTELINHA",
      "house": "6",
      "postcode": "3360-184",
      "city": "PENACOVA",
      "lon": "-8.28367969434647",
      "lat": "40.265157752973955"
    },
    {
      "id": "pt.ine.add.PTCONT.1182766",
      "street": "R PORTELINHA",
      "house": "6",
      "postcode": "3360-184",
      "city": "PENACOVA",
      "lon": "-8.28367969434647",
      "lat": "40.265157752973955"
    },
    {
      "id": "pt.ine.add.PTCONT.1182767",
      "street": "R PORTELINHA",
      "house": "6",
      "postcode": "3360-184",
      "city": "PENACOVA",
      "lon": "-8.28367969434647",
      "lat": "40.265157752973955"
    },
    {
      "id": "pt.ine.add.PTCONT.1182768",
      "street": "R PORTELINHA",
      "house": "6",
      "postcode": "3360-184",
      "city": "PENACOVA",
      "lon": "-8.28367969434647",
      "lat": "40.265157752973955"
    },
    {
      "id": "pt.ine.add.PTCONT.1246488",
      "street": "R CANTO",
      "house": "1",
      "postcode": "3360-184",
      "city": "PENACOVA",
      "lon": "-8.283936086192789",
      "lat": "40.264148771612284"
    },
    {
      "id": "pt.ine.add.PTCONT.1247509",
      "street": "LG CASTANHEIRO",
      "house": "2",
      "postcode": "3360-184",
      "city": "PENACOVA",
      "lon": "-8.284253954511016",
      "lat": "40.264355489850644"
    },
    {
      "id": "pt.ine.add.PTCONT.1296713",
      "street": "R PORTELINHA",
      "house": "8",
      "postcode": "3360-184",
      "city": "PENACOVA",
      "lon": "-8.283774042065446",
      "lat": "40.26529271687483"
    },
    {
      "id": "pt.ine.add.PTCONT.1334777",
      "street": "AV JOÃO ANTÓNIO GOMES",
      "house": "12",
      "postcode": "3360-184",
      "city": "PENACOVA",
      "lon": "-8.283693007991609",
      "lat": "40.265860186463165"
    },
    {
      "id": "pt.ine.add.PTCONT.1341105",
      "street": "R FONTE",
      "house": "7",
      "postcode": "3360-184",
      "city": "PENACOVA",
      "lon": "-8.28403033294391",
      "lat": "40.26423870655196"
    },
    {
      "id": "pt.ine.add.PTCONT.1347523",
      "street": "R PORTELINHA",
      "house": "10",
      "postcode": "3360-184",
      "city": "PENACOVA",
      "lon": "-8.28368009370584",
      "lat": "40.26533786805561"
    },
    {
      "id": "pt.ine.add.PTCONT.1350469",
      "street": "R PORTELINHA",
      "house": "4",
      "postcode": "3360-184",
      "city": "PENACOVA",
      "lon": "-8.283878406707665",
      "lat": "40.26464416475174"
    },
    {
      "id": "pt.ine.add.PTCONT.1357731",
      "street": "R CANTO",
      "house": "5",
      "postcode": "3360-184",
      "city": "PENACOVA",
      "lon": "-8.28370067010573",
      "lat": "40.264013991479814"
    },
    {
      "id": "pt.ine.add.PTCONT.1367471",
      "street": "R PORTELINHA",
      "house": "6",
      "postcode": "3360-184",
      "city": "PENACOVA",
      "lon": "-8.28367969434647",
      "lat": "40.265157752973955"
    }
  ]
}