{
  "data": {
    "distrito": "Santarém",
    "concelho": "Cartaxo",
    "freguesia": "União das freguesias do Cartaxo e Vale da Pinta",
    "OBJECTID": 468,
    "BGRI2021": "14060900205",
    "DT21": "14",
    "DTMN21": "1406",
    "DTMNFR21": "140609",
    "DTMNFRSEC21": "140609002",
    "SECNUM21": "002",
    "SSNUM21": "05",
    "SECSSNUM21": "00205",
    "OBJECTID_1": 149876,
    "DT": "14",
    "CC": "06",
    "fr": "09",
    "SEC": "002",
    "SS": "05"
  },
  "addresses": [
    {
      "id": "pt.ine.add.PTCONT.4459862",
      "street": "LG PELOURINHO",
      "house": "2",
      "postcode": "2070-044",
      "city": "CARTAXO",
      "lon": "-8.785903094035202",
      "lat": "39.16241932673688"
    },
    {
      "id": "pt.ine.add.PTCONT.4459863",
      "street": "LG PELOURINHO",
      "house": "2",
      "postcode": "2070-044",
      "city": "CARTAXO",
      "lon": "-8.785903094035202",
      "lat": "39.16241932673688"
    },
    {
      "id": "pt.ine.add.PTCONT.4459864",
      "street": "LG PELOURINHO",
      "house": "2",
      "postcode": "2070-044",
      "city": "CARTAXO",
      "lon": "-8.785903094035202",
      "lat": "39.16241932673688"
    },
    {
      "id": "pt.ine.add.PTCONT.4459865",
      "street": "LG PELOURINHO",
      "house": "2",
      "postcode": "2070-044",
      "city": "CARTAXO",
      "lon": "-8.785903094035202",
      "lat": "39.16241932673688"
    },
    {
      "id": "pt.ine.add.PTCONT.4459866",
      "street": "LG PELOURINHO",
      "house": "2",
      "postcode": "2070-044",
      "city": "CARTAXO",
      "lon": "-8.785903094035202",
      "lat": "39.16241932673688"
    },
    {
      "id": "pt.ine.add.PTCONT.4488657",
      "street": "TV AFONSO",
      "house": "1",
      "postcode": "2070-130",
      "city": "CARTAXO",
      "lon": "-8.785421165042603",
      "lat": "39.16285437965821"
    },
    {
      "id": "pt.ine.add.PTCONT.4488656",
      "street": "TV AFONSO",
      "house": "1",
      "postcode": "2070-130",
      "city": "CARTAXO",
      "lon": "-8.785421165042603",
      "lat": "39.16285437965821"
    },
    {
      "id": "pt.ine.add.PTCONT.4488658",
      "street": "TV AFONSO",
      "house": "1",
      "postcode": "2070-130",
      "city": "CARTAXO",
      "lon": "-8.785421165042603",
      "lat": "39.16285437965821"
    },
    {
      "id": "pt.ine.add.PTCONT.4585899",
      "street": "TV GINEST",
      "house": "",
      "postcode": "2070-104",
      "city": "CARTAXO",
      "lon": "-8.785652641115304",
      "lat": "39.16286209110395"
    },
    {
      "id": "pt.ine.add.PTCONT.4593003",
      "street": "LG PELOURINHO",
      "house": "3",
      "postcode": "2070-044",
      "city": "CARTAXO",
      "lon": "-8.786113178368732",
      "lat": "39.162616312104355"
    },
    {
      "id": "pt.ine.add.PTCONT.4593004",
      "street": "LG PELOURINHO",
      "house": "3",
      "postcode": "2070-044",
      "city": "CARTAXO",
      "lon": "-8.786113178368732",
      "lat": "39.162616312104355"
    },
    {
      "id": "pt.ine.add.PTCONT.4593005",
      "street": "R MOUZINHO ALBUQUERQUE",
      "house": "3",
      "postcode": "2070-104",
      "city": "CARTAXO",
      "lon": "-8.786113178368732",
      "lat": "39.162616312104355"
    },
    {
      "id": "pt.ine.add.PTCONT.4605134",
      "street": "R MOUZINHO DE ALBUQUERQUE",
      "house": "40",
      "postcode": "2070-104",
      "city": "CARTAXO",
      "lon": "-8.78590650726682",
      "lat": "39.162788610241726"
    },
    {
      "id": "pt.ine.add.PTCONT.4605135",
      "street": "R MOUZINHO DE ALBUQUERQUE",
      "house": "40",
      "postcode": "2070-104",
      "city": "CARTAXO",
      "lon": "-8.78590650726682",
      "lat": "39.162788610241726"
    },
    {
      "id": "pt.ine.add.PTCONT.4606916",
      "street": "R S SEBASTIAO",
      "house": "3",
      "postcode": "2070-074",
      "city": "CARTAXO",
      "lon": "-8.785661298094714",
      "lat": "39.162546784292374"
    },
    {
      "id": "pt.ine.add.PTCONT.4606917",
      "street": "R S SEBASTIÃO",
      "house": "3A",
      "postcode": "2070-074",
      "city": "CARTAXO",
      "lon": "-8.785661298094714",
      "lat": "39.162546784292374"
    },
    {
      "id": "pt.ine.add.PTCONT.4623443",
      "street": "R S SEBASTIÃO",
      "house": "5",
      "postcode": "2070-074",
      "city": "CARTAXO",
      "lon": "-8.785442723695644",
      "lat": "39.16268311874079"
    },
    {
      "id": "pt.ine.add.PTCONT.4623444",
      "street": "R S SEBASTIÃO",
      "house": "5",
      "postcode": "2070-074",
      "city": "CARTAXO",
      "lon": "-8.785442723695644",
      "lat": "39.16268311874079"
    }
  ]
}