{
  "data": {
    "distrito": "Lisboa",
    "concelho": "Amadora",
    "freguesia": "Falagueira-Venda Nova",
    "OBJECTID": 401,
    "BGRI2021": "11151501104",
    "DT21": "11",
    "DTMN21": "1115",
    "DTMNFR21": "111515",
    "DTMNFRSEC21": "111515011",
    "SECNUM21": "011",
    "SSNUM21": "04",
    "SECSSNUM21": "01104",
    "OBJECTID_1": 118638,
    "DT": "11",
    "CC": "15",
    "fr": "15",
    "SEC": "011",
    "SS": "04"
  },
  "addresses": [
    {
      "id": "pt.ine.add.PTCONT.2319704",
      "street": "R D NUNO ÁLVARES PEREIRA",
      "house": "24",
      "postcode": "2700-258",
      "city": "AMADORA",
      "lon": "-9.209628193637963",
      "lat": "38.75621037681406"
    },
    {
      "id": "pt.ine.add.PTCONT.2319705",
      "street": "R D NUNO ÁLVARES PEREIRA",
      "house": "24",
      "postcode": "2700-258",
      "city": "AMADORA",
      "lon": "-9.209628193637963",
      "lat": "38.75621037681406"
    },
    {
      "id": "pt.ine.add.PTCONT.2319706",
      "street": "R D NUNO ÁLVARES PEREIRA",
      "house": "24",
      "postcode": "2700-258",
      "city": "AMADORA",
      "lon": "-9.209628193637963",
      "lat": "38.75621037681406"
    },
    {
      "id": "pt.ine.add.PTCONT.2337709",
      "street": "R GONCALVES CRESPO",
      "house": "15",
      "postcode": "2700-433",
      "city": "AMADORA",
      "lon": "-9.209486721211265",
      "lat": "38.75629993085305"
    },
    {
      "id": "pt.ine.add.PTCONT.2337710",
      "street": "R GONCALVES CRESPO",
      "house": "15",
      "postcode": "2700-433",
      "city": "AMADORA",
      "lon": "-9.209486721211265",
      "lat": "38.75629993085305"
    },
    {
      "id": "pt.ine.add.PTCONT.2337711",
      "street": "R GONCALVES CRESPO",
      "house": "15",
      "postcode": "2700-433",
      "city": "AMADORA",
      "lon": "-9.209486721211265",
      "lat": "38.75629993085305"
    },
    {
      "id": "pt.ine.add.PTCONT.2337712",
      "street": "R GONCALVES CRESPO",
      "house": "15",
      "postcode": "2700-433",
      "city": "AMADORA",
      "lon": "-9.209486721211265",
      "lat": "38.75629993085305"
    },
    {
      "id": "pt.ine.add.PTCONT.2337713",
      "street": "R GONCALVES CRESPO",
      "house": "15",
      "postcode": "2700-433",
      "city": "AMADORA",
      "lon": "-9.209486721211265",
      "lat": "38.75629993085305"
    },
    {
      "id": "pt.ine.add.PTCONT.2337714",
      "street": "R GONCALVES CRESPO",
      "house": "15",
      "postcode": "2700-433",
      "city": "AMADORA",
      "lon": "-9.209486721211265",
      "lat": "38.75629993085305"
    },
    {
      "id": "pt.ine.add.PTCONT.2337715",
      "street": "R GONCALVES CRESPO",
      "house": "15",
      "postcode": "2700-433",
      "city": "AMADORA",
      "lon": "-9.209486721211265",
      "lat": "38.75629993085305"
    },
    {
      "id": "pt.ine.add.PTCONT.2337717",
      "street": "R GONCALVES CRESPO",
      "house": "15",
      "postcode": "2700-433",
      "city": "AMADORA",
      "lon": "-9.209486721211265",
      "lat": "38.75629993085305"
    },
    {
      "id": "pt.ine.add.PTCONT.2338165",
      "street": "R GONCALVES CRESPO",
      "house": "15",
      "postcode": "2700-433",
      "city": "AMADORA",
      "lon": "-9.209486721211265",
      "lat": "38.75629993085305"
    },
    {
      "id": "pt.ine.add.PTCONT.2716667",
      "street": "R DR ANTÓNIO CÂNDIDO",
      "house": "29",
      "postcode": "2700-268",
      "city": "AMADORA",
      "lon": "-9.209423797819404",
      "lat": "38.75594019904025"
    },
    {
      "id": "pt.ine.add.PTCONT.2752520",
      "street": "R D NUNO ÁLVARES PEREIRA",
      "house": "20",
      "postcode": "2700-258",
      "city": "AMADORA",
      "lon": "-9.209604976057328",
      "lat": "38.7560922058867"
    },
    {
      "id": "pt.ine.add.PTCONT.2832183",
      "street": "R D NUNO ÁLVARES PEREIRA",
      "house": "26",
      "postcode": "2700-258",
      "city": "AMADORA",
      "lon": "-9.209650002094973",
      "lat": "38.75628582239104"
    },
    {
      "id": "pt.ine.add.PTCONT.2885601",
      "street": "R GONÇALVES CRESPO",
      "house": "9",
      "postcode": "2700-433",
      "city": "AMADORA",
      "lon": "-9.209442399260698",
      "lat": "38.75609518318856"
    },
    {
      "id": "pt.ine.add.PTCONT.3080171",
      "street": "R D NUNO ÁLVARES PEREIRA",
      "house": "18",
      "postcode": "2700-258",
      "city": "AMADORA",
      "lon": "-9.209592593767276",
      "lat": "38.75603374052422"
    },
    {
      "id": "pt.ine.add.PTCONT.3092379",
      "street": "R D NUNO ÁLVARES PEREIRA",
      "house": "22",
      "postcode": "2700-258",
      "city": "AMADORA",
      "lon": "-9.209609520442067",
      "lat": "38.75614988860139"
    },
    {
      "id": "pt.ine.add.PTCONT.3182186",
      "street": "R GONÇALVES CRESPO",
      "house": "13",
      "postcode": "2700-433",
      "city": "AMADORA",
      "lon": "-9.209473276603706",
      "lat": "38.75623369344007"
    },
    {
      "id": "pt.ine.add.PTCONT.3184872",
      "street": "R D NUNO ÁLVARES PEREIRA",
      "house": "16",
      "postcode": "2700-258",
      "city": "AMADORA",
      "lon": "-9.209565113521405",
      "lat": "38.75594440222338"
    },
    {
      "id": "pt.ine.add.PTCONT.3184873",
      "street": "R D NUNO ÁLVARES PEREIRA",
      "house": "16",
      "postcode": "2700-258",
      "city": "AMADORA",
      "lon": "-9.209565113521405",
      "lat": "38.75594440222338"
    },
    {
      "id": "pt.ine.add.PTCONT.3184874",
      "street": "R D NUNO ÁLVARES PEREIRA",
      "house": "16",
      "postcode": "2700-258",
      "city": "AMADORA",
      "lon": "-9.209565113521405",
      "lat": "38.75594440222338"
    },
    {
      "id": "pt.ine.add.PTCONT.3184875",
      "street": "R D NUNO ÁLVARES PEREIRA",
      "house": "16",
      "postcode": "2700-258",
      "city": "AMADORA",
      "lon": "-9.209565113521405",
      "lat": "38.75594440222338"
    },
    {
      "id": "pt.ine.add.PTCONT.3184876",
      "street": "R D NUNO ÁLVARES PEREIRA",
      "house": "16",
      "postcode": "2700-258",
      "city": "AMADORA",
      "lon": "-9.209565113521405",
      "lat": "38.75594440222338"
    },
    {
      "id": "pt.ine.add.PTCONT.3184877",
      "street": "R D NUNO ÁLVARES PEREIRA",
      "house": "16",
      "postcode": "2700-258",
      "city": "AMADORA",
      "lon": "-9.209565113521405",
      "lat": "38.75594440222338"
    },
    {
      "id": "pt.ine.add.PTCONT.3185027",
      "street": "R D NUNO ÁLVARES PEREIRA",
      "house": "16",
      "postcode": "2700-258",
      "city": "AMADORA",
      "lon": "-9.209565113521405",
      "lat": "38.75594440222338"
    },
    {
      "id": "pt.ine.add.PTCONT.3301757",
      "street": "R GONÇALVES CRESPO",
      "house": "11",
      "postcode": "2700-433",
      "city": "AMADORA",
      "lon": "-9.209458096491481",
      "lat": "38.756165875828664"
    },
    {
      "id": "pt.ine.add.PTCONT.3348007",
      "street": "R DR ANTONIO CANDIDO",
      "house": "32",
      "postcode": "2700-268",
      "city": "AMADORA",
      "lon": "-9.209413242397696",
      "lat": "38.756003350724185"
    }
  ]
}