{
  "data": {
    "distrito": "Coimbra",
    "concelho": "Coimbra",
    "freguesia": "Torres do Mondego",
    "OBJECTID": 1037,
    "BGRI2021": "06032900111",
    "DT21": "06",
    "DTMN21": "0603",
    "DTMNFR21": "060329",
    "DTMNFRSEC21": "060329001",
    "SECNUM21": "001",
    "SSNUM21": "11",
    "SECSSNUM21": "00111",
    "OBJECTID_1": 49630,
    "DT": "06",
    "CC": "03",
    "fr": "29",
    "SEC": "001",
    "SS": "11"
  },
  "addresses": [
    {
      "id": "pt.ine.add.PTCONT.1108538",
      "street": "R CASA DO POVO",
      "house": "68",
      "postcode": "3030-122",
      "city": "COIMBRA",
      "lon": "-8.364789946869058",
      "lat": "40.208125033188004"
    },
    {
      "id": "pt.ine.add.PTCONT.1127386",
      "street": "TV FONTE",
      "house": "4",
      "postcode": "3030-260",
      "city": "COIMBRA",
      "lon": "-8.366148796793391",
      "lat": "40.21047283502995"
    },
    {
      "id": "pt.ine.add.PTCONT.1149616",
      "street": "R ESCOLA PRIMARIA",
      "house": "30",
      "postcode": "3030-129",
      "city": "COIMBRA",
      "lon": "-8.364027215215854",
      "lat": "40.208351703778916"
    },
    {
      "id": "pt.ine.add.PTCONT.1149617",
      "street": "R ESCOLA PRIMARIA",
      "house": "30",
      "postcode": "3030-129",
      "city": "COIMBRA",
      "lon": "-8.364027215215854",
      "lat": "40.208351703778916"
    },
    {
      "id": "pt.ine.add.PTCONT.1156916",
      "street": "TV CASA DO POVO",
      "house": "3",
      "postcode": "3030-122",
      "city": "COIMBRA",
      "lon": "-8.364414806781323",
      "lat": "40.20834192408262"
    },
    {
      "id": "pt.ine.add.PTCONT.1159965",
      "street": "R ESCOLA PRIMARIA",
      "house": "32",
      "postcode": "3030-129",
      "city": "COIMBRA",
      "lon": "-8.363910242685865",
      "lat": "40.208496030847996"
    },
    {
      "id": "pt.ine.add.PTCONT.1174604",
      "street": "R OLIVAL",
      "house": "3",
      "postcode": "3030-260",
      "city": "COIMBRA",
      "lon": "-8.365575341768567",
      "lat": "40.21109539227435"
    },
    {
      "id": "pt.ine.add.PTCONT.1201074",
      "street": "LG SANTO ANTÃ“NIO",
      "house": "2",
      "postcode": "3030-260",
      "city": "COIMBRA",
      "lon": "-8.366242151582343",
      "lat": "40.21029252988415"
    },
    {
      "id": "pt.ine.add.PTCONT.1206442",
      "street": "R FONTE",
      "house": "2",
      "postcode": "3030-260",
      "city": "COIMBRA",
      "lon": "-8.366301285124168",
      "lat": "40.21040948693257"
    },
    {
      "id": "pt.ine.add.PTCONT.1215988",
      "street": "R CASA DO POVO",
      "house": "11",
      "postcode": "3030-122",
      "city": "COIMBRA",
      "lon": "-8.365460611604712",
      "lat": "40.20845690583609"
    },
    {
      "id": "pt.ine.add.PTCONT.1228116",
      "street": "TV FONTE",
      "house": "9",
      "postcode": "3030-260",
      "city": "COIMBRA",
      "lon": "-8.366291390466346",
      "lat": "40.21094985833606"
    },
    {
      "id": "pt.ine.add.PTCONT.1250649",
      "street": "R OLIVAL",
      "house": "2",
      "postcode": "3030-260",
      "city": "COIMBRA",
      "lon": "-8.365316701435985",
      "lat": "40.21103287039901"
    },
    {
      "id": "pt.ine.add.PTCONT.1267198",
      "street": "R CASA DO POVO",
      "house": "26",
      "postcode": "3030-122",
      "city": "COIMBRA",
      "lon": "-8.365526847987224",
      "lat": "40.21065420262821"
    },
    {
      "id": "pt.ine.add.PTCONT.1291867",
      "street": "TV FONTE",
      "house": "",
      "postcode": "3030-260",
      "city": "COIMBRA",
      "lon": "-8.36617330776212",
      "lat": "40.21076997899434"
    },
    {
      "id": "pt.ine.add.PTCONT.1299826",
      "street": "R CASA DO POVO",
      "house": "24",
      "postcode": "3030-122",
      "city": "COIMBRA",
      "lon": "-8.36544246973858",
      "lat": "40.21002396192148"
    },
    {
      "id": "pt.ine.add.PTCONT.1346713",
      "street": "R OLIVAL",
      "house": "2 A",
      "postcode": "3030-260",
      "city": "COIMBRA",
      "lon": "-8.365305200716994",
      "lat": "40.21110494032786"
    },
    {
      "id": "pt.ine.add.PTCONT.1350536",
      "street": "R CASA DO POVO",
      "house": "4",
      "postcode": "3030-122",
      "city": "COIMBRA",
      "lon": "-8.364402019878085",
      "lat": "40.208035750326914"
    }
  ]
}