{
  "data": {
    "distrito": "Portalegre",
    "concelho": "Elvas",
    "freguesia": "Caia, São Pedro e Alcáçova",
    "OBJECTID": 295,
    "BGRI2021": "12071300204",
    "DT21": "12",
    "DTMN21": "1207",
    "DTMNFR21": "120713",
    "DTMNFRSEC21": "120713002",
    "SECNUM21": "002",
    "SSNUM21": "04",
    "SECSSNUM21": "00204",
    "OBJECTID_1": 121784,
    "DT": "12",
    "CC": "07",
    "fr": "13",
    "SEC": "002",
    "SS": "04"
  },
  "addresses": [
    {
      "id": "pt.ine.add.PTCONT.3535542",
      "street": "R JOSE LUIS VIDIGAL",
      "house": "27",
      "postcode": "7350-311",
      "city": "ELVAS",
      "lon": "-7.15326936922135",
      "lat": "38.87748368101084"
    },
    {
      "id": "pt.ine.add.PTCONT.3538762",
      "street": "R JOAQUIM BASTINHAS",
      "house": "",
      "postcode": "7350-312",
      "city": "ELVAS",
      "lon": "-7.1520442869143155",
      "lat": "38.87690591221058"
    },
    {
      "id": "pt.ine.add.PTCONT.3538796",
      "street": "R JOAQUIM BASTINHAS",
      "house": "11",
      "postcode": "7350-312",
      "city": "ELVAS",
      "lon": "-7.152250076734218",
      "lat": "38.877024740569674"
    },
    {
      "id": "pt.ine.add.PTCONT.3464606",
      "street": "R JOSE LUIS VIDIGAL",
      "house": "",
      "postcode": "7350-311",
      "city": "ELVAS",
      "lon": "-7.152765606200279",
      "lat": "38.87724525363212"
    },
    {
      "id": "pt.ine.add.PTCONT.3464607",
      "street": "R JOSE LUIS VIDIGAL",
      "house": "",
      "postcode": "7350-311",
      "city": "ELVAS",
      "lon": "-7.152765606200279",
      "lat": "38.87724525363212"
    },
    {
      "id": "pt.ine.add.PTCONT.3464608",
      "street": "R JOSE LUIS VIDIGAL",
      "house": "",
      "postcode": "7350-311",
      "city": "ELVAS",
      "lon": "-7.152765606200279",
      "lat": "38.87724525363212"
    },
    {
      "id": "pt.ine.add.PTCONT.3464609",
      "street": "R JOSE LUIS VIDIGAL",
      "house": "",
      "postcode": "7350-311",
      "city": "ELVAS",
      "lon": "-7.152765606200279",
      "lat": "38.87724525363212"
    },
    {
      "id": "pt.ine.add.PTCONT.3464963",
      "street": "R JOSE LUIS VIDIGAL",
      "house": "",
      "postcode": "7350-311",
      "city": "ELVAS",
      "lon": "-7.152765606200279",
      "lat": "38.87724525363212"
    },
    {
      "id": "pt.ine.add.PTCONT.3464983",
      "street": "R JOSE LUIS VIDIGAL",
      "house": "",
      "postcode": "7350-311",
      "city": "ELVAS",
      "lon": "-7.152765606200279",
      "lat": "38.87724525363212"
    },
    {
      "id": "pt.ine.add.PTCONT.3468802",
      "street": "R JOSE LUIS VIDIGAL",
      "house": "23",
      "postcode": "7350-311",
      "city": "ELVAS",
      "lon": "-7.153238160767579",
      "lat": "38.87807792464647"
    },
    {
      "id": "pt.ine.add.PTCONT.3469971",
      "street": "R JOSE LUIS VIDIGAL",
      "house": "25",
      "postcode": "7350-311",
      "city": "ELVAS",
      "lon": "-7.153264916331553",
      "lat": "38.877807919388715"
    },
    {
      "id": "pt.ine.add.PTCONT.3491685",
      "street": "R JOSÉ LUÍS VIDIGAL",
      "house": "22",
      "postcode": "7350-311",
      "city": "ELVAS",
      "lon": "-7.152535408821226",
      "lat": "38.87722530547986"
    },
    {
      "id": "pt.ine.add.PTCONT.3491686",
      "street": "R JOSÉ LUÍS VIDIGAL",
      "house": "22",
      "postcode": "7350-311",
      "city": "ELVAS",
      "lon": "-7.152535408821226",
      "lat": "38.87722530547986"
    },
    {
      "id": "pt.ine.add.PTCONT.3491713",
      "street": "R JOSÉ LUÍS VIDIGAL",
      "house": "22",
      "postcode": "7350-311",
      "city": "ELVAS",
      "lon": "-7.152535408821226",
      "lat": "38.87722530547986"
    },
    {
      "id": "pt.ine.add.PTCONT.3491714",
      "street": "R JOSÉ LUÍS VIDIGAL",
      "house": "22",
      "postcode": "7350-311",
      "city": "ELVAS",
      "lon": "-7.152535408821226",
      "lat": "38.87722530547986"
    },
    {
      "id": "pt.ine.add.PTCONT.3491715",
      "street": "R JOSÉ LUÍS VIDIGAL",
      "house": "22",
      "postcode": "7350-311",
      "city": "ELVAS",
      "lon": "-7.152535408821226",
      "lat": "38.87722530547986"
    },
    {
      "id": "pt.ine.add.PTCONT.3491949",
      "street": "R JOSÉ LUÍS VIDIGAL",
      "house": "22",
      "postcode": "7350-311",
      "city": "ELVAS",
      "lon": "-7.152535408821226",
      "lat": "38.87722530547986"
    },
    {
      "id": "pt.ine.add.PTCONT.3492050",
      "street": "R JOSÉ LUÍS VIDIGAL",
      "house": "22",
      "postcode": "7350-311",
      "city": "ELVAS",
      "lon": "-7.152535408821226",
      "lat": "38.87722530547986"
    },
    {
      "id": "pt.ine.add.PTCONT.3492072",
      "street": "R JOSÉ LUÍS VIDIGAL",
      "house": "22",
      "postcode": "7350-311",
      "city": "ELVAS",
      "lon": "-7.152535408821226",
      "lat": "38.87722530547986"
    },
    {
      "id": "pt.ine.add.PTCONT.3492073",
      "street": "R JOSÉ LUÍS VIDIGAL",
      "house": "22",
      "postcode": "7350-311",
      "city": "ELVAS",
      "lon": "-7.152535408821226",
      "lat": "38.87722530547986"
    },
    {
      "id": "pt.ine.add.PTCONT.3500067",
      "street": "ESTR NACIONAL",
      "house": "",
      "postcode": "7350-277",
      "city": "ELVAS",
      "lon": "-7.156050487452279",
      "lat": "38.87803843660626"
    },
    {
      "id": "pt.ine.add.PTCONT.3520378",
      "street": "R JOSE LUIS VIDIGAL",
      "house": "24",
      "postcode": "7350-311",
      "city": "ELVAS",
      "lon": "-7.15326330832595",
      "lat": "38.877925005465094"
    },
    {
      "id": "pt.ine.add.PTCONT.3522209",
      "street": "R JOSE LUIS VIDIGAL",
      "house": "20",
      "postcode": "7350-311",
      "city": "ELVAS",
      "lon": "-7.1532515473547225",
      "lat": "38.87847509456794"
    },
    {
      "id": "pt.ine.add.PTCONT.3527347",
      "street": "R JOAQUIM BASTINHAS",
      "house": "",
      "postcode": "7350-312",
      "city": "ELVAS",
      "lon": "-7.1520442869143155",
      "lat": "38.87690591221058"
    },
    {
      "id": "pt.ine.add.PTCONT.3527356",
      "street": "R JOAQUIM BASTINHAS",
      "house": "",
      "postcode": "7350-312",
      "city": "ELVAS",
      "lon": "-7.1520442869143155",
      "lat": "38.87690591221058"
    },
    {
      "id": "pt.ine.add.PTCONT.3527357",
      "street": "R JOAQUIM BASTINHAS",
      "house": "",
      "postcode": "7350-312",
      "city": "ELVAS",
      "lon": "-7.1520442869143155",
      "lat": "38.87690591221058"
    },
    {
      "id": "pt.ine.add.PTCONT.3527358",
      "street": "R JOAQUIM BASTINHAS",
      "house": "",
      "postcode": "7350-312",
      "city": "ELVAS",
      "lon": "-7.1520442869143155",
      "lat": "38.87690591221058"
    },
    {
      "id": "pt.ine.add.PTCONT.3527359",
      "street": "R JOAQUIM BASTINHAS",
      "house": "",
      "postcode": "7350-312",
      "city": "ELVAS",
      "lon": "-7.1520442869143155",
      "lat": "38.87690591221058"
    },
    {
      "id": "pt.ine.add.PTCONT.3527712",
      "street": "R JOAQUIM BASTINHAS",
      "house": "",
      "postcode": "7350-312",
      "city": "ELVAS",
      "lon": "-7.1520442869143155",
      "lat": "38.87690591221058"
    },
    {
      "id": "pt.ine.add.PTCONT.3527736",
      "street": "R JOAQUIM BASTINHAS",
      "house": "",
      "postcode": "7350-312",
      "city": "ELVAS",
      "lon": "-7.1520442869143155",
      "lat": "38.87690591221058"
    },
    {
      "id": "pt.ine.add.PTCONT.3528010",
      "street": "R JOAQUIM BASTINHAS",
      "house": "11",
      "postcode": "7350-312",
      "city": "ELVAS",
      "lon": "-7.152250076734218",
      "lat": "38.877024740569674"
    },
    {
      "id": "pt.ine.add.PTCONT.3528011",
      "street": "R JOAQUIM BASTINHAS",
      "house": "",
      "postcode": "7350-312",
      "city": "ELVAS",
      "lon": "-7.152250076734218",
      "lat": "38.877024740569674"
    },
    {
      "id": "pt.ine.add.PTCONT.3528012",
      "street": "R JOAQUIM BASTINHAS",
      "house": "",
      "postcode": "7350-312",
      "city": "ELVAS",
      "lon": "-7.152250076734218",
      "lat": "38.877024740569674"
    },
    {
      "id": "pt.ine.add.PTCONT.3528013",
      "street": "R JOAQUIM BASTINHAS",
      "house": "",
      "postcode": "7350-312",
      "city": "ELVAS",
      "lon": "-7.152250076734218",
      "lat": "38.877024740569674"
    },
    {
      "id": "pt.ine.add.PTCONT.3528014",
      "street": "R JOAQUIM BASTINHAS",
      "house": "",
      "postcode": "7350-312",
      "city": "ELVAS",
      "lon": "-7.152250076734218",
      "lat": "38.877024740569674"
    },
    {
      "id": "pt.ine.add.PTCONT.3528015",
      "street": "R JOAQUIM BASTINHAS",
      "house": "",
      "postcode": "7350-312",
      "city": "ELVAS",
      "lon": "-7.152250076734218",
      "lat": "38.877024740569674"
    },
    {
      "id": "pt.ine.add.PTCONT.3528016",
      "street": "R JOAQUIM BASTINHAS",
      "house": "11",
      "postcode": "7350-312",
      "city": "ELVAS",
      "lon": "-7.152250076734218",
      "lat": "38.877024740569674"
    }
  ]
}