{
  "data": {
    "distrito": "Setúbal",
    "concelho": "Palmela",
    "freguesia": "Palmela",
    "OBJECTID": 324,
    "BGRI2021": "15080200515",
    "DT21": "15",
    "DTMN21": "1508",
    "DTMNFR21": "150802",
    "DTMNFRSEC21": "150802005",
    "SECNUM21": "005",
    "SSNUM21": "15",
    "SECSSNUM21": "00515",
    "OBJECTID_1": 165392,
    "DT": "15",
    "CC": "08",
    "fr": "02",
    "SEC": "005",
    "SS": "15"
  },
  "addresses": [
    {
      "id": "pt.ine.add.PTCONT.4667528",
      "street": "R D JOÃO DE CASTRO",
      "house": "11",
      "postcode": "2950-206",
      "city": "PALMELA",
      "lon": "-8.900428259165343",
      "lat": "38.57006307496654"
    },
    {
      "id": "pt.ine.add.PTCONT.4773281",
      "street": "R D JOÃO DE CASTRO",
      "house": "15",
      "postcode": "2950-206",
      "city": "PALMELA",
      "lon": "-8.900212653854432",
      "lat": "38.57028969404607"
    },
    {
      "id": "pt.ine.add.PTCONT.4773282",
      "street": "R D JOÃO DE CASTRO",
      "house": "15",
      "postcode": "2950-206",
      "city": "PALMELA",
      "lon": "-8.900212653854432",
      "lat": "38.57028969404607"
    },
    {
      "id": "pt.ine.add.PTCONT.4773283",
      "street": "R D JOÃO DE CASTRO",
      "house": "15",
      "postcode": "2950-206",
      "city": "PALMELA",
      "lon": "-8.900212653854432",
      "lat": "38.57028969404607"
    },
    {
      "id": "pt.ine.add.PTCONT.4773284",
      "street": "R D JOÃO DE CASTRO",
      "house": "15",
      "postcode": "2950-206",
      "city": "PALMELA",
      "lon": "-8.900212653854432",
      "lat": "38.57028969404607"
    },
    {
      "id": "pt.ine.add.PTCONT.4773285",
      "street": "R D JOÃO DE CASTRO",
      "house": "15",
      "postcode": "2950-206",
      "city": "PALMELA",
      "lon": "-8.900212653854432",
      "lat": "38.57028969404607"
    },
    {
      "id": "pt.ine.add.PTCONT.4773286",
      "street": "R D JOÃO DE CASTRO",
      "house": "15",
      "postcode": "2950-206",
      "city": "PALMELA",
      "lon": "-8.900212653854432",
      "lat": "38.57028969404607"
    },
    {
      "id": "pt.ine.add.PTCONT.4773287",
      "street": "R D JOÃO DE CASTRO",
      "house": "15",
      "postcode": "2950-206",
      "city": "PALMELA",
      "lon": "-8.900212653854432",
      "lat": "38.57028969404607"
    },
    {
      "id": "pt.ine.add.PTCONT.4773288",
      "street": "R D JOÃO DE CASTRO",
      "house": "15",
      "postcode": "2950-206",
      "city": "PALMELA",
      "lon": "-8.900212653854432",
      "lat": "38.57028969404607"
    },
    {
      "id": "pt.ine.add.PTCONT.4806039",
      "street": "AV DR JUIZ JOSE CELESTINO ATAZ GODINHO DE MATOS",
      "house": "",
      "postcode": "2950-252",
      "city": "PALMELA",
      "lon": "-8.900179094714197",
      "lat": "38.570370988092414"
    },
    {
      "id": "pt.ine.add.PTCONT.4806169",
      "street": "AV DR JUIZ JOSE CELESTINO ATAZ GODINHO MATOS",
      "house": "21",
      "postcode": "2950-252",
      "city": "PALMELA",
      "lon": "-8.900179094714197",
      "lat": "38.570370988092414"
    },
    {
      "id": "pt.ine.add.PTCONT.4806170",
      "street": "AV DR JUIZ JOSE CELESTINO ATAZ GODINHO MATOS",
      "house": "21",
      "postcode": "2950-252",
      "city": "PALMELA",
      "lon": "-8.900179094714197",
      "lat": "38.570370988092414"
    },
    {
      "id": "pt.ine.add.PTCONT.4806171",
      "street": "AV DR JUIZ JOSE CELESTINO ATAZ GODINHO MATOS",
      "house": "21",
      "postcode": "2950-252",
      "city": "PALMELA",
      "lon": "-8.900179094714197",
      "lat": "38.570370988092414"
    },
    {
      "id": "pt.ine.add.PTCONT.4806172",
      "street": "AV DR JUIZ JOSE CELESTINO ATAZ GODINHO MATOS",
      "house": "21",
      "postcode": "2950-252",
      "city": "PALMELA",
      "lon": "-8.900179094714197",
      "lat": "38.570370988092414"
    },
    {
      "id": "pt.ine.add.PTCONT.4806173",
      "street": "AV DR JUIZ JOSE CELESTINO ATAZ GODINHO MATOS",
      "house": "21",
      "postcode": "2950-252",
      "city": "PALMELA",
      "lon": "-8.900179094714197",
      "lat": "38.570370988092414"
    },
    {
      "id": "pt.ine.add.PTCONT.4806174",
      "street": "AV DR JUIZ JOSE CELESTINO ATAZ GODINHO MATOS",
      "house": "21",
      "postcode": "2950-252",
      "city": "PALMELA",
      "lon": "-8.900179094714197",
      "lat": "38.570370988092414"
    },
    {
      "id": "pt.ine.add.PTCONT.4806175",
      "street": "AV DR JUIZ JOSE CELESTINO ATAZ GODINHO MATOS",
      "house": "21",
      "postcode": "2950-252",
      "city": "PALMELA",
      "lon": "-8.900179094714197",
      "lat": "38.570370988092414"
    },
    {
      "id": "pt.ine.add.PTCONT.4877060",
      "street": "R GAGO COUTINHO E SACADURA CABRAL",
      "house": "29",
      "postcode": "2950-204",
      "city": "PALMELA",
      "lon": "-8.900600460110825",
      "lat": "38.57007095421854"
    },
    {
      "id": "pt.ine.add.PTCONT.4877061",
      "street": "R GAGO COUTINHO E SACADURA CABRAL",
      "house": "29",
      "postcode": "2950-204",
      "city": "PALMELA",
      "lon": "-8.900600460110825",
      "lat": "38.57007095421854"
    },
    {
      "id": "pt.ine.add.PTCONT.4878259",
      "street": "R GAGO COUTINHO E SACADURA CABRAL",
      "house": "29",
      "postcode": "2950-204",
      "city": "PALMELA",
      "lon": "-8.900600460110825",
      "lat": "38.57007095421854"
    },
    {
      "id": "pt.ine.add.PTCONT.4940109",
      "street": "AV DR JUIZ JOSE CELESTINO ATAZ GODINHO DE MATOS",
      "house": "23",
      "postcode": "2950-252",
      "city": "PALMELA",
      "lon": "-8.900283220345647",
      "lat": "38.57045137978989"
    },
    {
      "id": "pt.ine.add.PTCONT.4940110",
      "street": "AV DR JUIZ JOSE CELESTINO ATAZ GODINHO DE MATOS",
      "house": "23",
      "postcode": "2950-252",
      "city": "PALMELA",
      "lon": "-8.900283220345647",
      "lat": "38.57045137978989"
    },
    {
      "id": "pt.ine.add.PTCONT.4940111",
      "street": "AV DR JUIZ JOSE CELESTINO ATAZ GODINHO DE MATOS",
      "house": "23",
      "postcode": "2950-252",
      "city": "PALMELA",
      "lon": "-8.900283220345647",
      "lat": "38.57045137978989"
    },
    {
      "id": "pt.ine.add.PTCONT.4940112",
      "street": "AV DR JUIZ JOSE CELESTINO ATAZ GODINHO DE MATOS",
      "house": "23",
      "postcode": "2950-252",
      "city": "PALMELA",
      "lon": "-8.900283220345647",
      "lat": "38.57045137978989"
    },
    {
      "id": "pt.ine.add.PTCONT.4940113",
      "street": "AV DR JUIZ JOSE CELESTINO ATAZ GODINHO DE MATOS",
      "house": "23",
      "postcode": "2950-252",
      "city": "PALMELA",
      "lon": "-8.900283220345647",
      "lat": "38.57045137978989"
    },
    {
      "id": "pt.ine.add.PTCONT.4940114",
      "street": "AV DR JUIZ JOSE CELESTINO ATAZ GODINHO DE MATOS",
      "house": "23",
      "postcode": "2950-252",
      "city": "PALMELA",
      "lon": "-8.900283220345647",
      "lat": "38.57045137978989"
    },
    {
      "id": "pt.ine.add.PTCONT.4940124",
      "street": "AV DR JUIZ JOSE CELESTINO ATAZ GODINHO MATOS",
      "house": "14",
      "postcode": "2950-252",
      "city": "PALMELA",
      "lon": "-8.900283220345647",
      "lat": "38.57045137978989"
    },
    {
      "id": "pt.ine.add.PTCONT.4941975",
      "street": "AV DR JUIZ JOSE CELESTINO ATAZ GODINHO DE MATOS",
      "house": "23",
      "postcode": "2950-252",
      "city": "PALMELA",
      "lon": "-8.900283220345647",
      "lat": "38.57045137978989"
    },
    {
      "id": "pt.ine.add.PTCONT.4972548",
      "street": "AV DR JUIZ JOSE CELESTINO ATAZ GODINHO MATOS",
      "house": "25",
      "postcode": "2950-252",
      "city": "PALMELA",
      "lon": "-8.900375585052586",
      "lat": "38.570504823782095"
    },
    {
      "id": "pt.ine.add.PTCONT.4972549",
      "street": "AV DR JUIZ JOSE CELESTINO ATAZ GODINHO DE MATOS",
      "house": "15",
      "postcode": "2950-252",
      "city": "PALMELA",
      "lon": "-8.900375585052586",
      "lat": "38.570504823782095"
    },
    {
      "id": "pt.ine.add.PTCONT.4972550",
      "street": "AV DR JUIZ JOSE CELESTINO ATAZ GODINHO DE MATOS",
      "house": "15",
      "postcode": "2950-252",
      "city": "PALMELA",
      "lon": "-8.900375585052586",
      "lat": "38.570504823782095"
    },
    {
      "id": "pt.ine.add.PTCONT.4974715",
      "street": "AV DR JUIZ JOSE CELESTINO ATAZ GODINHO MATOS",
      "house": "25",
      "postcode": "2950-252",
      "city": "PALMELA",
      "lon": "-8.900375585052586",
      "lat": "38.570504823782095"
    },
    {
      "id": "pt.ine.add.PTCONT.4990659",
      "street": "R VASCO DA GAMA",
      "house": "12",
      "postcode": "2950-250",
      "city": "PALMELA",
      "lon": "-8.900490130868842",
      "lat": "38.57048605640463"
    },
    {
      "id": "pt.ine.add.PTCONT.4990660",
      "street": "R VASCO DA GAMA",
      "house": "12",
      "postcode": "2950-250",
      "city": "PALMELA",
      "lon": "-8.900490130868842",
      "lat": "38.57048605640463"
    },
    {
      "id": "pt.ine.add.PTCONT.4990661",
      "street": "R VASCO DA GAMA",
      "house": "12",
      "postcode": "2950-250",
      "city": "PALMELA",
      "lon": "-8.900490130868842",
      "lat": "38.57048605640463"
    },
    {
      "id": "pt.ine.add.PTCONT.4990662",
      "street": "R VASCO DA GAMA",
      "house": "12",
      "postcode": "2950-250",
      "city": "PALMELA",
      "lon": "-8.900490130868842",
      "lat": "38.57048605640463"
    },
    {
      "id": "pt.ine.add.PTCONT.4990663",
      "street": "R VASCO DA GAMA",
      "house": "12",
      "postcode": "2950-250",
      "city": "PALMELA",
      "lon": "-8.900490130868842",
      "lat": "38.57048605640463"
    },
    {
      "id": "pt.ine.add.PTCONT.4990664",
      "street": "R VASCO DA GAMA",
      "house": "12",
      "postcode": "2950-250",
      "city": "PALMELA",
      "lon": "-8.900490130868842",
      "lat": "38.57048605640463"
    },
    {
      "id": "pt.ine.add.PTCONT.4990672",
      "street": "R VASCO DA GAMA",
      "house": "12",
      "postcode": "2950-250",
      "city": "PALMELA",
      "lon": "-8.900490130868842",
      "lat": "38.57048605640463"
    },
    {
      "id": "pt.ine.add.PTCONT.4992664",
      "street": "R VASCO DA GAMA",
      "house": "12",
      "postcode": "2950-250",
      "city": "PALMELA",
      "lon": "-8.900490130868842",
      "lat": "38.57048605640463"
    }
  ]
}