{
  "data": {
    "distrito": "Lisboa",
    "concelho": "Loures",
    "freguesia": "União das freguesias de Santa Iria de Azoia, São João da Talha e Bobadela",
    "OBJECTID": 316,
    "BGRI2021": "11072802212",
    "DT21": "11",
    "DTMN21": "1107",
    "DTMNFR21": "110728",
    "DTMNFRSEC21": "110728022",
    "SECNUM21": "022",
    "SSNUM21": "12",
    "SECSSNUM21": "02212",
    "OBJECTID_1": 106357,
    "DT": "11",
    "CC": "07",
    "fr": "28",
    "SEC": "022",
    "SS": "12"
  },
  "addresses": [
    {
      "id": "pt.ine.add.PTCONT.3038869",
      "street": "R VOZ DO OPERÁRIO",
      "house": "",
      "postcode": "2695-569",
      "city": "SÃO JOÃO DA TALHA",
      "lon": "-9.091840706602225",
      "lat": "38.82700744205699"
    },
    {
      "id": "pt.ine.add.PTCONT.3064257",
      "street": "R HENRIQUE GALVÃO",
      "house": "",
      "postcode": "2695-551",
      "city": "SÃO JOÃO DA TALHA",
      "lon": "-9.092112442698737",
      "lat": "38.826862175711646"
    },
    {
      "id": "pt.ine.add.PTCONT.3175372",
      "street": "R ALVES REDOL",
      "house": "",
      "postcode": "2695-529",
      "city": "SÃO JOÃO DA TALHA",
      "lon": "-9.092262731534307",
      "lat": "38.82690598054857"
    },
    {
      "id": "pt.ine.add.PTCONT.3175373",
      "street": "R ALVES REDOL",
      "house": "",
      "postcode": "2695-529",
      "city": "SÃO JOÃO DA TALHA",
      "lon": "-9.092262731534307",
      "lat": "38.82690598054857"
    },
    {
      "id": "pt.ine.add.PTCONT.3175374",
      "street": "R ALVES REDOL",
      "house": "",
      "postcode": "2695-529",
      "city": "SÃO JOÃO DA TALHA",
      "lon": "-9.092262731534307",
      "lat": "38.82690598054857"
    },
    {
      "id": "pt.ine.add.PTCONT.3188740",
      "street": "R ALVES REDOL",
      "house": "",
      "postcode": "2695-529",
      "city": "SÃO JOÃO DA TALHA",
      "lon": "-9.09221739986163",
      "lat": "38.82696039923662"
    },
    {
      "id": "pt.ine.add.PTCONT.3280319",
      "street": "R ALVES REDOL",
      "house": "",
      "postcode": "2695-529",
      "city": "SÃO JOÃO DA TALHA",
      "lon": "-9.092103707854045",
      "lat": "38.82706942561534"
    },
    {
      "id": "pt.ine.add.PTCONT.3354093",
      "street": "R ALVES REDOL",
      "house": "",
      "postcode": "2695-529",
      "city": "SÃO JOÃO DA TALHA",
      "lon": "-9.092047103390742",
      "lat": "38.82714195227498"
    },
    {
      "id": "pt.ine.add.PTCONT.2389550",
      "street": "R PRATA",
      "house": "",
      "postcode": "2695-558",
      "city": "SÃO JOÃO DA TALHA",
      "lon": "-9.091919238555844",
      "lat": "38.827052924374094"
    },
    {
      "id": "pt.ine.add.PTCONT.2853340",
      "street": "R ALVES REDOL",
      "house": "",
      "postcode": "2695-529",
      "city": "SÃO JOÃO DA TALHA",
      "lon": "-9.092148797986903",
      "lat": "38.82699699345969"
    }
  ]
}