{
  "data": {
    "distrito": "Leiria",
    "concelho": "Bombarral",
    "freguesia": "Roliça",
    "OBJECTID": 363,
    "BGRI2021": "10050300101",
    "DT21": "10",
    "DTMN21": "1005",
    "DTMNFR21": "100503",
    "DTMNFRSEC21": "100503001",
    "SECNUM21": "001",
    "SSNUM21": "01",
    "SECSSNUM21": "00101",
    "OBJECTID_1": 87075,
    "DT": "10",
    "CC": "05",
    "fr": "03",
    "SEC": "001",
    "SS": "01"
  },
  "addresses": [
    {
      "id": "pt.ine.add.PTCONT.1999298",
      "street": "R RESTAURACAO",
      "house": "",
      "postcode": "2540-607",
      "city": "ROLIÇA",
      "lon": "-9.196517257005173",
      "lat": "39.30388728576482"
    },
    {
      "id": "pt.ine.add.PTCONT.2052313",
      "street": "R INDEPENDÊNCIA CASINHA DA MODESTA",
      "house": "4",
      "postcode": "2540-603",
      "city": "ROLIÇA",
      "lon": "-9.19674922488346",
      "lat": "39.30389417349581"
    },
    {
      "id": "pt.ine.add.PTCONT.2063866",
      "street": "LG ANTÓNIO MACIEIRA",
      "house": "",
      "postcode": "2540-766",
      "city": "ROLIÇA",
      "lon": "-9.196452886347672",
      "lat": "39.304230138681454"
    },
    {
      "id": "pt.ine.add.PTCONT.2101240",
      "street": "R INDEPENDÊNCIA",
      "house": "2",
      "postcode": "2540-603",
      "city": "ROLIÇA",
      "lon": "-9.196333290700586",
      "lat": "39.303988042826155"
    },
    {
      "id": "pt.ine.add.PTCONT.2201667",
      "street": "R 1 DE DEZEMBRO",
      "house": "3",
      "postcode": "2540-656",
      "city": "ROLIÇA",
      "lon": "-9.196266875128924",
      "lat": "39.30419580974754"
    },
    {
      "id": "pt.ine.add.PTCONT.2234998",
      "street": "LG ANTÓNIO MACIEIRA",
      "house": "4",
      "postcode": "2540-766",
      "city": "ROLIÇA",
      "lon": "-9.196613397254966",
      "lat": "39.30411158177603"
    }
  ]
}