{
  "data": {
    "distrito": "Porto",
    "concelho": "Gondomar",
    "freguesia": "União das freguesias de Gondomar (São Cosme), Valbom e Jovim",
    "OBJECTID": 1007,
    "BGRI2021": "13041501804",
    "DT21": "13",
    "DTMN21": "1304",
    "DTMNFR21": "130415",
    "DTMNFRSEC21": "130415018",
    "SECNUM21": "018",
    "SSNUM21": "04",
    "SECSSNUM21": "01804",
    "OBJECTID_1": 129056,
    "DT": "13",
    "CC": "04",
    "fr": "15",
    "SEC": "018",
    "SS": "04"
  },
  "addresses": [
    {
      "id": "pt.ine.add.PTCONT.3669672",
      "street": "R CENTRO REPUBLICANO PADUA CORREIA",
      "house": "20",
      "postcode": "4420-408",
      "city": "VALBOM GDM",
      "lon": "-8.555041196825142",
      "lat": "41.138554220289734"
    },
    {
      "id": "pt.ine.add.PTCONT.3674322",
      "street": "R CENTRO REPUBLICANO PADUA CORREIA",
      "house": "20",
      "postcode": "4420-408",
      "city": "VALBOM GDM",
      "lon": "-8.555041196825142",
      "lat": "41.138554220289734"
    },
    {
      "id": "pt.ine.add.PTCONT.3674323",
      "street": "R CENTRO REPUBLICANO PADUA CORREIA",
      "house": "20",
      "postcode": "4420-408",
      "city": "VALBOM GDM",
      "lon": "-8.555041196825142",
      "lat": "41.138554220289734"
    },
    {
      "id": "pt.ine.add.PTCONT.3674324",
      "street": "R CENTRO REPUBLICANO PADUA CORREIA",
      "house": "20",
      "postcode": "4420-408",
      "city": "VALBOM GDM",
      "lon": "-8.555041196825142",
      "lat": "41.138554220289734"
    },
    {
      "id": "pt.ine.add.PTCONT.3674325",
      "street": "R CENTRO REPUBLICANO PADUA CORREIA",
      "house": "20",
      "postcode": "4420-408",
      "city": "VALBOM GDM",
      "lon": "-8.555041196825142",
      "lat": "41.138554220289734"
    },
    {
      "id": "pt.ine.add.PTCONT.3674326",
      "street": "R CENTRO REPUBLICANO PADUA CORREIA",
      "house": "20",
      "postcode": "4420-408",
      "city": "VALBOM GDM",
      "lon": "-8.555041196825142",
      "lat": "41.138554220289734"
    },
    {
      "id": "pt.ine.add.PTCONT.3674327",
      "street": "R CENTRO REPUBLICANO PADUA CORREIA",
      "house": "20",
      "postcode": "4420-408",
      "city": "VALBOM GDM",
      "lon": "-8.555041196825142",
      "lat": "41.138554220289734"
    },
    {
      "id": "pt.ine.add.PTCONT.3674328",
      "street": "R CENTRO REPUBLICANO PADUA CORREIA",
      "house": "20",
      "postcode": "4420-408",
      "city": "VALBOM GDM",
      "lon": "-8.555041196825142",
      "lat": "41.138554220289734"
    },
    {
      "id": "pt.ine.add.PTCONT.3674329",
      "street": "R CENTRO REPUBLICANO PADUA CORREIA",
      "house": "20",
      "postcode": "4420-408",
      "city": "VALBOM GDM",
      "lon": "-8.555041196825142",
      "lat": "41.138554220289734"
    },
    {
      "id": "pt.ine.add.PTCONT.3825006",
      "street": "R SOUTO PINHEIRO",
      "house": "319",
      "postcode": "4420-562",
      "city": "VALBOM GDM",
      "lon": "-8.555470660284323",
      "lat": "41.13866069912578"
    },
    {
      "id": "pt.ine.add.PTCONT.3928986",
      "street": "R DELFIM RAMOS CASTRO",
      "house": "42",
      "postcode": "4420-421",
      "city": "VALBOM GDM",
      "lon": "-8.555598495787805",
      "lat": "41.13816498915986"
    },
    {
      "id": "pt.ine.add.PTCONT.3943447",
      "street": "R GIESTA",
      "house": "425",
      "postcode": "4420-463",
      "city": "VALBOM GDM",
      "lon": "-8.55581027834249",
      "lat": "41.13775901487714"
    },
    {
      "id": "pt.ine.add.PTCONT.3943448",
      "street": "R GIESTA",
      "house": "425 C 2",
      "postcode": "4420-463",
      "city": "VALBOM GDM",
      "lon": "-8.55581027834249",
      "lat": "41.13775901487714"
    },
    {
      "id": "pt.ine.add.PTCONT.3943449",
      "street": "R GIESTA",
      "house": "425",
      "postcode": "4420-463",
      "city": "VALBOM GDM",
      "lon": "-8.55581027834249",
      "lat": "41.13775901487714"
    },
    {
      "id": "pt.ine.add.PTCONT.3943450",
      "street": "R GIESTA",
      "house": "425",
      "postcode": "4420-463",
      "city": "VALBOM GDM",
      "lon": "-8.55581027834249",
      "lat": "41.13775901487714"
    },
    {
      "id": "pt.ine.add.PTCONT.3943451",
      "street": "R GIESTA",
      "house": "425",
      "postcode": "4420-463",
      "city": "VALBOM GDM",
      "lon": "-8.55581027834249",
      "lat": "41.13775901487714"
    },
    {
      "id": "pt.ine.add.PTCONT.3943583",
      "street": "R GIESTA",
      "house": "425",
      "postcode": "4420-463",
      "city": "VALBOM GDM",
      "lon": "-8.55581027834249",
      "lat": "41.13775901487714"
    },
    {
      "id": "pt.ine.add.PTCONT.3992347",
      "street": "R GIESTA",
      "house": "495",
      "postcode": "4420-463",
      "city": "VALBOM GDM",
      "lon": "-8.555695684647958",
      "lat": "41.13846177740166"
    }
  ]
}