{
  "data": {
    "distrito": "Braga",
    "concelho": "Braga",
    "freguesia": "União das freguesias de Guisande e Oliveira (São Pedro)",
    "OBJECTID": 283,
    "BGRI2021": "03037200105",
    "DT21": "03",
    "DTMN21": "0303",
    "DTMNFR21": "030372",
    "DTMNFRSEC21": "030372001",
    "SECNUM21": "001",
    "SSNUM21": "05",
    "SECSSNUM21": "00105",
    "OBJECTID_1": 23219,
    "DT": "03",
    "CC": "03",
    "fr": "72",
    "SEC": "001",
    "SS": "05"
  },
  "addresses": [
    {
      "id": "pt.ine.add.PTCONT.460222",
      "street": "R TERMO",
      "house": "51",
      "postcode": "4705-627",
      "city": "SÃO PEDRO OLIVEIRA",
      "lon": "-8.47282344572716",
      "lat": "41.47462619216457"
    },
    {
      "id": "pt.ine.add.PTCONT.471217",
      "street": "R TERMO",
      "house": "31",
      "postcode": "4705-627",
      "city": "SÃO PEDRO OLIVEIRA",
      "lon": "-8.472316735954045",
      "lat": "41.47617635320564"
    },
    {
      "id": "pt.ine.add.PTCONT.513026",
      "street": "R TERMO",
      "house": "39",
      "postcode": "4705-627",
      "city": "SÃO PEDRO OLIVEIRA",
      "lon": "-8.472504342548905",
      "lat": "41.475419474767065"
    },
    {
      "id": "pt.ine.add.PTCONT.516273",
      "street": "R TALHO",
      "house": "13",
      "postcode": "4705-627",
      "city": "SÃO PEDRO OLIVEIRA",
      "lon": "-8.469419418103055",
      "lat": "41.47616685297963"
    },
    {
      "id": "pt.ine.add.PTCONT.535628",
      "street": "R VÁRZEA",
      "house": "5",
      "postcode": "4705-627",
      "city": "SÃO PEDRO OLIVEIRA",
      "lon": "-8.47248842556576",
      "lat": "41.47466319658439"
    },
    {
      "id": "pt.ine.add.PTCONT.535629",
      "street": "R VÁRZEA",
      "house": "5",
      "postcode": "4705-627",
      "city": "SÃO PEDRO OLIVEIRA",
      "lon": "-8.47248842556576",
      "lat": "41.47466319658439"
    },
    {
      "id": "pt.ine.add.PTCONT.535630",
      "street": "R VÁRZEA",
      "house": "5",
      "postcode": "4705-627",
      "city": "SÃO PEDRO OLIVEIRA",
      "lon": "-8.47248842556576",
      "lat": "41.47466319658439"
    },
    {
      "id": "pt.ine.add.PTCONT.548747",
      "street": "R ASSENTO",
      "house": "6",
      "postcode": "4705-627",
      "city": "SÃO PEDRO OLIVEIRA",
      "lon": "-8.470854790201775",
      "lat": "41.47822453304038"
    },
    {
      "id": "pt.ine.add.PTCONT.607367",
      "street": "R CARREIRO",
      "house": "4",
      "postcode": "4705-627",
      "city": "SÃO PEDRO OLIVEIRA",
      "lon": "-8.470864986237876",
      "lat": "41.47788235618421"
    },
    {
      "id": "pt.ine.add.PTCONT.639553",
      "street": "R TALHO",
      "house": "11",
      "postcode": "4705-627",
      "city": "SÃO PEDRO OLIVEIRA",
      "lon": "-8.469729432353192",
      "lat": "41.47592284168153"
    },
    {
      "id": "pt.ine.add.PTCONT.678393",
      "street": "R IGREJA",
      "house": "19",
      "postcode": "4705-627",
      "city": "SÃO PEDRO OLIVEIRA",
      "lon": "-8.469024643121006",
      "lat": "41.47854502755898"
    },
    {
      "id": "pt.ine.add.PTCONT.693094",
      "street": "R IGREJA",
      "house": "14",
      "postcode": "4705-627",
      "city": "SÃO PEDRO OLIVEIRA",
      "lon": "-8.469008672601866",
      "lat": "41.477770741695146"
    },
    {
      "id": "pt.ine.add.PTCONT.701433",
      "street": "R TERMO",
      "house": "23",
      "postcode": "4705-627",
      "city": "SÃO PEDRO OLIVEIRA",
      "lon": "-8.472260020663393",
      "lat": "41.47677977963472"
    },
    {
      "id": "pt.ine.add.PTCONT.734217",
      "street": "R ASSENTO",
      "house": "72",
      "postcode": "4705-627",
      "city": "SÃO PEDRO OLIVEIRA",
      "lon": "-8.46548517002416",
      "lat": "41.47941067679275"
    },
    {
      "id": "pt.ine.add.PTCONT.752023",
      "street": "R OLIVEIRA",
      "house": "",
      "postcode": "4705-627",
      "city": "SÃO PEDRO OLIVEIRA",
      "lon": "-8.466412620853715",
      "lat": "41.47815645578658"
    },
    {
      "id": "pt.ine.add.PTCONT.794208",
      "street": "R OLIVEIRA",
      "house": "29",
      "postcode": "4705-627",
      "city": "SÃO PEDRO OLIVEIRA",
      "lon": "-8.46622424406631",
      "lat": "41.47877826824207"
    },
    {
      "id": "pt.ine.add.PTCONT.806495",
      "street": "R IGREJA",
      "house": "72",
      "postcode": "4705-627",
      "city": "SÃO PEDRO OLIVEIRA",
      "lon": "-8.469345106850737",
      "lat": "41.47800385928341"
    },
    {
      "id": "pt.ine.add.PTCONT.843960",
      "street": "R TALHO",
      "house": "11 A",
      "postcode": "4705-627",
      "city": "SÃO PEDRO OLIVEIRA",
      "lon": "-8.469959883039701",
      "lat": "41.47649841468246"
    }
  ]
}