{
  "data": {
    "distrito": "Portalegre",
    "concelho": "Alter do Chão",
    "freguesia": "Alter do Chão",
    "OBJECTID": 19,
    "BGRI2021": "12010100354",
    "DT21": "12",
    "DTMN21": "1201",
    "DTMNFR21": "120101",
    "DTMNFRSEC21": "120101003",
    "SECNUM21": "003",
    "SSNUM21": "54",
    "SECSSNUM21": "00354",
    "OBJECTID_1": 120401,
    "DT": "12",
    "CC": "01",
    "fr": "01",
    "SEC": "003",
    "SS": "54"
  },
  "addresses": [
    {
      "id": "pt.ine.add.PTCONT.3458907",
      "street": "AZ DO TELHEIRO",
      "house": "15",
      "postcode": "7440-080",
      "city": "ALTER DO CHÃO",
      "lon": "-7.651418809432435",
      "lat": "39.20068696449065"
    },
    {
      "id": "pt.ine.add.PTCONT.3475397",
      "street": "CABEÇODA AZINHEIRA QTA DO CABECO DA AZINHEIRA",
      "house": "",
      "postcode": "7440-151",
      "city": "ALTER DO CHÃO",
      "lon": "-7.645288999956861",
      "lat": "39.201915386266556"
    },
    {
      "id": "pt.ine.add.PTCONT.3477886",
      "street": "R CARVALHO ARAÚJO",
      "house": "8",
      "postcode": "7440-034",
      "city": "ALTER DO CHÃO",
      "lon": "-7.654544355291821",
      "lat": "39.1989974503595"
    },
    {
      "id": "pt.ine.add.PTCONT.3480367",
      "street": "AZ DO TELHEIRO",
      "house": "19",
      "postcode": "7440-080",
      "city": "ALTER DO CHÃO",
      "lon": "-7.651768062060557",
      "lat": "39.200400171864885"
    },
    {
      "id": "pt.ine.add.PTCONT.3484022",
      "street": "AZ DO TELHEIRO",
      "house": "1",
      "postcode": "7440-018",
      "city": "ALTER DO CHÃO",
      "lon": "-7.65036776710125",
      "lat": "39.20202471323249"
    },
    {
      "id": "pt.ine.add.PTCONT.3488453",
      "street": "AZ DO TELHEIRO",
      "house": "5",
      "postcode": "7440-018",
      "city": "ALTER DO CHÃO",
      "lon": "-7.650474974908523",
      "lat": "39.201583796025126"
    },
    {
      "id": "pt.ine.add.PTCONT.3490996",
      "street": "AZ DO TELHEIRO",
      "house": "13",
      "postcode": "7440-080",
      "city": "ALTER DO CHÃO",
      "lon": "-7.651297289888164",
      "lat": "39.20084368036771"
    },
    {
      "id": "pt.ine.add.PTCONT.3495759",
      "street": "AZ TELHEIRO",
      "house": "17",
      "postcode": "7440-018",
      "city": "ALTER DO CHÃO",
      "lon": "-7.651651070996219",
      "lat": "39.20057983600999"
    },
    {
      "id": "pt.ine.add.PTCONT.3496410",
      "street": "R CARVALHO ARAÚJO",
      "house": "2",
      "postcode": "7440-034",
      "city": "ALTER DO CHÃO",
      "lon": "-7.654453275994801",
      "lat": "39.19877189169342"
    },
    {
      "id": "pt.ine.add.PTCONT.3501493",
      "street": "R CARVALHO ARAÚJO",
      "house": "6",
      "postcode": "7440-034",
      "city": "ALTER DO CHÃO",
      "lon": "-7.654521814585558",
      "lat": "39.1989072839645"
    },
    {
      "id": "pt.ine.add.PTCONT.3502076",
      "street": "AZ TRAVANQUE",
      "house": "",
      "postcode": "7440-151",
      "city": "ALTER DO CHÃO",
      "lon": "-7.64954121559195",
      "lat": "39.19931907251106"
    },
    {
      "id": "pt.ine.add.PTCONT.3511487",
      "street": "R TELHEIRO",
      "house": "11",
      "postcode": "7440-080",
      "city": "ALTER DO CHÃO",
      "lon": "-7.651024617248207",
      "lat": "39.200972905360345"
    },
    {
      "id": "pt.ine.add.PTCONT.3512795",
      "street": "R CARVALHO ARAÚJO",
      "house": "",
      "postcode": "7440-034",
      "city": "ALTER DO CHÃO",
      "lon": "-7.654175944155767",
      "lat": "39.19869869293854"
    },
    {
      "id": "pt.ine.add.PTCONT.3531003",
      "street": "R DOS PELAMES - QUINTA DO ZT",
      "house": "",
      "postcode": "7440-151",
      "city": "ALTER DO CHÃO",
      "lon": "-7.646431682215017",
      "lat": "39.20370172347815"
    },
    {
      "id": "pt.ine.add.PTCONT.3533732",
      "street": "R DOS PELAMES - QUINTA STA JOANA",
      "house": "",
      "postcode": "7440-151",
      "city": "ALTER DO CHÃO",
      "lon": "-7.646943797485838",
      "lat": "39.20342656070697"
    }
  ]
}