{
  "data": {
    "distrito": "Setúbal",
    "concelho": "Seixal",
    "freguesia": "Amora",
    "OBJECTID": 1761,
    "BGRI2021": "15100201505",
    "DT21": "15",
    "DTMN21": "1510",
    "DTMNFR21": "151002",
    "DTMNFRSEC21": "151002015",
    "SECNUM21": "015",
    "SSNUM21": "05",
    "SECSSNUM21": "01505",
    "OBJECTID_1": 168286,
    "DT": "15",
    "CC": "10",
    "fr": "02",
    "SEC": "015",
    "SS": "05"
  },
  "addresses": [
    {
      "id": "pt.ine.add.PTCONT.4823650",
      "street": "R FELIX LACERDA",
      "house": "17",
      "postcode": "2845-369",
      "city": "AMORA",
      "lon": "-9.118468896470572",
      "lat": "38.61989378354178"
    },
    {
      "id": "pt.ine.add.PTCONT.4823651",
      "street": "R FELIX LACERDA",
      "house": "11",
      "postcode": "2845-369",
      "city": "AMORA",
      "lon": "-9.118468896470572",
      "lat": "38.61989378354178"
    },
    {
      "id": "pt.ine.add.PTCONT.4823652",
      "street": "R FELIX LACERDA",
      "house": "11",
      "postcode": "2845-369",
      "city": "AMORA",
      "lon": "-9.118468896470572",
      "lat": "38.61989378354178"
    },
    {
      "id": "pt.ine.add.PTCONT.4823653",
      "street": "R FELIX LACERDA",
      "house": "17",
      "postcode": "2845-369",
      "city": "AMORA",
      "lon": "-9.118468896470572",
      "lat": "38.61989378354178"
    },
    {
      "id": "pt.ine.add.PTCONT.4823654",
      "street": "R FELIX LACERDA",
      "house": "17",
      "postcode": "2845-369",
      "city": "AMORA",
      "lon": "-9.118468896470572",
      "lat": "38.61989378354178"
    },
    {
      "id": "pt.ine.add.PTCONT.4823655",
      "street": "R FELIX LACERDA",
      "house": "11",
      "postcode": "2845-369",
      "city": "AMORA",
      "lon": "-9.118468896470572",
      "lat": "38.61989378354178"
    },
    {
      "id": "pt.ine.add.PTCONT.4824673",
      "street": "R FELIX LACERDA",
      "house": "17",
      "postcode": "2845-369",
      "city": "AMORA",
      "lon": "-9.118468896470572",
      "lat": "38.61989378354178"
    },
    {
      "id": "pt.ine.add.PTCONT.4824805",
      "street": "R FELIX LACERDA",
      "house": "17",
      "postcode": "2845-369",
      "city": "AMORA",
      "lon": "-9.118468896470572",
      "lat": "38.61989378354178"
    },
    {
      "id": "pt.ine.add.PTCONT.4827113",
      "street": "R FÉLIX LACERDA",
      "house": "9",
      "postcode": "2845-369",
      "city": "AMORA",
      "lon": "-9.118435686099977",
      "lat": "38.61998414365871"
    },
    {
      "id": "pt.ine.add.PTCONT.4827114",
      "street": "R FÉLIX LACERDA",
      "house": "9",
      "postcode": "2845-369",
      "city": "AMORA",
      "lon": "-9.118435686099977",
      "lat": "38.61998414365871"
    },
    {
      "id": "pt.ine.add.PTCONT.4892992",
      "street": "R FRANCISCO ZAMBUJAL",
      "house": "2",
      "postcode": "2845-111",
      "city": "AMORA",
      "lon": "-9.119934134422781",
      "lat": "38.62040390074414"
    },
    {
      "id": "pt.ine.add.PTCONT.4892993",
      "street": "R FRANCISCO ZAMBUJAL",
      "house": "2",
      "postcode": "2845-111",
      "city": "AMORA",
      "lon": "-9.119934134422781",
      "lat": "38.62040390074414"
    },
    {
      "id": "pt.ine.add.PTCONT.4892994",
      "street": "R FRANCISCO ZAMBUJAL",
      "house": "2",
      "postcode": "2845-111",
      "city": "AMORA",
      "lon": "-9.119934134422781",
      "lat": "38.62040390074414"
    },
    {
      "id": "pt.ine.add.PTCONT.4892995",
      "street": "R FRANCISCO ZAMBUJAL",
      "house": "2",
      "postcode": "2845-111",
      "city": "AMORA",
      "lon": "-9.119934134422781",
      "lat": "38.62040390074414"
    },
    {
      "id": "pt.ine.add.PTCONT.4892996",
      "street": "R FRANCISCO ZAMBUJAL",
      "house": "2",
      "postcode": "2845-111",
      "city": "AMORA",
      "lon": "-9.119934134422781",
      "lat": "38.62040390074414"
    },
    {
      "id": "pt.ine.add.PTCONT.4895844",
      "street": "R FRANCISCO ZAMBUJAL",
      "house": "2",
      "postcode": "2845-111",
      "city": "AMORA",
      "lon": "-9.119934134422781",
      "lat": "38.62040390074414"
    },
    {
      "id": "pt.ine.add.PTCONT.4977362",
      "street": "R FÉLIX LACERDA",
      "house": "7",
      "postcode": "2845-369",
      "city": "AMORA",
      "lon": "-9.118413463646162",
      "lat": "38.6200383790614"
    },
    {
      "id": "pt.ine.add.PTCONT.4977363",
      "street": "R FÉLIX LACERDA",
      "house": "7",
      "postcode": "2845-369",
      "city": "AMORA",
      "lon": "-9.118413463646162",
      "lat": "38.6200383790614"
    },
    {
      "id": "pt.ine.add.PTCONT.5035142",
      "street": "AV 1 DE MAIO",
      "house": "8",
      "postcode": "2845-602",
      "city": "AMORA",
      "lon": "-9.118370251017502",
      "lat": "38.620236919901096"
    }
  ]
}