{
  "data": {
    "distrito": "Bragança",
    "concelho": "Miranda do Douro",
    "freguesia": "União das freguesias de Silva e Águas Vivas",
    "OBJECTID": 19,
    "BGRI2021": "04062100122",
    "DT21": "04",
    "DTMN21": "0406",
    "DTMNFR21": "040621",
    "DTMNFRSEC21": "040621001",
    "SECNUM21": "001",
    "SSNUM21": "22",
    "SECSSNUM21": "00122",
    "OBJECTID_1": 36314,
    "DT": "04",
    "CC": "06",
    "fr": "21",
    "SEC": "001",
    "SS": "22"
  },
  "addresses": [
    {
      "id": "pt.ine.add.PTCONT.861984",
      "street": "R DO TOURAL",
      "house": "5",
      "postcode": "5225-163",
      "city": "SILVA MDR",
      "lon": "-6.445073964086159",
      "lat": "41.50964819790383"
    },
    {
      "id": "pt.ine.add.PTCONT.864336",
      "street": "LG DO TOURAL",
      "house": "9",
      "postcode": "5225-163",
      "city": "SILVA MDR",
      "lon": "-6.445007971609796",
      "lat": "41.50942214518866"
    },
    {
      "id": "pt.ine.add.PTCONT.865087",
      "street": "R DO VALE",
      "house": "1",
      "postcode": "5225-163",
      "city": "SILVA MDR",
      "lon": "-6.445175175102089",
      "lat": "41.50990177766103"
    },
    {
      "id": "pt.ine.add.PTCONT.884093",
      "street": "LG DA IGREJA",
      "house": "2",
      "postcode": "5225-163",
      "city": "SILVA MDR",
      "lon": "-6.445377316873784",
      "lat": "41.509958765116274"
    },
    {
      "id": "pt.ine.add.PTCONT.895831",
      "street": "R DO TOURAL",
      "house": "7",
      "postcode": "5225-163",
      "city": "SILVA MDR",
      "lon": "-6.445005165288961",
      "lat": "41.50953014423414"
    },
    {
      "id": "pt.ine.add.PTCONT.910527",
      "street": "R DO CHAPICO",
      "house": "2",
      "postcode": "5225-163",
      "city": "SILVA MDR",
      "lon": "-6.445196969441323",
      "lat": "41.50952395675164"
    },
    {
      "id": "pt.ine.add.PTCONT.919169",
      "street": "R DO CHAPICO",
      "house": "",
      "postcode": "5225-163",
      "city": "SILVA MDR",
      "lon": "-6.4456667782637735",
      "lat": "41.50988198345501"
    },
    {
      "id": "pt.ine.add.PTCONT.927360",
      "street": "R DO CHAPICO",
      "house": "6",
      "postcode": "5225-163",
      "city": "SILVA MDR",
      "lon": "-6.44552216454782",
      "lat": "41.509915874417416"
    },
    {
      "id": "pt.ine.add.PTCONT.938800",
      "street": "R DO CHAPICO",
      "house": "3",
      "postcode": "5225-163",
      "city": "SILVA MDR",
      "lon": "-6.445781783602218",
      "lat": "41.50960456724999"
    }
  ]
}