{
  "data": {
    "distrito": "Vila Real",
    "concelho": "Valpaços",
    "freguesia": "São Pedro de Veiga de Lila",
    "OBJECTID": 914,
    "BGRI2021": "17122300119",
    "DT21": "17",
    "DTMN21": "1712",
    "DTMNFR21": "171223",
    "DTMNFRSEC21": "171223001",
    "SECNUM21": "001",
    "SSNUM21": "19",
    "SECSSNUM21": "00119",
    "OBJECTID_1": 186651,
    "DT": "17",
    "CC": "12",
    "fr": "23",
    "SEC": "001",
    "SS": "19"
  },
  "addresses": [
    {
      "id": "pt.ine.add.PTCONT.5292449",
      "street": "R CERAMUNHEIRO BAIXO",
      "house": "30",
      "postcode": "5430-252",
      "city": "S PEDRO DE VEIGA DE LILA",
      "lon": "-7.330075476181014",
      "lat": "41.49751725888092"
    },
    {
      "id": "pt.ine.add.PTCONT.5294908",
      "street": "BR POCO CRUZ",
      "house": "24",
      "postcode": "5430-252",
      "city": "S PEDRO DE VEIGA DE LILA",
      "lon": "-7.329875271840762",
      "lat": "41.4991815535061"
    },
    {
      "id": "pt.ine.add.PTCONT.5318725",
      "street": "R DO SERAMUNHEIRO DE BAIXO",
      "house": "",
      "postcode": "5430-252",
      "city": "S PEDRO DE VEIGA DE LILA",
      "lon": "-7.329832862044524",
      "lat": "41.497767669504064"
    },
    {
      "id": "pt.ine.add.PTCONT.5321159",
      "street": "R CERAMUNHEIRO CIMA",
      "house": "33",
      "postcode": "5430-252",
      "city": "S PEDRO DE VEIGA DE LILA",
      "lon": "-7.329619537476181",
      "lat": "41.49758610447022"
    },
    {
      "id": "pt.ine.add.PTCONT.5333227",
      "street": "R DO SERAMUNHEIRO DE BAIXO",
      "house": "",
      "postcode": "5430-252",
      "city": "S PEDRO DE VEIGA DE LILA",
      "lon": "-7.329980343850715",
      "lat": "41.49746257213247"
    },
    {
      "id": "pt.ine.add.PTCONT.5341248",
      "street": "R DO SERAMUNHEIRO DE BAIXO",
      "house": "",
      "postcode": "5430-252",
      "city": "S PEDRO DE VEIGA DE LILA",
      "lon": "-7.329602554925934",
      "lat": "41.49799115434887"
    },
    {
      "id": "pt.ine.add.PTCONT.5353396",
      "street": "R DO SERAMUNHEIRO DE BAIXO",
      "house": "",
      "postcode": "5430-252",
      "city": "S PEDRO DE VEIGA DE LILA",
      "lon": "-7.330049301916123",
      "lat": "41.49769715103048"
    },
    {
      "id": "pt.ine.add.PTCONT.5378129",
      "street": "LG DA IGREJA",
      "house": "",
      "postcode": "5430-252",
      "city": "S PEDRO DE VEIGA DE LILA",
      "lon": "-7.330081815256887",
      "lat": "41.49700408962491"
    },
    {
      "id": "pt.ine.add.PTCONT.5416846",
      "street": "R CERAMUNHEIRO CIMA",
      "house": "23",
      "postcode": "5430-252",
      "city": "S PEDRO DE VEIGA DE LILA",
      "lon": "-7.329764015947936",
      "lat": "41.49752408751716"
    }
  ]
}