{
  "data": {
    "distrito": "Leiria",
    "concelho": "Peniche",
    "freguesia": "Atouguia da Baleia",
    "OBJECTID": 244,
    "BGRI2021": "10140200717",
    "DT21": "10",
    "DTMN21": "1014",
    "DTMNFR21": "101402",
    "DTMNFRSEC21": "101402007",
    "SECNUM21": "007",
    "SSNUM21": "17",
    "SECSSNUM21": "00717",
    "OBJECTID_1": 94261,
    "DT": "10",
    "CC": "14",
    "fr": "02",
    "SEC": "007",
    "SS": "17"
  },
  "addresses": [
    {
      "id": "pt.ine.add.PTCONT.2005144",
      "street": "R 24 DE JANEIRO",
      "house": "3",
      "postcode": "2525-313",
      "city": "ATOUGUIA DA BALEIA",
      "lon": "-9.293863078140173",
      "lat": "39.35007231219841"
    },
    {
      "id": "pt.ine.add.PTCONT.2016275",
      "street": "R 24 DE JANEIRO",
      "house": "6",
      "postcode": "2525-313",
      "city": "ATOUGUIA DA BALEIA",
      "lon": "-9.294585187055144",
      "lat": "39.35024524411063"
    },
    {
      "id": "pt.ine.add.PTCONT.2046850",
      "street": "R 24 DE JANEIRO",
      "house": "5",
      "postcode": "2525-313",
      "city": "ATOUGUIA DA BALEIA",
      "lon": "-9.294060556175678",
      "lat": "39.350088355964544"
    },
    {
      "id": "pt.ine.add.PTCONT.2075069",
      "street": "R 24 DE JANEIRO",
      "house": "4",
      "postcode": "2525-313",
      "city": "ATOUGUIA DA BALEIA",
      "lon": "-9.294064282120038",
      "lat": "39.350313489874175"
    },
    {
      "id": "pt.ine.add.PTCONT.2156318",
      "street": "R MENDO FROIS OSÓRIO",
      "house": "73",
      "postcode": "2525-328",
      "city": "ATOUGUIA DA BALEIA",
      "lon": "-9.294647207354908",
      "lat": "39.35048780983478"
    },
    {
      "id": "pt.ine.add.PTCONT.2156319",
      "street": "R 24 DE JANEIRO",
      "house": "",
      "postcode": "2525-313",
      "city": "ATOUGUIA DA BALEIA",
      "lon": "-9.293948740579248",
      "lat": "39.3503416630219"
    },
    {
      "id": "pt.ine.add.PTCONT.2193305",
      "street": "R PARAISO",
      "house": "20",
      "postcode": "2525-332",
      "city": "ATOUGUIA DA BALEIA",
      "lon": "-9.294193156508564",
      "lat": "39.34898819805207"
    },
    {
      "id": "pt.ine.add.PTCONT.2209543",
      "street": "R 24 DE JANEIRO O CASALINHO",
      "house": "",
      "postcode": "2525-313",
      "city": "ATOUGUIA DA BALEIA",
      "lon": "-9.295278803696021",
      "lat": "39.34869814897409"
    },
    {
      "id": "pt.ine.add.PTCONT.2220097",
      "street": "R MENDO FROIS OSÓRIO",
      "house": "77",
      "postcode": "2525-328",
      "city": "ATOUGUIA DA BALEIA",
      "lon": "-9.294926624683365",
      "lat": "39.350548068443445"
    }
  ]
}