{
  "data": {
    "distrito": "Coimbra",
    "concelho": "Miranda do Corvo",
    "freguesia": "União das freguesias de Semide e Rio Vide",
    "OBJECTID": 364,
    "BGRI2021": "06090600347",
    "DT21": "06",
    "DTMN21": "0609",
    "DTMNFR21": "060906",
    "DTMNFRSEC21": "060906003",
    "SECNUM21": "003",
    "SSNUM21": "47",
    "SECSSNUM21": "00347",
    "OBJECTID_1": 53297,
    "DT": "06",
    "CC": "09",
    "fr": "06",
    "SEC": "003",
    "SS": "47"
  },
  "addresses": [
    {
      "id": "pt.ine.add.PTCONT.1121691",
      "street": "R CABEDO",
      "house": "4",
      "postcode": "3220-302",
      "city": "RIO VIDE",
      "lon": "-8.327757102576363",
      "lat": "40.15981351596196"
    },
    {
      "id": "pt.ine.add.PTCONT.1152617",
      "street": "R LOMBA DA LATA",
      "house": "63",
      "postcode": "3220-416",
      "city": "SEMIDE",
      "lon": "-8.331825674885714",
      "lat": "40.162310255980856"
    },
    {
      "id": "pt.ine.add.PTCONT.1205614",
      "street": "R CABEDO",
      "house": "8",
      "postcode": "3220-302",
      "city": "RIO VIDE",
      "lon": "-8.327346818979365",
      "lat": "40.16000332969666"
    },
    {
      "id": "pt.ine.add.PTCONT.1220389",
      "street": "R VALE DE ZOTE",
      "house": "69",
      "postcode": "3220-444",
      "city": "SEMIDE",
      "lon": "-8.330695464611704",
      "lat": "40.161159430113734"
    },
    {
      "id": "pt.ine.add.PTCONT.1284050",
      "street": "VACELOS",
      "house": "39",
      "postcode": "3220-412",
      "city": "SEMIDE",
      "lon": "-8.32822594375534",
      "lat": "40.15957857240272"
    },
    {
      "id": "pt.ine.add.PTCONT.1284593",
      "street": "R VALE ZOTE",
      "house": "134",
      "postcode": "3220-444",
      "city": "SEMIDE",
      "lon": "-8.33089595167622",
      "lat": "40.16148330160174"
    },
    {
      "id": "pt.ine.add.PTCONT.1320236",
      "street": "R PRINCIPAL",
      "house": "2",
      "postcode": "3220-412",
      "city": "SEMIDE",
      "lon": "-8.327732624162413",
      "lat": "40.1594623254009"
    },
    {
      "id": "pt.ine.add.PTCONT.1324293",
      "street": "R VALE DE ZOTE",
      "house": "",
      "postcode": "3220-444",
      "city": "SEMIDE",
      "lon": "-8.330754520293889",
      "lat": "40.161285412462824"
    },
    {
      "id": "pt.ine.add.PTCONT.1336075",
      "street": "R CABEÇO",
      "house": "",
      "postcode": "3220-437",
      "city": "",
      "lon": "-8.32801561713357",
      "lat": "40.15991214644886"
    },
    {
      "id": "pt.ine.add.PTCONT.1340842",
      "street": "R VALE DE ZOTE",
      "house": "135",
      "postcode": "3220-444",
      "city": "SEMIDE",
      "lon": "-8.331049017371413",
      "lat": "40.16164514692131"
    },
    {
      "id": "pt.ine.add.PTCONT.1362018",
      "street": "BC LOMBA",
      "house": "43",
      "postcode": "3220-444",
      "city": "SEMIDE",
      "lon": "-8.331790250227003",
      "lat": "40.16223826927747"
    }
  ]
}