{
  "data": {
    "distrito": "Aveiro",
    "concelho": "Aveiro",
    "freguesia": "União das freguesias de Glória e Vera Cruz",
    "OBJECTID": 125,
    "BGRI2021": "01051701422",
    "DT21": "01",
    "DTMN21": "0105",
    "DTMNFR21": "010517",
    "DTMNFRSEC21": "010517014",
    "SECNUM21": "014",
    "SSNUM21": "22",
    "SECSSNUM21": "01422",
    "OBJECTID_1": 3345,
    "DT": "01",
    "CC": "05",
    "fr": "17",
    "SEC": "014",
    "SS": "22"
  },
  "addresses": [
    {
      "id": "pt.ine.add.PTCONT.295557",
      "street": "R ANTÓNIA RODRIGUES",
      "house": "10",
      "postcode": "3800-102",
      "city": "AVEIRO",
      "lon": "-8.654912613227076",
      "lat": "40.64332875954478"
    },
    {
      "id": "pt.ine.add.PTCONT.307150",
      "street": "TV ARCO",
      "house": "7",
      "postcode": "3800-108",
      "city": "AVEIRO",
      "lon": "-8.654563597241975",
      "lat": "40.643301667339706"
    },
    {
      "id": "pt.ine.add.PTCONT.308565",
      "street": "TV ARCO",
      "house": "15",
      "postcode": "3800-108",
      "city": "AVEIRO",
      "lon": "-8.6547637611274",
      "lat": "40.64332307082875"
    },
    {
      "id": "pt.ine.add.PTCONT.308566",
      "street": "TV ARCO",
      "house": "15",
      "postcode": "3800-108",
      "city": "AVEIRO",
      "lon": "-8.6547637611274",
      "lat": "40.64332307082875"
    },
    {
      "id": "pt.ine.add.PTCONT.308567",
      "street": "TV ARCO",
      "house": "15",
      "postcode": "3800-108",
      "city": "AVEIRO",
      "lon": "-8.6547637611274",
      "lat": "40.64332307082875"
    },
    {
      "id": "pt.ine.add.PTCONT.308568",
      "street": "TV ARCO",
      "house": "15",
      "postcode": "3800-108",
      "city": "AVEIRO",
      "lon": "-8.6547637611274",
      "lat": "40.64332307082875"
    },
    {
      "id": "pt.ine.add.PTCONT.319251",
      "street": "TV ARCO",
      "house": "13",
      "postcode": "3800-108",
      "city": "AVEIRO",
      "lon": "-8.654696128162966",
      "lat": "40.64331469898056"
    },
    {
      "id": "pt.ine.add.PTCONT.319252",
      "street": "R SALINEIRAS",
      "house": "16-18",
      "postcode": "3800-250",
      "city": "AVEIRO",
      "lon": "-8.654509645935205",
      "lat": "40.64321185957873"
    },
    {
      "id": "pt.ine.add.PTCONT.319253",
      "street": "R SALINEIRAS",
      "house": "16-18",
      "postcode": "3800-250",
      "city": "AVEIRO",
      "lon": "-8.654509645935205",
      "lat": "40.64321185957873"
    },
    {
      "id": "pt.ine.add.PTCONT.51110",
      "street": "TV ARCO",
      "house": "11",
      "postcode": "3800-108",
      "city": "AVEIRO",
      "lon": "-8.654613217034472",
      "lat": "40.64330838442484"
    },
    {
      "id": "pt.ine.add.PTCONT.114638",
      "street": "TV ARCO",
      "house": "5",
      "postcode": "3800-108",
      "city": "AVEIRO",
      "lon": "-8.654510437545499",
      "lat": "40.64329976145199"
    },
    {
      "id": "pt.ine.add.PTCONT.147529",
      "street": "R ARCO",
      "house": "1",
      "postcode": "3800-107",
      "city": "AVEIRO",
      "lon": "-8.654501206917647",
      "lat": "40.64325692336782"
    },
    {
      "id": "pt.ine.add.PTCONT.268768",
      "street": "R ANTÓNIA RODRIGUES",
      "house": "16",
      "postcode": "3800-102",
      "city": "AVEIRO",
      "lon": "-8.654914253671356",
      "lat": "40.64324687922738"
    },
    {
      "id": "pt.ine.add.PTCONT.268769",
      "street": "R ANTÓNIA RODRIGUES",
      "house": "16",
      "postcode": "3800-102",
      "city": "AVEIRO",
      "lon": "-8.654914253671356",
      "lat": "40.64324687922738"
    },
    {
      "id": "pt.ine.add.PTCONT.270414",
      "street": "R ANTÓNIA RODRIGUES",
      "house": "16",
      "postcode": "3800-102",
      "city": "AVEIRO",
      "lon": "-8.654914253671356",
      "lat": "40.64324687922738"
    }
  ]
}