{
  "data": {
    "distrito": "Braga",
    "concelho": "Braga",
    "freguesia": "União das freguesias de Nogueiró e Tenões",
    "OBJECTID": 550,
    "BGRI2021": "03037800217",
    "DT21": "03",
    "DTMN21": "0303",
    "DTMNFR21": "030378",
    "DTMNFRSEC21": "030378002",
    "SECNUM21": "002",
    "SSNUM21": "17",
    "SECSSNUM21": "00217",
    "OBJECTID_1": 22864,
    "DT": "03",
    "CC": "03",
    "fr": "78",
    "SEC": "002",
    "SS": "17"
  },
  "addresses": [
    {
      "id": "pt.ine.add.PTCONT.505939",
      "street": "CARREIRO",
      "house": "",
      "postcode": "4719-005",
      "city": "BRAGA",
      "lon": "-8.389814564368521",
      "lat": "41.55757744541412"
    },
    {
      "id": "pt.ine.add.PTCONT.545884",
      "street": "R LUSIADAS",
      "house": "91",
      "postcode": "4715-262",
      "city": "BRAGA",
      "lon": "-8.391566582011382",
      "lat": "41.558050719507825"
    },
    {
      "id": "pt.ine.add.PTCONT.610520",
      "street": "R BAIXETES",
      "house": "25",
      "postcode": "4715-055",
      "city": "BRAGA",
      "lon": "-8.390415526373033",
      "lat": "41.55798127095817"
    },
    {
      "id": "pt.ine.add.PTCONT.654184",
      "street": "R BAIXETES",
      "house": "31",
      "postcode": "4715-055",
      "city": "BRAGA",
      "lon": "-8.391087918070639",
      "lat": "41.55825888061705"
    },
    {
      "id": "pt.ine.add.PTCONT.654185",
      "street": "R BAIXETES",
      "house": "31",
      "postcode": "4715-055",
      "city": "BRAGA",
      "lon": "-8.391087918070639",
      "lat": "41.55825888061705"
    },
    {
      "id": "pt.ine.add.PTCONT.677986",
      "street": "R BAIXETES",
      "house": "29",
      "postcode": "4715-055",
      "city": "BRAGA",
      "lon": "-8.390776107165522",
      "lat": "41.558223564753106"
    },
    {
      "id": "pt.ine.add.PTCONT.724451",
      "street": "CARDEIRO",
      "house": "",
      "postcode": "4715-061",
      "city": "BRAGA",
      "lon": "-8.38980275539873",
      "lat": "41.557622490525226"
    },
    {
      "id": "pt.ine.add.PTCONT.728500",
      "street": "R LUSIADAS",
      "house": "97",
      "postcode": "4715-262",
      "city": "BRAGA",
      "lon": "-8.390630473457186",
      "lat": "41.557773703543596"
    },
    {
      "id": "pt.ine.add.PTCONT.758305",
      "street": "R BAIXETES",
      "house": "23",
      "postcode": "4715-055",
      "city": "BRAGA",
      "lon": "-8.390283738840429",
      "lat": "41.55799957327774"
    }
  ]
}