{
  "data": {
    "distrito": "Santarém",
    "concelho": "Santarém",
    "freguesia": "União das freguesias de Azoia de Cima e Tremês",
    "OBJECTID": 73,
    "BGRI2021": "14163000334",
    "DT21": "14",
    "DTMN21": "1416",
    "DTMNFR21": "141630",
    "DTMNFRSEC21": "141630003",
    "SECNUM21": "003",
    "SSNUM21": "34",
    "SECSSNUM21": "00334",
    "OBJECTID_1": 153969,
    "DT": "14",
    "CC": "16",
    "fr": "30",
    "SEC": "003",
    "SS": "34"
  },
  "addresses": [
    {
      "id": "pt.ine.add.PTCONT.4433680",
      "street": "TV FERREIRO",
      "house": "",
      "postcode": "2025-510",
      "city": "TREMÊS",
      "lon": "-8.71309192886245",
      "lat": "39.37469083830768"
    },
    {
      "id": "pt.ine.add.PTCONT.4470822",
      "street": "R NSA SRA DE FÁTIMA",
      "house": "",
      "postcode": "2025-510",
      "city": "TREMÊS",
      "lon": "-8.712939726866649",
      "lat": "39.3745294693601"
    },
    {
      "id": "pt.ine.add.PTCONT.4498580",
      "street": "R MOLEIRO",
      "house": "",
      "postcode": "2025-510",
      "city": "TREMÊS",
      "lon": "-8.713127264620265",
      "lat": "39.374753711745626"
    },
    {
      "id": "pt.ine.add.PTCONT.4504575",
      "street": "TV MOLEIRO",
      "house": "",
      "postcode": "2025-510",
      "city": "TREMÊS",
      "lon": "-8.713195625656988",
      "lat": "39.37460025060765"
    },
    {
      "id": "pt.ine.add.PTCONT.4546897",
      "street": "R NSA SRA DE FÁTIMA",
      "house": "",
      "postcode": "2025-510",
      "city": "TREMÊS",
      "lon": "-8.713556712929638",
      "lat": "39.3747605774408"
    },
    {
      "id": "pt.ine.add.PTCONT.4578676",
      "street": "R MOLEIRO",
      "house": "",
      "postcode": "2025-510",
      "city": "TREMÊS",
      "lon": "-8.713348052065346",
      "lat": "39.37478863933905"
    },
    {
      "id": "pt.ine.add.PTCONT.4578677",
      "street": "R MOLEIRO",
      "house": "",
      "postcode": "2025-510",
      "city": "TREMÊS",
      "lon": "-8.713011143145675",
      "lat": "39.374745283416644"
    },
    {
      "id": "pt.ine.add.PTCONT.4622507",
      "street": "TV MOLEIRO",
      "house": "",
      "postcode": "2025-510",
      "city": "TREMÊS",
      "lon": "-8.712848081472648",
      "lat": "39.37467403927775"
    }
  ]
}