{
  "data": {
    "distrito": "Aveiro",
    "concelho": "Santa Maria da Feira",
    "freguesia": "União das freguesias de Canedo, Vale e Vila Maior",
    "OBJECTID": 1950,
    "BGRI2021": "01093300209",
    "DT21": "01",
    "DTMN21": "0109",
    "DTMNFR21": "010933",
    "DTMNFRSEC21": "010933002",
    "SECNUM21": "002",
    "SSNUM21": "09",
    "SECSSNUM21": "00209",
    "OBJECTID_1": 5571,
    "DT": "01",
    "CC": "09",
    "fr": "33",
    "SEC": "002",
    "SS": "09"
  },
  "addresses": [
    {
      "id": "pt.ine.add.PTCONT.295866",
      "street": "TV S ROQUE",
      "house": "102",
      "postcode": "4525-099",
      "city": "CANEDO VFR",
      "lon": "-8.4788134263301",
      "lat": "41.043171715026766"
    },
    {
      "id": "pt.ine.add.PTCONT.324830",
      "street": "R MONTE DE BAIXO",
      "house": "93",
      "postcode": "4525-283",
      "city": "CANEDO VFR",
      "lon": "-8.479168004834582",
      "lat": "41.04274743724413"
    },
    {
      "id": "pt.ine.add.PTCONT.35554",
      "street": "R MONTE DE BAIXO",
      "house": "59",
      "postcode": "4525-283",
      "city": "CANEDO VFR",
      "lon": "-8.479226290965835",
      "lat": "41.04252214856375"
    },
    {
      "id": "pt.ine.add.PTCONT.43920",
      "street": "R MONTE DE BAIXO",
      "house": "41",
      "postcode": "4525-283",
      "city": "CANEDO VFR",
      "lon": "-8.479476045286692",
      "lat": "41.0425213982357"
    },
    {
      "id": "pt.ine.add.PTCONT.51515",
      "street": "R MONTE DE BAIXO",
      "house": "17",
      "postcode": "4525-283",
      "city": "CANEDO VFR",
      "lon": "-8.479690167649796",
      "lat": "41.0425297590707"
    },
    {
      "id": "pt.ine.add.PTCONT.134901",
      "street": "R PÓVOA",
      "house": "688",
      "postcode": "4525-077",
      "city": "CANEDO VFR",
      "lon": "-8.480059656531832",
      "lat": "41.04268172463086"
    },
    {
      "id": "pt.ine.add.PTCONT.134902",
      "street": "R PÓVOA",
      "house": "688",
      "postcode": "4525-077",
      "city": "CANEDO VFR",
      "lon": "-8.480059656531832",
      "lat": "41.04268172463086"
    },
    {
      "id": "pt.ine.add.PTCONT.223055",
      "street": "TV S ROQUE",
      "house": "9",
      "postcode": "4525-099",
      "city": "CANEDO VFR",
      "lon": "-8.477190560263715",
      "lat": "41.04214104874039"
    },
    {
      "id": "pt.ine.add.PTCONT.255433",
      "street": "TV S ROQUE",
      "house": "11",
      "postcode": "4525-099",
      "city": "CANEDO VFR",
      "lon": "-8.477404915765714",
      "lat": "41.04219443586229"
    },
    {
      "id": "pt.ine.add.PTCONT.271799",
      "street": "R DE S ROQUE",
      "house": "34",
      "postcode": "4525-099",
      "city": "CANEDO VFR",
      "lon": "-8.480026010500175",
      "lat": "41.043069021373654"
    }
  ]
}