{
  "data": {
    "distrito": "Setúbal",
    "concelho": "Santiago do Cacém",
    "freguesia": "Abela",
    "OBJECTID": 313,
    "BGRI2021": "15090100143",
    "DT21": "15",
    "DTMN21": "1509",
    "DTMNFR21": "150901",
    "DTMNFRSEC21": "150901001",
    "SECNUM21": "001",
    "SSNUM21": "43",
    "SECSSNUM21": "00143",
    "OBJECTID_1": 166403,
    "DT": "15",
    "CC": "09",
    "fr": "01",
    "SEC": "001",
    "SS": "43"
  },
  "addresses": [
    {
      "id": "pt.ine.add.PTCONT.4702276",
      "street": "MTE FIGUEIRA",
      "house": "",
      "postcode": "7540-033",
      "city": "ABELA",
      "lon": "-8.546110425737318",
      "lat": "37.99810594892858"
    },
    {
      "id": "pt.ine.add.PTCONT.4806316",
      "street": "MTE CORELA",
      "house": "",
      "postcode": "7540-033",
      "city": "ABELA",
      "lon": "-8.533406261477392",
      "lat": "38.00046525128899"
    },
    {
      "id": "pt.ine.add.PTCONT.4832927",
      "street": "MTE VALE PULGAS",
      "house": "",
      "postcode": "7540-011",
      "city": "ABELA",
      "lon": "-8.534604595487695",
      "lat": "38.00099271150455"
    },
    {
      "id": "pt.ine.add.PTCONT.4909909",
      "street": "",
      "house": "",
      "postcode": "7540-025",
      "city": "ABELA",
      "lon": "-8.533487209873055",
      "lat": "38.002789359322946"
    },
    {
      "id": "pt.ine.add.PTCONT.4915023",
      "street": "",
      "house": "",
      "postcode": "7540-033",
      "city": "ABELA",
      "lon": "-8.531924122569032",
      "lat": "37.99167726109244"
    },
    {
      "id": "pt.ine.add.PTCONT.4940064",
      "street": "MTE BOLSAS",
      "house": "",
      "postcode": "7540-033",
      "city": "ABELA",
      "lon": "-8.54283914303505",
      "lat": "37.99946877728652"
    },
    {
      "id": "pt.ine.add.PTCONT.5058007",
      "street": "",
      "house": "",
      "postcode": "7540-011",
      "city": "ABELA",
      "lon": "-8.551572659502465",
      "lat": "37.99864565278105"
    }
  ]
}