{
  "data": {
    "distrito": "Guarda",
    "concelho": "Pinhel",
    "freguesia": "Manigoto",
    "OBJECTID": 577,
    "BGRI2021": "09101400108",
    "DT21": "09",
    "DTMN21": "0910",
    "DTMNFR21": "091014",
    "DTMNFRSEC21": "091014001",
    "SECNUM21": "001",
    "SSNUM21": "08",
    "SECSSNUM21": "00108",
    "OBJECTID_1": 80233,
    "DT": "09",
    "CC": "10",
    "fr": "14",
    "SEC": "001",
    "SS": "08"
  },
  "addresses": [
    {
      "id": "pt.ine.add.PTCONT.1926228",
      "street": "R DOS PALÁCIOS",
      "house": "",
      "postcode": "6400-251",
      "city": "MANIGOTO",
      "lon": "-7.076810485472687",
      "lat": "40.706228020221836"
    },
    {
      "id": "pt.ine.add.PTCONT.1953496",
      "street": "R DAS REGADAS",
      "house": "",
      "postcode": "6400-251",
      "city": "MANIGOTO",
      "lon": "-7.077498261144392",
      "lat": "40.70613525845528"
    },
    {
      "id": "pt.ine.add.PTCONT.1959330",
      "street": "R DAS REGADAS",
      "house": "",
      "postcode": "6400-251",
      "city": "MANIGOTO",
      "lon": "-7.077885245532013",
      "lat": "40.70560750972428"
    },
    {
      "id": "pt.ine.add.PTCONT.1968154",
      "street": "R DE CHÃES",
      "house": "",
      "postcode": "6400-251",
      "city": "MANIGOTO",
      "lon": "-7.076325956677366",
      "lat": "40.70544016209714"
    },
    {
      "id": "pt.ine.add.PTCONT.1849042",
      "street": "R DE CHÃES",
      "house": "",
      "postcode": "6400-251",
      "city": "MANIGOTO",
      "lon": "-7.076526800670008",
      "lat": "40.70546001039947"
    },
    {
      "id": "pt.ine.add.PTCONT.1853561",
      "street": "R DOS PALÁCIOS",
      "house": "",
      "postcode": "6400-251",
      "city": "MANIGOTO",
      "lon": "-7.076915259523872",
      "lat": "40.70633703732447"
    },
    {
      "id": "pt.ine.add.PTCONT.1855332",
      "street": "R DE CHÃES",
      "house": "",
      "postcode": "6400-251",
      "city": "MANIGOTO",
      "lon": "-7.076295320054529",
      "lat": "40.70588111998606"
    },
    {
      "id": "pt.ine.add.PTCONT.1861365",
      "street": "R DAS REGADAS",
      "house": "",
      "postcode": "6400-251",
      "city": "MANIGOTO",
      "lon": "-7.077400909775152",
      "lat": "40.70630546056249"
    },
    {
      "id": "pt.ine.add.PTCONT.1876345",
      "street": "LG DA EIRA DO CABO",
      "house": "",
      "postcode": "6400-251",
      "city": "MANIGOTO",
      "lon": "-7.076704431212548",
      "lat": "40.706200035084784"
    },
    {
      "id": "pt.ine.add.PTCONT.1877296",
      "street": "R DAS REGADAS",
      "house": "",
      "postcode": "6400-251",
      "city": "MANIGOTO",
      "lon": "-7.077594901197981",
      "lat": "40.70601007407938"
    }
  ]
}