{
  "data": {
    "distrito": "Guarda",
    "concelho": "Pinhel",
    "freguesia": "Manigoto",
    "OBJECTID": 734,
    "BGRI2021": "09101400124",
    "DT21": "09",
    "DTMN21": "0910",
    "DTMNFR21": "091014",
    "DTMNFRSEC21": "091014001",
    "SECNUM21": "001",
    "SSNUM21": "24",
    "SECSSNUM21": "00124",
    "OBJECTID_1": 80142,
    "DT": "09",
    "CC": "10",
    "fr": "14",
    "SEC": "001",
    "SS": "24"
  },
  "addresses": [
    {
      "id": "pt.ine.add.PTCONT.1907158",
      "street": "R PRINCIPAL",
      "house": "",
      "postcode": "6400-251",
      "city": "MANIGOTO",
      "lon": "-7.075586373042515",
      "lat": "40.711799824786794"
    },
    {
      "id": "pt.ine.add.PTCONT.1915455",
      "street": "R PRINCIPAL",
      "house": "",
      "postcode": "6400-251",
      "city": "MANIGOTO",
      "lon": "-7.075881739963064",
      "lat": "40.71108214203515"
    },
    {
      "id": "pt.ine.add.PTCONT.1921386",
      "street": "R DO CALVÁRIO",
      "house": "",
      "postcode": "6400-251",
      "city": "MANIGOTO",
      "lon": "-7.075481301069273",
      "lat": "40.71096141050244"
    },
    {
      "id": "pt.ine.add.PTCONT.1938562",
      "street": "R PRINCIPAL",
      "house": "",
      "postcode": "6400-251",
      "city": "MANIGOTO",
      "lon": "-7.075718075252998",
      "lat": "40.71020717175043"
    },
    {
      "id": "pt.ine.add.PTCONT.1970693",
      "street": "R DO CALVÁRIO",
      "house": "",
      "postcode": "6400-251",
      "city": "MANIGOTO",
      "lon": "-7.075466192089068",
      "lat": "40.7111683837564"
    },
    {
      "id": "pt.ine.add.PTCONT.1858493",
      "street": "R DA CARRASCA",
      "house": "",
      "postcode": "6400-251",
      "city": "MANIGOTO",
      "lon": "-7.074039367767831",
      "lat": "40.71010173301729"
    },
    {
      "id": "pt.ine.add.PTCONT.1861363",
      "street": "R DA CARRASCA",
      "house": "",
      "postcode": "6400-251",
      "city": "MANIGOTO",
      "lon": "-7.074127175808619",
      "lat": "40.710534771760166"
    },
    {
      "id": "pt.ine.add.PTCONT.1877328",
      "street": "ESTR DE PÍNZIO",
      "house": "",
      "postcode": "6400-251",
      "city": "MANIGOTO",
      "lon": "-7.074125455679743",
      "lat": "40.711390217281306"
    },
    {
      "id": "pt.ine.add.PTCONT.1884232",
      "street": "R PRINCIPAL",
      "house": "",
      "postcode": "6400-251",
      "city": "MANIGOTO",
      "lon": "-7.07590241340191",
      "lat": "40.71127143336744"
    }
  ]
}