{
  "data": {
    "distrito": "Aveiro",
    "concelho": "Águeda",
    "freguesia": "União das freguesias do Préstimo e Macieira de Alcoba",
    "OBJECTID": 693,
    "BGRI2021": "01012700108",
    "DT21": "01",
    "DTMN21": "0101",
    "DTMNFR21": "010127",
    "DTMNFRSEC21": "010127001",
    "SECNUM21": "001",
    "SSNUM21": "08",
    "SECSSNUM21": "00108",
    "OBJECTID_1": 1022,
    "DT": "01",
    "CC": "01",
    "fr": "27",
    "SEC": "001",
    "SS": "08"
  },
  "addresses": [
    {
      "id": "pt.ine.add.PTCONT.297700",
      "street": "R AVELEIRAS",
      "house": "314",
      "postcode": "3750-674",
      "city": "PRÉSTIMO",
      "lon": "-8.366853495585692",
      "lat": "40.615639764083205"
    },
    {
      "id": "pt.ine.add.PTCONT.336877",
      "street": "R LOMBA",
      "house": "",
      "postcode": "3750-674",
      "city": "PRÉSTIMO",
      "lon": "-8.364502223338535",
      "lat": "40.615743556166045"
    },
    {
      "id": "pt.ine.add.PTCONT.350655",
      "street": "R ROCADAS",
      "house": "71",
      "postcode": "3750-674",
      "city": "PRÉSTIMO",
      "lon": "-8.36677166476502",
      "lat": "40.61928704508077"
    },
    {
      "id": "pt.ine.add.PTCONT.351480",
      "street": "R AVELEIRAS",
      "house": "176",
      "postcode": "3750-674",
      "city": "PRÉSTIMO",
      "lon": "-8.365659962924129",
      "lat": "40.61564217339933"
    },
    {
      "id": "pt.ine.add.PTCONT.34715",
      "street": "R VARZIELA",
      "house": "",
      "postcode": "3750-674",
      "city": "PRÉSTIMO",
      "lon": "-8.367697962587405",
      "lat": "40.61719595584462"
    },
    {
      "id": "pt.ine.add.PTCONT.80686",
      "street": "R ROCADAS",
      "house": "195",
      "postcode": "3750-674",
      "city": "PRÉSTIMO",
      "lon": "-8.368096772580852",
      "lat": "40.619716607157315"
    },
    {
      "id": "pt.ine.add.PTCONT.216818",
      "street": "R VARZIELA",
      "house": "213",
      "postcode": "3750-674",
      "city": "PRÉSTIMO",
      "lon": "-8.367639914654251",
      "lat": "40.617493246103955"
    },
    {
      "id": "pt.ine.add.PTCONT.248959",
      "street": "R VARZIELA",
      "house": "",
      "postcode": "3750-680",
      "city": "PRÉSTIMO",
      "lon": "-8.36689509945637",
      "lat": "40.61740470392025"
    },
    {
      "id": "pt.ine.add.PTCONT.270889",
      "street": "R ROCADAS",
      "house": "233",
      "postcode": "3750-674",
      "city": "PRÉSTIMO",
      "lon": "-8.368664947718873",
      "lat": "40.619976601101236"
    }
  ]
}