{
  "data": {
    "distrito": "Aveiro",
    "concelho": "Águeda",
    "freguesia": "União das freguesias do Préstimo e Macieira de Alcoba",
    "OBJECTID": 179,
    "BGRI2021": "01012700130",
    "DT21": "01",
    "DTMN21": "0101",
    "DTMNFR21": "010127",
    "DTMNFRSEC21": "010127001",
    "SECNUM21": "001",
    "SSNUM21": "30",
    "SECSSNUM21": "00130",
    "OBJECTID_1": 201,
    "DT": "01",
    "CC": "01",
    "fr": "27",
    "SEC": "001",
    "SS": "30"
  },
  "addresses": [
    {
      "id": "pt.ine.add.PTCONT.332161",
      "street": "R CRUZEIRO",
      "house": "",
      "postcode": "3750-682",
      "city": "PRÉSTIMO",
      "lon": "-8.297463741426128",
      "lat": "40.62572813423131"
    },
    {
      "id": "pt.ine.add.PTCONT.349702",
      "street": "R MALHADINHA",
      "house": "",
      "postcode": "3750-682",
      "city": "PRÉSTIMO",
      "lon": "-8.298098310065257",
      "lat": "40.62424136858391"
    },
    {
      "id": "pt.ine.add.PTCONT.10771",
      "street": "R CRUZEIRO",
      "house": "",
      "postcode": "3750-682",
      "city": "PRÉSTIMO",
      "lon": "-8.298111214668298",
      "lat": "40.62468260583572"
    },
    {
      "id": "pt.ine.add.PTCONT.13399",
      "street": "ESTR MUNICIPAL",
      "house": "",
      "postcode": "3750-561",
      "city": "MACIEIRA DE ALCOBA",
      "lon": "-8.273413883468399",
      "lat": "40.626615350936234"
    },
    {
      "id": "pt.ine.add.PTCONT.61621",
      "street": "R MALHADINHA",
      "house": "",
      "postcode": "3750-682",
      "city": "PRÉSTIMO",
      "lon": "-8.29784883367544",
      "lat": "40.62371942201471"
    },
    {
      "id": "pt.ine.add.PTCONT.168476",
      "street": "R FUNDO DO LUGAR",
      "house": "",
      "postcode": "3750-682",
      "city": "PRÉSTIMO",
      "lon": "-8.298820743111785",
      "lat": "40.624843683876705"
    },
    {
      "id": "pt.ine.add.PTCONT.189576",
      "street": "R MALHADINHA",
      "house": "",
      "postcode": "3750-682",
      "city": "PRÉSTIMO",
      "lon": "-8.298238804032364",
      "lat": "40.62370085465974"
    },
    {
      "id": "pt.ine.add.PTCONT.222252",
      "street": "R CORTINHAL",
      "house": "",
      "postcode": "3750-682",
      "city": "PRÉSTIMO",
      "lon": "-8.29833768030552",
      "lat": "40.6254567307395"
    },
    {
      "id": "pt.ine.add.PTCONT.227148",
      "street": "ESTR MUNICIPAL",
      "house": "3506",
      "postcode": "3750-561",
      "city": "MACIEIRA DE ALCOBA",
      "lon": "-8.27920261771948",
      "lat": "40.62539246908433"
    },
    {
      "id": "pt.ine.add.PTCONT.240658",
      "street": "LG CAPELA",
      "house": "17",
      "postcode": "3750-682",
      "city": "PRÉSTIMO",
      "lon": "-8.298738545227272",
      "lat": "40.62505992700321"
    },
    {
      "id": "pt.ine.add.PTCONT.262837",
      "street": "R CRUZEIRO",
      "house": "",
      "postcode": "3750-682",
      "city": "PRÉSTIMO",
      "lon": "-8.29844262951725",
      "lat": "40.62488024665818"
    },
    {
      "id": "pt.ine.add.PTCONT.284208",
      "street": "EM QUINTA DA FURRICA",
      "house": "",
      "postcode": "3750-561",
      "city": "MACIEIRA DE ALCOBA",
      "lon": "-8.277290855264921",
      "lat": "40.626745654133224"
    }
  ]
}