{
  "data": {
    "distrito": "Aveiro",
    "concelho": "Águeda",
    "freguesia": "União das freguesias do Préstimo e Macieira de Alcoba",
    "OBJECTID": 730,
    "BGRI2021": "01012700138",
    "DT21": "01",
    "DTMN21": "0101",
    "DTMNFR21": "010127",
    "DTMNFRSEC21": "010127001",
    "SECNUM21": "001",
    "SSNUM21": "38",
    "SECSSNUM21": "00138",
    "OBJECTID_1": 916,
    "DT": "01",
    "CC": "01",
    "fr": "27",
    "SEC": "001",
    "SS": "38"
  },
  "addresses": [
    {
      "id": "pt.ine.add.PTCONT.331626",
      "street": "R QUELHA DA COSTA",
      "house": "1",
      "postcode": "3750-690",
      "city": "PRÉSTIMO",
      "lon": "-8.34776409008845",
      "lat": "40.640053920095575"
    },
    {
      "id": "pt.ine.add.PTCONT.2728",
      "street": "R MARCO",
      "house": "172",
      "postcode": "3750-690",
      "city": "PRÉSTIMO",
      "lon": "-8.346058046213601",
      "lat": "40.64259654162864"
    },
    {
      "id": "pt.ine.add.PTCONT.91266",
      "street": "R BAIXO",
      "house": "52",
      "postcode": "3750-690",
      "city": "PRÉSTIMO",
      "lon": "-8.34744404621467",
      "lat": "40.63978435883882"
    },
    {
      "id": "pt.ine.add.PTCONT.105951",
      "street": "R CENTRAL",
      "house": "235",
      "postcode": "3750-690",
      "city": "PRÉSTIMO",
      "lon": "-8.34766804784152",
      "lat": "40.63959483387888"
    },
    {
      "id": "pt.ine.add.PTCONT.134067",
      "street": "R CENTRAL",
      "house": "53",
      "postcode": "3750-690",
      "city": "PRÉSTIMO",
      "lon": "-8.347496315997061",
      "lat": "40.641342159511055"
    },
    {
      "id": "pt.ine.add.PTCONT.162325",
      "street": "R CENTRAL",
      "house": "211",
      "postcode": "3750-690",
      "city": "PRÉSTIMO",
      "lon": "-8.347727760450695",
      "lat": "40.63978383191871"
    },
    {
      "id": "pt.ine.add.PTCONT.173892",
      "street": "R MARCO",
      "house": "158",
      "postcode": "3750-690",
      "city": "PRÉSTIMO",
      "lon": "-8.346567278233543",
      "lat": "40.6428747622291"
    },
    {
      "id": "pt.ine.add.PTCONT.227519",
      "street": "R CENTRAL",
      "house": "249",
      "postcode": "3750-690",
      "city": "PRÉSTIMO",
      "lon": "-8.347632237735045",
      "lat": "40.63948683811904"
    },
    {
      "id": "pt.ine.add.PTCONT.237683",
      "street": "R MARCO",
      "house": "3",
      "postcode": "3750-690",
      "city": "PRÉSTIMO",
      "lon": "-8.347615541953175",
      "lat": "40.64165711967453"
    },
    {
      "id": "pt.ine.add.PTCONT.276297",
      "street": "R BAIXO",
      "house": "24",
      "postcode": "3750-690",
      "city": "PRÉSTIMO",
      "lon": "-8.34741928020906",
      "lat": "40.6394332023724"
    }
  ]
}