{
  "data": {
    "distrito": "Beja",
    "concelho": "Odemira",
    "freguesia": "Vale de Santiago",
    "OBJECTID": 450,
    "BGRI2021": "02112200158",
    "DT21": "02",
    "DTMN21": "0211",
    "DTMNFR21": "021122",
    "DTMNFRSEC21": "021122001",
    "SECNUM21": "001",
    "SSNUM21": "58",
    "SECSSNUM21": "00158",
    "OBJECTID_1": 17675,
    "DT": "02",
    "CC": "11",
    "fr": "22",
    "SEC": "001",
    "SS": "58"
  },
  "addresses": [
    {
      "id": "pt.ine.add.PTCONT.455977",
      "street": "R DA LIBERDADE",
      "house": "5",
      "postcode": "7630-692",
      "city": "VALE DE SANTIAGO",
      "lon": "-8.413556534896578",
      "lat": "37.84870669262479"
    },
    {
      "id": "pt.ine.add.PTCONT.361068",
      "street": "R DA ESPERANÇA",
      "house": "3",
      "postcode": "7630-692",
      "city": "VALE DE SANTIAGO",
      "lon": "-8.413918440625762",
      "lat": "37.84826436466374"
    },
    {
      "id": "pt.ine.add.PTCONT.361973",
      "street": "R VALE DE SANTIAGO",
      "house": "8",
      "postcode": "7630-692",
      "city": "VALE DE SANTIAGO",
      "lon": "-8.414157072720025",
      "lat": "37.84827280488936"
    },
    {
      "id": "pt.ine.add.PTCONT.367631",
      "street": "R DA LIBERDADE",
      "house": "1",
      "postcode": "7630-692",
      "city": "VALE DE SANTIAGO",
      "lon": "-8.413829185689009",
      "lat": "37.84869703349114"
    },
    {
      "id": "pt.ine.add.PTCONT.375487",
      "street": "R VALE S TIAGO",
      "house": "10",
      "postcode": "7630-692",
      "city": "VALE DE SANTIAGO",
      "lon": "-8.414010941449312",
      "lat": "37.848687590578606"
    },
    {
      "id": "pt.ine.add.PTCONT.385346",
      "street": "R DA ESPERANÇA",
      "house": "7",
      "postcode": "7630-692",
      "city": "VALE DE SANTIAGO",
      "lon": "-8.41365715324568",
      "lat": "37.84827399693121"
    },
    {
      "id": "pt.ine.add.PTCONT.395025",
      "street": "R DA LIBERDADE",
      "house": "3",
      "postcode": "7630-692",
      "city": "VALE DE SANTIAGO",
      "lon": "-8.413692843232143",
      "lat": "37.84869735842738"
    },
    {
      "id": "pt.ine.add.PTCONT.399864",
      "street": "R DA ESPERANÇA",
      "house": "5",
      "postcode": "7630-692",
      "city": "VALE DE SANTIAGO",
      "lon": "-8.413804856729802",
      "lat": "37.8482736449579"
    },
    {
      "id": "pt.ine.add.PTCONT.450169",
      "street": "R DA ESPERANÇA",
      "house": "1",
      "postcode": "7630-692",
      "city": "VALE DE SANTIAGO",
      "lon": "-8.414009335063973",
      "lat": "37.84826414788508"
    },
    {
      "id": "pt.ine.add.PTCONT.451034",
      "street": "R DA ESPERANÇA",
      "house": "9",
      "postcode": "7630-692",
      "city": "VALE DE SANTIAGO",
      "lon": "-8.413418589410549",
      "lat": "37.848283574531884"
    }
  ]
}