{
  "data": {
    "distrito": "Viseu",
    "concelho": "Mangualde",
    "freguesia": "Freixiosa",
    "OBJECTID": 210,
    "BGRI2021": "18060800112",
    "DT21": "18",
    "DTMN21": "1806",
    "DTMNFR21": "180608",
    "DTMNFRSEC21": "180608001",
    "SECNUM21": "001",
    "SSNUM21": "12",
    "SECSSNUM21": "00112",
    "OBJECTID_1": 191614,
    "DT": "18",
    "CC": "06",
    "fr": "08",
    "SEC": "001",
    "SS": "12"
  },
  "addresses": [
    {
      "id": "pt.ine.add.PTCONT.5476631",
      "street": "R PRIMEIRO DE MAIO",
      "house": "",
      "postcode": "3530-080",
      "city": "FREIXIOSA",
      "lon": "-7.675360949858211",
      "lat": "40.61144816909693"
    },
    {
      "id": "pt.ine.add.PTCONT.5517021",
      "street": "AV LIBERDADE",
      "house": "32",
      "postcode": "3530-080",
      "city": "FREIXIOSA",
      "lon": "-7.67582233169266",
      "lat": "40.611368949942545"
    },
    {
      "id": "pt.ine.add.PTCONT.5535730",
      "street": "TV S JOÃO DA MATA",
      "house": "",
      "postcode": "3530-080",
      "city": "FREIXIOSA",
      "lon": "-7.675409750479118",
      "lat": "40.61122323249687"
    },
    {
      "id": "pt.ine.add.PTCONT.5549600",
      "street": "R S JOÃO DA MATA",
      "house": "1",
      "postcode": "3530-080",
      "city": "FREIXIOSA",
      "lon": "-7.675705644135142",
      "lat": "40.611152363086795"
    },
    {
      "id": "pt.ine.add.PTCONT.5549601",
      "street": "R S JOÃO DA MATA",
      "house": "7",
      "postcode": "3530-080",
      "city": "FREIXIOSA",
      "lon": "-7.675044004911402",
      "lat": "40.61114073573621"
    },
    {
      "id": "pt.ine.add.PTCONT.5554238",
      "street": "R PRIMEIRO DE MAIO",
      "house": "",
      "postcode": "3530-080",
      "city": "FREIXIOSA",
      "lon": "-7.675218787409264",
      "lat": "40.61150163678383"
    },
    {
      "id": "pt.ine.add.PTCONT.5556678",
      "street": "R S JOÃO DA MATA",
      "house": "5",
      "postcode": "3530-080",
      "city": "FREIXIOSA",
      "lon": "-7.6755055078492385",
      "lat": "40.611043507920286"
    },
    {
      "id": "pt.ine.add.PTCONT.5634403",
      "street": "R S JOÃO DA MATA",
      "house": "10",
      "postcode": "3530-080",
      "city": "FREIXIOSA",
      "lon": "-7.675009848082502",
      "lat": "40.610951491059616"
    },
    {
      "id": "pt.ine.add.PTCONT.5651715",
      "street": "R MATA",
      "house": "1",
      "postcode": "3530-080",
      "city": "FREIXIOSA",
      "lon": "-7.675165300955552",
      "lat": "40.6106819515021"
    },
    {
      "id": "pt.ine.add.PTCONT.5655369",
      "street": "R PRIMEIRO DT MAIO",
      "house": "8",
      "postcode": "3530-080",
      "city": "FREIXIOSA",
      "lon": "-7.67497206289861",
      "lat": "40.61129353879397"
    },
    {
      "id": "pt.ine.add.PTCONT.5660922",
      "street": "R S JOÃO DA MATA",
      "house": "",
      "postcode": "3530-080",
      "city": "FREIXIOSA",
      "lon": "-7.674726139860111",
      "lat": "40.61096837584905"
    }
  ]
}