{
  "data": {
    "distrito": "Santarém",
    "concelho": "Constância",
    "freguesia": "Constância",
    "OBJECTID": 76,
    "BGRI2021": "14080100113",
    "DT21": "14",
    "DTMN21": "1408",
    "DTMNFR21": "140801",
    "DTMNFRSEC21": "140801001",
    "SECNUM21": "001",
    "SSNUM21": "13",
    "SECSSNUM21": "00113",
    "OBJECTID_1": 150196,
    "DT": "14",
    "CC": "08",
    "fr": "01",
    "SEC": "001",
    "SS": "13"
  },
  "addresses": [
    {
      "id": "pt.ine.add.PTCONT.4403546",
      "street": "R BARCA",
      "house": "3",
      "postcode": "2250-046",
      "city": "CONSTÂNCIA",
      "lon": "-8.337549940075206",
      "lat": "39.475106566874004"
    },
    {
      "id": "pt.ine.add.PTCONT.4406502",
      "street": "R BARCA",
      "house": "1",
      "postcode": "2250-046",
      "city": "CONSTÂNCIA",
      "lon": "-8.337724030709518",
      "lat": "39.47502519764012"
    },
    {
      "id": "pt.ine.add.PTCONT.4466303",
      "street": "R TEJO",
      "house": "2",
      "postcode": "2250-058",
      "city": "CONSTÂNCIA",
      "lon": "-8.338490225955697",
      "lat": "39.47473562279832"
    },
    {
      "id": "pt.ine.add.PTCONT.4522345",
      "street": "R LUIS DE CAMOES",
      "house": "11 B",
      "postcode": "2250-066",
      "city": "CONSTÂNCIA",
      "lon": "-8.338200315395477",
      "lat": "39.47495230257964"
    },
    {
      "id": "pt.ine.add.PTCONT.4523483",
      "street": "R LUIS DE CAMOES",
      "house": "11 B",
      "postcode": "2250-066",
      "city": "CONSTÂNCIA",
      "lon": "-8.338200315395477",
      "lat": "39.47495230257964"
    },
    {
      "id": "pt.ine.add.PTCONT.4523574",
      "street": "R CEGA",
      "house": "NT",
      "postcode": "2250-042",
      "city": "CONSTÂNCIA",
      "lon": "-8.338200315395477",
      "lat": "39.47495230257964"
    },
    {
      "id": "pt.ine.add.PTCONT.4538704",
      "street": "R LUIS DE CAMÕES",
      "house": "15",
      "postcode": "2250-066",
      "city": "CONSTÂNCIA",
      "lon": "-8.33804931065555",
      "lat": "39.47497958981487"
    },
    {
      "id": "pt.ine.add.PTCONT.4550912",
      "street": "R LUIS DE CAMÕES",
      "house": "17",
      "postcode": "2250-066",
      "city": "CONSTÂNCIA",
      "lon": "-8.33797965879698",
      "lat": "39.475006733559276"
    },
    {
      "id": "pt.ine.add.PTCONT.4586422",
      "street": "R LUIS DE CAMÕES",
      "house": "19",
      "postcode": "2250-066",
      "city": "CONSTÂNCIA",
      "lon": "-8.337933329846706",
      "lat": "39.475060857198756"
    },
    {
      "id": "pt.ine.add.PTCONT.4588553",
      "street": "R LUIS DE CAMÕES",
      "house": "3",
      "postcode": "2250-066",
      "city": "CONSTÂNCIA",
      "lon": "-8.338653302396732",
      "lat": "39.47486143274023"
    }
  ]
}