{
  "data": {
    "distrito": "Santarém",
    "concelho": "Entroncamento",
    "freguesia": "São João Baptista",
    "OBJECTID": 162,
    "BGRI2021": "14100100108",
    "DT21": "14",
    "DTMN21": "1410",
    "DTMNFR21": "141001",
    "DTMNFRSEC21": "141001001",
    "SECNUM21": "001",
    "SSNUM21": "08",
    "SECSSNUM21": "00108",
    "OBJECTID_1": 150959,
    "DT": "14",
    "CC": "10",
    "fr": "01",
    "SEC": "001",
    "SS": "08"
  },
  "addresses": [
    {
      "id": "pt.ine.add.PTCONT.4400200",
      "street": "R 5 DE OUTUBRO",
      "house": "65",
      "postcode": "2330-095",
      "city": "ENTRONCAMENTO",
      "lon": "-8.467674748219942",
      "lat": "39.46417674233141"
    },
    {
      "id": "pt.ine.add.PTCONT.4400201",
      "street": "R 5 DE OUTUBRO",
      "house": "65",
      "postcode": "2330-095",
      "city": "ENTRONCAMENTO",
      "lon": "-8.467674748219942",
      "lat": "39.46417674233141"
    },
    {
      "id": "pt.ine.add.PTCONT.4400202",
      "street": "R 5 DE OUTUBRO",
      "house": "65",
      "postcode": "2330-095",
      "city": "ENTRONCAMENTO",
      "lon": "-8.467674748219942",
      "lat": "39.46417674233141"
    },
    {
      "id": "pt.ine.add.PTCONT.4400203",
      "street": "R 5 DE OUTUBRO",
      "house": "65",
      "postcode": "2330-095",
      "city": "ENTRONCAMENTO",
      "lon": "-8.467674748219942",
      "lat": "39.46417674233141"
    },
    {
      "id": "pt.ine.add.PTCONT.4400204",
      "street": "R 5 DE OUTUBRO",
      "house": "65",
      "postcode": "2330-095",
      "city": "ENTRONCAMENTO",
      "lon": "-8.467674748219942",
      "lat": "39.46417674233141"
    },
    {
      "id": "pt.ine.add.PTCONT.4400205",
      "street": "R 5 DE OUTUBRO",
      "house": "65",
      "postcode": "2330-095",
      "city": "ENTRONCAMENTO",
      "lon": "-8.467674748219942",
      "lat": "39.46417674233141"
    },
    {
      "id": "pt.ine.add.PTCONT.4504339",
      "street": "R 5 OUTUBRO",
      "house": "95",
      "postcode": "2330-094",
      "city": "ENTRONCAMENTO",
      "lon": "-8.468325939672853",
      "lat": "39.46427394416249"
    },
    {
      "id": "pt.ine.add.PTCONT.4504433",
      "street": "R 5 DE OUTUBRO",
      "house": "86",
      "postcode": "2330-094",
      "city": "ENTRONCAMENTO",
      "lon": "-8.468325939672853",
      "lat": "39.46427394416249"
    },
    {
      "id": "pt.ine.add.PTCONT.4504434",
      "street": "R 5 DE OUTUBRO",
      "house": "86",
      "postcode": "2330-094",
      "city": "ENTRONCAMENTO",
      "lon": "-8.468325939672853",
      "lat": "39.46427394416249"
    },
    {
      "id": "pt.ine.add.PTCONT.4504435",
      "street": "R 5 DE OUTUBRO",
      "house": "86",
      "postcode": "2330-094",
      "city": "ENTRONCAMENTO",
      "lon": "-8.468325939672853",
      "lat": "39.46427394416249"
    },
    {
      "id": "pt.ine.add.PTCONT.4504436",
      "street": "R 5 DE OUTUBRO",
      "house": "86",
      "postcode": "2330-094",
      "city": "ENTRONCAMENTO",
      "lon": "-8.468325939672853",
      "lat": "39.46427394416249"
    },
    {
      "id": "pt.ine.add.PTCONT.4504437",
      "street": "R DR RUI LUIS GOMES",
      "house": "42",
      "postcode": "2330-145",
      "city": "ENTRONCAMENTO",
      "lon": "-8.46840580977841",
      "lat": "39.46396747581404"
    },
    {
      "id": "pt.ine.add.PTCONT.4504438",
      "street": "R DR RUI LUIS GOMES",
      "house": "42",
      "postcode": "2330-145",
      "city": "ENTRONCAMENTO",
      "lon": "-8.46840580977841",
      "lat": "39.46396747581404"
    },
    {
      "id": "pt.ine.add.PTCONT.4504439",
      "street": "R DR RUI LUIS GOMES",
      "house": "42",
      "postcode": "2330-145",
      "city": "ENTRONCAMENTO",
      "lon": "-8.46840580977841",
      "lat": "39.46396747581404"
    },
    {
      "id": "pt.ine.add.PTCONT.4504440",
      "street": "R DR RUI LUIS GOMES",
      "house": "42",
      "postcode": "2330-145",
      "city": "ENTRONCAMENTO",
      "lon": "-8.46840580977841",
      "lat": "39.46396747581404"
    },
    {
      "id": "pt.ine.add.PTCONT.4504441",
      "street": "R DR RUI LUIS GOMES",
      "house": "42",
      "postcode": "2330-145",
      "city": "ENTRONCAMENTO",
      "lon": "-8.46840580977841",
      "lat": "39.46396747581404"
    },
    {
      "id": "pt.ine.add.PTCONT.4504879",
      "street": "R DR RUI LUIS GOMES",
      "house": "42",
      "postcode": "2330-145",
      "city": "ENTRONCAMENTO",
      "lon": "-8.46840580977841",
      "lat": "39.46396747581404"
    },
    {
      "id": "pt.ine.add.PTCONT.4519693",
      "street": "R DR RUI LUIS GOMES",
      "house": "30",
      "postcode": "2330-145",
      "city": "ENTRONCAMENTO",
      "lon": "-8.467754707350464",
      "lat": "39.46388828817194"
    },
    {
      "id": "pt.ine.add.PTCONT.4519694",
      "street": "R DR RUI LUIS GOMES",
      "house": "28",
      "postcode": "2330-145",
      "city": "ENTRONCAMENTO",
      "lon": "-8.467754707350464",
      "lat": "39.46388828817194"
    },
    {
      "id": "pt.ine.add.PTCONT.4538694",
      "street": "R 5 DE OUTUBRO",
      "house": "79",
      "postcode": "2330-095",
      "city": "ENTRONCAMENTO",
      "lon": "-8.46794213612314",
      "lat": "39.46420299379939"
    },
    {
      "id": "pt.ine.add.PTCONT.4557256",
      "street": "R LUIS FALCÃO SOMMER",
      "house": "9",
      "postcode": "2330-176",
      "city": "ENTRONCAMENTO",
      "lon": "-8.468626890541218",
      "lat": "39.46402988722167"
    },
    {
      "id": "pt.ine.add.PTCONT.4557257",
      "street": "R LUIS FALCÃO SOMMER",
      "house": "9",
      "postcode": "2330-176",
      "city": "ENTRONCAMENTO",
      "lon": "-8.468626890541218",
      "lat": "39.46402988722167"
    },
    {
      "id": "pt.ine.add.PTCONT.4557273",
      "street": "R LUIS FALCÃO SOMMER",
      "house": "9",
      "postcode": "2330-176",
      "city": "ENTRONCAMENTO",
      "lon": "-8.468626890541218",
      "lat": "39.46402988722167"
    },
    {
      "id": "pt.ine.add.PTCONT.4557274",
      "street": "R LUIS FALCÃO SOMMER",
      "house": "9",
      "postcode": "2330-176",
      "city": "ENTRONCAMENTO",
      "lon": "-8.468626890541218",
      "lat": "39.46402988722167"
    },
    {
      "id": "pt.ine.add.PTCONT.4557275",
      "street": "R LUIS FALCÃO SOMMER",
      "house": "9",
      "postcode": "2330-176",
      "city": "ENTRONCAMENTO",
      "lon": "-8.468626890541218",
      "lat": "39.46402988722167"
    },
    {
      "id": "pt.ine.add.PTCONT.4557276",
      "street": "R LUIS FALCÃO SOMMER",
      "house": "9",
      "postcode": "2330-176",
      "city": "ENTRONCAMENTO",
      "lon": "-8.468626890541218",
      "lat": "39.46402988722167"
    },
    {
      "id": "pt.ine.add.PTCONT.4557277",
      "street": "R LUIS FALCÃO SOMMER",
      "house": "9",
      "postcode": "2330-176",
      "city": "ENTRONCAMENTO",
      "lon": "-8.468626890541218",
      "lat": "39.46402988722167"
    },
    {
      "id": "pt.ine.add.PTCONT.4557278",
      "street": "R LUIS FALCÃO SOMMER",
      "house": "9",
      "postcode": "2330-176",
      "city": "ENTRONCAMENTO",
      "lon": "-8.468626890541218",
      "lat": "39.46402988722167"
    },
    {
      "id": "pt.ine.add.PTCONT.4557279",
      "street": "R LUIS FALCÃO SOMMER",
      "house": "9",
      "postcode": "2330-176",
      "city": "ENTRONCAMENTO",
      "lon": "-8.468626890541218",
      "lat": "39.46402988722167"
    },
    {
      "id": "pt.ine.add.PTCONT.4558359",
      "street": "R LUIS FALCÃO SOMMER",
      "house": "9",
      "postcode": "2330-176",
      "city": "ENTRONCAMENTO",
      "lon": "-8.468626890541218",
      "lat": "39.46402988722167"
    },
    {
      "id": "pt.ine.add.PTCONT.4580168",
      "street": "R DR RUI LUIS GOMES",
      "house": "",
      "postcode": "2330-145",
      "city": "ENTRONCAMENTO",
      "lon": "-8.467998638561218",
      "lat": "39.46386957199087"
    },
    {
      "id": "pt.ine.add.PTCONT.4618684",
      "street": "R D JOÃO DE CASTRO",
      "house": "2 A A",
      "postcode": "2330-138",
      "city": "ENTRONCAMENTO",
      "lon": "-8.467558160896893",
      "lat": "39.46409601464899"
    },
    {
      "id": "pt.ine.add.PTCONT.4618685",
      "street": "R D JOÃO DE CASTRO",
      "house": "2 A A",
      "postcode": "2330-138",
      "city": "ENTRONCAMENTO",
      "lon": "-8.467558160896893",
      "lat": "39.46409601464899"
    },
    {
      "id": "pt.ine.add.PTCONT.4618686",
      "street": "R D JOÃO DE CASTRO",
      "house": "2 A A",
      "postcode": "2330-138",
      "city": "ENTRONCAMENTO",
      "lon": "-8.467558160896893",
      "lat": "39.46409601464899"
    },
    {
      "id": "pt.ine.add.PTCONT.4619771",
      "street": "R DR RUI LUIS GOMES",
      "house": "30 A",
      "postcode": "2330-145",
      "city": "ENTRONCAMENTO",
      "lon": "-8.467871121943004",
      "lat": "39.4639329881444"
    },
    {
      "id": "pt.ine.add.PTCONT.4619772",
      "street": "R DR RUI LUIS GOMES",
      "house": "30 A",
      "postcode": "2330-145",
      "city": "ENTRONCAMENTO",
      "lon": "-8.467871121943004",
      "lat": "39.4639329881444"
    },
    {
      "id": "pt.ine.add.PTCONT.4651880",
      "street": "R D JOÃO DE CASTRO",
      "house": "2 C",
      "postcode": "2330-138",
      "city": "ENTRONCAMENTO",
      "lon": "-8.467603821334198",
      "lat": "39.46392475026617"
    },
    {
      "id": "pt.ine.add.PTCONT.4659381",
      "street": "R DR RUI LUIS GOMES",
      "house": "30 A",
      "postcode": "2330-145",
      "city": "ENTRONCAMENTO",
      "lon": "-8.467871121943004",
      "lat": "39.4639329881444"
    }
  ]
}