{
  "data": {
    "distrito": "Guarda",
    "concelho": "Trancoso",
    "freguesia": "Granja",
    "OBJECTID": 111,
    "BGRI2021": "09130900113",
    "DT21": "09",
    "DTMN21": "0913",
    "DTMNFR21": "091309",
    "DTMNFRSEC21": "091309001",
    "SECNUM21": "001",
    "SSNUM21": "13",
    "SECSSNUM21": "00113",
    "OBJECTID_1": 83216,
    "DT": "09",
    "CC": "13",
    "fr": "09",
    "SEC": "001",
    "SS": "13"
  },
  "addresses": [
    {
      "id": "pt.ine.add.PTCONT.1907799",
      "street": "R DA IGREJA",
      "house": "",
      "postcode": "6420-471",
      "city": "GRANJA TCS",
      "lon": "-7.20238827550709",
      "lat": "40.74910951991506"
    },
    {
      "id": "pt.ine.add.PTCONT.1908616",
      "street": "R DA IGREJA",
      "house": "",
      "postcode": "6420-471",
      "city": "GRANJA TCS",
      "lon": "-7.202768513030287",
      "lat": "40.74901353239219"
    },
    {
      "id": "pt.ine.add.PTCONT.1916549",
      "street": "R DA IGREJA",
      "house": "",
      "postcode": "6420-471",
      "city": "GRANJA TCS",
      "lon": "-7.202544069071138",
      "lat": "40.74897570346067"
    },
    {
      "id": "pt.ine.add.PTCONT.1923528",
      "street": "LG DO FORNO DA TELHA",
      "house": "",
      "postcode": "6420-471",
      "city": "GRANJA TCS",
      "lon": "-7.204729892146546",
      "lat": "40.75016393818302"
    },
    {
      "id": "pt.ine.add.PTCONT.1924555",
      "street": "R DA IGREJA",
      "house": "",
      "postcode": "6420-471",
      "city": "GRANJA TCS",
      "lon": "-7.20258690739358",
      "lat": "40.74930022349193"
    },
    {
      "id": "pt.ine.add.PTCONT.1928376",
      "street": "R DO FORNO DA TELHA",
      "house": "",
      "postcode": "6420-471",
      "city": "GRANJA TCS",
      "lon": "-7.20475144214148",
      "lat": "40.7503171939832"
    },
    {
      "id": "pt.ine.add.PTCONT.1944781",
      "street": "R DO FORNO DA TELHA",
      "house": "",
      "postcode": "6420-471",
      "city": "GRANJA TCS",
      "lon": "-7.204287322486944",
      "lat": "40.748782634978824"
    },
    {
      "id": "pt.ine.add.PTCONT.1950539",
      "street": "R DA IGREJA",
      "house": "",
      "postcode": "6420-471",
      "city": "GRANJA TCS",
      "lon": "-7.202770018967874",
      "lat": "40.748905486320055"
    },
    {
      "id": "pt.ine.add.PTCONT.1961357",
      "street": "R DA IGREJA",
      "house": "",
      "postcode": "6420-471",
      "city": "GRANJA TCS",
      "lon": "-7.202471652629139",
      "lat": "40.7490741728852"
    },
    {
      "id": "pt.ine.add.PTCONT.1854743",
      "street": "LG DA IGREJA",
      "house": "",
      "postcode": "6420-471",
      "city": "GRANJA TCS",
      "lon": "-7.202413460592265",
      "lat": "40.74900166481138"
    },
    {
      "id": "pt.ine.add.PTCONT.1878415",
      "street": "R DO FORNO DA TELHA",
      "house": "",
      "postcode": "6420-471",
      "city": "GRANJA TCS",
      "lon": "-7.204181395927336",
      "lat": "40.74873675816065"
    },
    {
      "id": "pt.ine.add.PTCONT.1878416",
      "street": "CAM DE RABAÃ‡AL",
      "house": "",
      "postcode": "6420-471",
      "city": "GRANJA TCS",
      "lon": "-7.204782953310414",
      "lat": "40.75060560264314"
    }
  ]
}