{
  "data": {
    "distrito": "Leiria",
    "concelho": "Nazaré",
    "freguesia": "Famalicão",
    "OBJECTID": 183,
    "BGRI2021": "10110100217",
    "DT21": "10",
    "DTMN21": "1011",
    "DTMNFR21": "101101",
    "DTMNFRSEC21": "101101002",
    "SECNUM21": "002",
    "SSNUM21": "17",
    "SECSSNUM21": "00217",
    "OBJECTID_1": 93282,
    "DT": "10",
    "CC": "11",
    "fr": "01",
    "SEC": "002",
    "SS": "17"
  },
  "addresses": [
    {
      "id": "pt.ine.add.PTCONT.2005757",
      "street": "LG CENTRO",
      "house": "",
      "postcode": "2450-024",
      "city": "FAMALICÃO NZR",
      "lon": "-9.092899151270899",
      "lat": "39.5503772794933"
    },
    {
      "id": "pt.ine.add.PTCONT.2037961",
      "street": "R MARCAO",
      "house": "12",
      "postcode": "2450-024",
      "city": "FAMALICÃO NZR",
      "lon": "-9.091672760398806",
      "lat": "39.55087376053939"
    },
    {
      "id": "pt.ine.add.PTCONT.2037962",
      "street": "R MARCAO",
      "house": "12",
      "postcode": "2450-024",
      "city": "FAMALICÃO NZR",
      "lon": "-9.091672760398806",
      "lat": "39.55087376053939"
    },
    {
      "id": "pt.ine.add.PTCONT.2038764",
      "street": "R PINTASSIGO",
      "house": "16",
      "postcode": "2450-011",
      "city": "FAMALICÃO NZR",
      "lon": "-9.078086025677594",
      "lat": "39.55188569418945"
    },
    {
      "id": "pt.ine.add.PTCONT.2063453",
      "street": "R ENCONTAS",
      "house": "4",
      "postcode": "2450-024",
      "city": "FAMALICÃO NZR",
      "lon": "-9.090872068277271",
      "lat": "39.551024468302145"
    },
    {
      "id": "pt.ine.add.PTCONT.2077061",
      "street": "R FONTE GALINHA",
      "house": "18",
      "postcode": "2450-024",
      "city": "FAMALICÃO NZR",
      "lon": "-9.092271448443174",
      "lat": "39.549571862404974"
    },
    {
      "id": "pt.ine.add.PTCONT.2077062",
      "street": "BC GRILO",
      "house": "1",
      "postcode": "2450-024",
      "city": "FAMALICÃO NZR",
      "lon": "-9.09280211775774",
      "lat": "39.55008986776145"
    },
    {
      "id": "pt.ine.add.PTCONT.2086824",
      "street": "LG CENTRO",
      "house": "7",
      "postcode": "2450-024",
      "city": "FAMALICÃO NZR",
      "lon": "-9.092970065370077",
      "lat": "39.550457753746905"
    },
    {
      "id": "pt.ine.add.PTCONT.2093691",
      "street": "R NOVA",
      "house": "10",
      "postcode": "2450-024",
      "city": "FAMALICÃO NZR",
      "lon": "-9.093106929160033",
      "lat": "39.55025847685364"
    },
    {
      "id": "pt.ine.add.PTCONT.2104690",
      "street": "R NOVA",
      "house": "12",
      "postcode": "2450-024",
      "city": "FAMALICÃO NZR",
      "lon": "-9.093213114337715",
      "lat": "39.55036567957973"
    },
    {
      "id": "pt.ine.add.PTCONT.2111412",
      "street": "R MARCAO",
      "house": "4",
      "postcode": "2450-024",
      "city": "FAMALICÃO NZR",
      "lon": "-9.092400302573502",
      "lat": "39.55048047134361"
    },
    {
      "id": "pt.ine.add.PTCONT.2127898",
      "street": "BC GRILO",
      "house": "2",
      "postcode": "2450-024",
      "city": "FAMALICÃO NZR",
      "lon": "-9.092581714575791",
      "lat": "39.550136720830395"
    },
    {
      "id": "pt.ine.add.PTCONT.2141004",
      "street": "R JOSE LOPES RIQUEZO",
      "house": "16 16A",
      "postcode": "2450-024",
      "city": "FAMALICÃO NZR",
      "lon": "-9.091976663129733",
      "lat": "39.54928608179564"
    },
    {
      "id": "pt.ine.add.PTCONT.2160646",
      "street": "R DR ANTÓNIO DUARTE PIMPÃO",
      "house": "",
      "postcode": "2450-011",
      "city": "FAMALICÃO NZR",
      "lon": "-9.077157166824167",
      "lat": "39.552883975830404"
    },
    {
      "id": "pt.ine.add.PTCONT.2164976",
      "street": "R DR ANTÓNIO DUARTE PIMPÃO",
      "house": "16",
      "postcode": "2450-017",
      "city": "FAMALICÃO NZR",
      "lon": "-9.078292077329321",
      "lat": "39.553352104332134"
    },
    {
      "id": "pt.ine.add.PTCONT.2169303",
      "street": "LG CENTRO",
      "house": "",
      "postcode": "2450-024",
      "city": "FAMALICÃO NZR",
      "lon": "-9.092783194907588",
      "lat": "39.55040525702061"
    },
    {
      "id": "pt.ine.add.PTCONT.2191263",
      "street": "BC LAGAR",
      "house": "3",
      "postcode": "2450-011",
      "city": "FAMALICÃO NZR",
      "lon": "-9.077548670085184",
      "lat": "39.552583575149455"
    },
    {
      "id": "pt.ine.add.PTCONT.2200431",
      "street": "LG LARGO S JOAO",
      "house": "1",
      "postcode": "2450-011",
      "city": "FAMALICÃO NZR",
      "lon": "-9.076274740832678",
      "lat": "39.55301723373868"
    },
    {
      "id": "pt.ine.add.PTCONT.2202547",
      "street": "R MARCAO",
      "house": "8",
      "postcode": "2450-024",
      "city": "FAMALICÃO NZR",
      "lon": "-9.092065924773653",
      "lat": "39.55069939062508"
    },
    {
      "id": "pt.ine.add.PTCONT.2214581",
      "street": "CASAIS DE BAIXO",
      "house": "",
      "postcode": "2450-011",
      "city": "FAMALICÃO NZR",
      "lon": "-9.077461953535424",
      "lat": "39.553052626185504"
    },
    {
      "id": "pt.ine.add.PTCONT.2220617",
      "street": "R JOSE LOPES RIQUEZO",
      "house": "10",
      "postcode": "2450-024",
      "city": "FAMALICÃO NZR",
      "lon": "-9.091122398999579",
      "lat": "39.548923853624935"
    },
    {
      "id": "pt.ine.add.PTCONT.2242060",
      "street": "R DR ANTÓNIO DUARTE PIMPÃO",
      "house": "15",
      "postcode": "2450-011",
      "city": "FAMALICÃO NZR",
      "lon": "-9.07815406507385",
      "lat": "39.553470313260746"
    },
    {
      "id": "pt.ine.add.PTCONT.2253062",
      "street": "R FERNANDO SOARES",
      "house": "2",
      "postcode": "2450-011",
      "city": "FAMALICÃO NZR",
      "lon": "-9.076516479567081",
      "lat": "39.552826131774815"
    },
    {
      "id": "pt.ine.add.PTCONT.2261502",
      "street": "R MARCÃO",
      "house": "10",
      "postcode": "2450-024",
      "city": "FAMALICÃO NZR",
      "lon": "-9.091798615582594",
      "lat": "39.55071960926586"
    }
  ]
}