{
  "data": {
    "distrito": "Setúbal",
    "concelho": "Almada",
    "freguesia": "União das freguesias de Charneca de Caparica e Sobreda",
    "OBJECTID": 703,
    "BGRI2021": "15031403510",
    "DT21": "15",
    "DTMN21": "1503",
    "DTMNFR21": "150314",
    "DTMNFRSEC21": "150314035",
    "SECNUM21": "035",
    "SSNUM21": "10",
    "SECSSNUM21": "03510",
    "OBJECTID_1": 160872,
    "DT": "15",
    "CC": "03",
    "fr": "14",
    "SEC": "035",
    "SS": "10"
  },
  "addresses": [
    {
      "id": "pt.ine.add.PTCONT.4686611",
      "street": "R CÂNDIDO DA COSTA PINTO",
      "house": "3",
      "postcode": "2820-047",
      "city": "CHARNECA DA CAPARICA",
      "lon": "-9.184956599618724",
      "lat": "38.59432668892787"
    },
    {
      "id": "pt.ine.add.PTCONT.4787512",
      "street": "R MANUEL RIBEIRO DE PAVIA",
      "house": "6",
      "postcode": "2820-099",
      "city": "CHARNECA DA CAPARICA",
      "lon": "-9.184590661455628",
      "lat": "38.59442005797494"
    },
    {
      "id": "pt.ine.add.PTCONT.4798846",
      "street": "R MANUEL RIBEIRO DE PAVIA",
      "house": "4",
      "postcode": "2820-099",
      "city": "CHARNECA DA CAPARICA",
      "lon": "-9.18463853910848",
      "lat": "38.594554748360586"
    },
    {
      "id": "pt.ine.add.PTCONT.4835441",
      "street": "R MARIA LUISA FRAGOSO",
      "house": "5",
      "postcode": "2820-102",
      "city": "CHARNECA DA CAPARICA",
      "lon": "-9.184571387273296",
      "lat": "38.5946724562634"
    },
    {
      "id": "pt.ine.add.PTCONT.4838547",
      "street": "R CÂNDIDO DA COSTA PINTO",
      "house": "",
      "postcode": "2820-047",
      "city": "CHARNECA DA CAPARICA",
      "lon": "-9.184874423146407",
      "lat": "38.59420131498375"
    },
    {
      "id": "pt.ine.add.PTCONT.4870843",
      "street": "R CANDIDO COSTA PINTO",
      "house": "7",
      "postcode": "2820-047",
      "city": "CHARNECA DA CAPARICA",
      "lon": "-9.184907012854323",
      "lat": "38.594074909513"
    },
    {
      "id": "pt.ine.add.PTCONT.4874546",
      "street": "R MANUEL RIBEIRA PAVIA",
      "house": "",
      "postcode": "2820-571",
      "city": "CHARNECA DA CAPARICA",
      "lon": "-9.184589478869318",
      "lat": "38.59433899624362"
    },
    {
      "id": "pt.ine.add.PTCONT.4878979",
      "street": "R MANUEL RIBEIRO DE PAVIA",
      "house": "12",
      "postcode": "2820-099",
      "city": "CHARNECA DA CAPARICA",
      "lon": "-9.184676824028028",
      "lat": "38.59403193802846"
    },
    {
      "id": "pt.ine.add.PTCONT.4921772",
      "street": "R CÂNDIDO DA COSTA PINTO",
      "house": "1",
      "postcode": "2820-047",
      "city": "CHARNECA DA CAPARICA",
      "lon": "-9.184969916489605",
      "lat": "38.594452681781"
    },
    {
      "id": "pt.ine.add.PTCONT.5002174",
      "street": "R MANUEL RIBEIRO DE PAVIA",
      "house": "",
      "postcode": "2820-099",
      "city": "CHARNECA DA CAPARICA",
      "lon": "-9.184644365336839",
      "lat": "38.59416735030068"
    },
    {
      "id": "pt.ine.add.PTCONT.5122164",
      "street": "R MANUEL RIBEIRO DE PAVIA",
      "house": "8",
      "postcode": "2820-099",
      "city": "CHARNECA DA CAPARICA",
      "lon": "-9.184646467812627",
      "lat": "38.59431146004617"
    }
  ]
}