{
  "data": {
    "distrito": "Évora",
    "concelho": "Portel",
    "freguesia": "União das freguesias de Amieira e Alqueva",
    "OBJECTID": 51,
    "BGRI2021": "07090900108",
    "DT21": "07",
    "DTMN21": "0709",
    "DTMNFR21": "070909",
    "DTMNFRSEC21": "070909001",
    "SECNUM21": "001",
    "SSNUM21": "08",
    "SECSSNUM21": "00108",
    "OBJECTID_1": 62728,
    "DT": "07",
    "CC": "09",
    "fr": "09",
    "SEC": "001",
    "SS": "08"
  },
  "addresses": [
    {
      "id": "pt.ine.add.PTCONT.1392082",
      "street": "MTE SANTOS VELHO",
      "house": "",
      "postcode": "7220-022",
      "city": "ALQUEVA",
      "lon": "-7.554886092253279",
      "lat": "38.205265995673614"
    },
    {
      "id": "pt.ine.add.PTCONT.1442217",
      "street": "MTE LAGAR",
      "house": "",
      "postcode": "7220-022",
      "city": "ALQUEVA",
      "lon": "-7.5354059857085565",
      "lat": "38.205582842624544"
    },
    {
      "id": "pt.ine.add.PTCONT.1449525",
      "street": "MTE VALE",
      "house": "",
      "postcode": "7220-022",
      "city": "ALQUEVA",
      "lon": "-7.537646078341805",
      "lat": "38.208098689525436"
    },
    {
      "id": "pt.ine.add.PTCONT.1455266",
      "street": "MTE VINHA",
      "house": "",
      "postcode": "7220-022",
      "city": "ALQUEVA",
      "lon": "-7.537009733971384",
      "lat": "38.20072620859646"
    },
    {
      "id": "pt.ine.add.PTCONT.1456338",
      "street": "MTE VINHA",
      "house": "",
      "postcode": "7220-022",
      "city": "ALQUEVA",
      "lon": "-7.537226635716616",
      "lat": "38.200727309680794"
    }
  ]
}