{
  "data": {
    "distrito": "Évora",
    "concelho": "Portel",
    "freguesia": "União das freguesias de Amieira e Alqueva",
    "OBJECTID": 56,
    "BGRI2021": "07090900113",
    "DT21": "07",
    "DTMN21": "0709",
    "DTMNFR21": "070909",
    "DTMNFRSEC21": "070909001",
    "SECNUM21": "001",
    "SSNUM21": "13",
    "SECSSNUM21": "00113",
    "OBJECTID_1": 62578,
    "DT": "07",
    "CC": "09",
    "fr": "09",
    "SEC": "001",
    "SS": "13"
  },
  "addresses": [
    {
      "id": "pt.ine.add.PTCONT.1370980",
      "street": "R PESSEGUEIRO",
      "house": "8",
      "postcode": "7220-035",
      "city": "ALQUEVA",
      "lon": "-7.538853615722086",
      "lat": "38.216557182232464"
    },
    {
      "id": "pt.ine.add.PTCONT.1379316",
      "street": "LG IGREJA",
      "house": "12",
      "postcode": "7220-014",
      "city": "ALQUEVA",
      "lon": "-7.538424253409128",
      "lat": "38.21623822528486"
    },
    {
      "id": "pt.ine.add.PTCONT.1381286",
      "street": "R PESSEGUEIRO",
      "house": "4",
      "postcode": "7220-035",
      "city": "ALQUEVA",
      "lon": "-7.538857176207607",
      "lat": "38.216419998215464"
    },
    {
      "id": "pt.ine.add.PTCONT.1387497",
      "street": "LG IGREJA",
      "house": "13",
      "postcode": "7220-014",
      "city": "ALQUEVA",
      "lon": "-7.538516092280843",
      "lat": "38.216238094114196"
    },
    {
      "id": "pt.ine.add.PTCONT.1405647",
      "street": "R 25 DE ABRIL",
      "house": "9",
      "postcode": "7220-041",
      "city": "ALQUEVA",
      "lon": "-7.5385151473382885",
      "lat": "38.21655080443459"
    },
    {
      "id": "pt.ine.add.PTCONT.1441768",
      "street": "R LIBERDADE",
      "house": "8",
      "postcode": "7220-023",
      "city": "ALQUEVA",
      "lon": "-7.538783506354245",
      "lat": "38.21625634439991"
    },
    {
      "id": "pt.ine.add.PTCONT.1443290",
      "street": "R LIBERDADE",
      "house": "2",
      "postcode": "7220-023",
      "city": "ALQUEVA",
      "lon": "-7.538612827876768",
      "lat": "38.21623693723883"
    },
    {
      "id": "pt.ine.add.PTCONT.1449512",
      "street": "R PESSEGUEIRO",
      "house": "2",
      "postcode": "7220-035",
      "city": "ALQUEVA",
      "lon": "-7.538868413121367",
      "lat": "38.21632751261469"
    },
    {
      "id": "pt.ine.add.PTCONT.1457871",
      "street": "R 25 DE ABRIL",
      "house": "13",
      "postcode": "7220-041",
      "city": "ALQUEVA",
      "lon": "-7.5385716527101785",
      "lat": "38.216623161407334"
    },
    {
      "id": "pt.ine.add.PTCONT.1458580",
      "street": "R 25 DE ABRIL",
      "house": "23",
      "postcode": "7220-041",
      "city": "ALQUEVA",
      "lon": "-7.538762458753396",
      "lat": "38.21683392565507"
    },
    {
      "id": "pt.ine.add.PTCONT.1462092",
      "street": "R 25 DE ABRIL",
      "house": "17",
      "postcode": "7220-041",
      "city": "ALQUEVA",
      "lon": "-7.538639576572303",
      "lat": "38.21669557617763"
    },
    {
      "id": "pt.ine.add.PTCONT.1463116",
      "street": "LG 25 DE ABRIL",
      "house": "2",
      "postcode": "7220-017",
      "city": "ALQUEVA",
      "lon": "-7.538819178783728",
      "lat": "38.216776058011526"
    }
  ]
}