{
  "data": {
    "distrito": "Évora",
    "concelho": "Portel",
    "freguesia": "União das freguesias de Amieira e Alqueva",
    "OBJECTID": 47,
    "BGRI2021": "07090900133",
    "DT21": "07",
    "DTMN21": "0709",
    "DTMNFR21": "070909",
    "DTMNFRSEC21": "070909001",
    "SECNUM21": "001",
    "SSNUM21": "33",
    "SECSSNUM21": "00133",
    "OBJECTID_1": 62485,
    "DT": "07",
    "CC": "09",
    "fr": "09",
    "SEC": "001",
    "SS": "33"
  },
  "addresses": [
    {
      "id": "pt.ine.add.PTCONT.1376851",
      "street": "MTE CAPELINS",
      "house": "",
      "postcode": "7220-022",
      "city": "ALQUEVA",
      "lon": "-7.574681705448988",
      "lat": "38.2487934647289"
    },
    {
      "id": "pt.ine.add.PTCONT.1389747",
      "street": "MTE FONTE DA ARAN",
      "house": "",
      "postcode": "7220-022",
      "city": "ALQUEVA",
      "lon": "-7.573195646259315",
      "lat": "38.24593959919872"
    },
    {
      "id": "pt.ine.add.PTCONT.1398086",
      "street": "MTE BRINCHEIROS",
      "house": "",
      "postcode": "7220-022",
      "city": "ALQUEVA",
      "lon": "-7.5456693724648",
      "lat": "38.24541766736015"
    },
    {
      "id": "pt.ine.add.PTCONT.1413982",
      "street": "MTE MANUEL MIGUEL",
      "house": "",
      "postcode": "7220-022",
      "city": "ALQUEVA",
      "lon": "-7.549528004629151",
      "lat": "38.24572519988429"
    },
    {
      "id": "pt.ine.add.PTCONT.1422277",
      "street": "MTE CORTE PEREIRO",
      "house": "",
      "postcode": "7220-022",
      "city": "ALQUEVA",
      "lon": "-7.566054358735255",
      "lat": "38.24468011292522"
    },
    {
      "id": "pt.ine.add.PTCONT.1430352",
      "street": "MTE VALE DE CABRAS CORTE PEREIRO",
      "house": "",
      "postcode": "7220-022",
      "city": "ALQUEVA",
      "lon": "-7.566002308272205",
      "lat": "38.23961690546922"
    },
    {
      "id": "pt.ine.add.PTCONT.1431962",
      "street": "MTE VALE DE CABRAS CORTE PEREIRO",
      "house": "",
      "postcode": "7220-022",
      "city": "ALQUEVA",
      "lon": "-7.565932726377377",
      "lat": "38.239751701565346"
    },
    {
      "id": "pt.ine.add.PTCONT.1446433",
      "street": "MTE ASSEICEIRA",
      "house": "",
      "postcode": "7220-022",
      "city": "ALQUEVA",
      "lon": "-7.581916925264121",
      "lat": "38.24676465059194"
    },
    {
      "id": "pt.ine.add.PTCONT.1452497",
      "street": "MTE VELHO DA CORTE PEREIRO",
      "house": "",
      "postcode": "7220-022",
      "city": "ALQUEVA",
      "lon": "-7.565705590219078",
      "lat": "38.24693063044744"
    },
    {
      "id": "pt.ine.add.PTCONT.1457110",
      "street": "MTE MANUEL FERNANDES",
      "house": "",
      "postcode": "7220-022",
      "city": "ALQUEVA",
      "lon": "-7.5480907928910925",
      "lat": "38.25115936095037"
    },
    {
      "id": "pt.ine.add.PTCONT.1462093",
      "street": "MTE FERRARIAS",
      "house": "",
      "postcode": "7220-022",
      "city": "ALQUEVA",
      "lon": "-7.5796036930344295",
      "lat": "38.24600603163846"
    },
    {
      "id": "pt.ine.add.PTCONT.1463133",
      "street": "MTE ABITA",
      "house": "",
      "postcode": "7220-022",
      "city": "ALQUEVA",
      "lon": "-7.55672921801352",
      "lat": "38.252391267518895"
    }
  ]
}