{
  "data": {
    "distrito": "Lisboa",
    "concelho": "Mafra",
    "freguesia": "Mafra",
    "OBJECTID": 2034,
    "BGRI2021": "11090901138",
    "DT21": "11",
    "DTMN21": "1109",
    "DTMNFR21": "110909",
    "DTMNFRSEC21": "110909011",
    "SECNUM21": "011",
    "SSNUM21": "38",
    "SECSSNUM21": "01138",
    "OBJECTID_1": 108099,
    "DT": "11",
    "CC": "09",
    "fr": "09",
    "SEC": "011",
    "SS": "38"
  },
  "addresses": [
    {
      "id": "pt.ine.add.PTCONT.2325641",
      "street": "R HORTAS",
      "house": "26",
      "postcode": "2640-571",
      "city": "MAFRA",
      "lon": "-9.349746626880927",
      "lat": "38.97887803887853"
    },
    {
      "id": "pt.ine.add.PTCONT.2368273",
      "street": "R ALTO DOS PASSARINHOS",
      "house": "",
      "postcode": "2640-571",
      "city": "MAFRA",
      "lon": "-9.34496023619179",
      "lat": "38.980387042472145"
    },
    {
      "id": "pt.ine.add.PTCONT.2426728",
      "street": "R HORTAS",
      "house": "",
      "postcode": "2640-571",
      "city": "MAFRA",
      "lon": "-9.349956156958216",
      "lat": "38.97898394211685"
    },
    {
      "id": "pt.ine.add.PTCONT.2457823",
      "street": "ESTR PRINCIPAL",
      "house": "",
      "postcode": "2640-571",
      "city": "MAFRA",
      "lon": "-9.342475003447705",
      "lat": "38.9794670559701"
    },
    {
      "id": "pt.ine.add.PTCONT.2564106",
      "street": "R QUINTA LASAL DA QUINTA",
      "house": "",
      "postcode": "2640-571",
      "city": "MAFRA",
      "lon": "-9.347268154789093",
      "lat": "38.979029959587834"
    },
    {
      "id": "pt.ine.add.PTCONT.2684003",
      "street": "ESTR PRINCIPAL CASAS DO OUTEIRAL",
      "house": "",
      "postcode": "2640-571",
      "city": "MAFRA",
      "lon": "-9.3463140818659",
      "lat": "38.97722039711483"
    },
    {
      "id": "pt.ine.add.PTCONT.2697410",
      "street": "R HORTAS",
      "house": "6",
      "postcode": "2640-571",
      "city": "MAFRA",
      "lon": "-9.347370149983135",
      "lat": "38.97756970593348"
    },
    {
      "id": "pt.ine.add.PTCONT.2799483",
      "street": "R QUINTA",
      "house": "",
      "postcode": "2640-571",
      "city": "MAFRA",
      "lon": "-9.346561426652316",
      "lat": "38.97886617195305"
    },
    {
      "id": "pt.ine.add.PTCONT.2929440",
      "street": "R QUINTA",
      "house": "",
      "postcode": "2640-571",
      "city": "MAFRA",
      "lon": "-9.347136624608767",
      "lat": "38.97876110747616"
    },
    {
      "id": "pt.ine.add.PTCONT.2975329",
      "street": "ESTR PRINCIPAL",
      "house": "",
      "postcode": "2640-571",
      "city": "MAFRA",
      "lon": "-9.345977649637309",
      "lat": "38.977115806454776"
    },
    {
      "id": "pt.ine.add.PTCONT.3113983",
      "street": "R HORTAS",
      "house": "2",
      "postcode": "2640-571",
      "city": "MAFRA",
      "lon": "-9.34734092191735",
      "lat": "38.97720971567146"
    },
    {
      "id": "pt.ine.add.PTCONT.3169481",
      "street": "R QUINTA",
      "house": "",
      "postcode": "2640-571",
      "city": "MAFRA",
      "lon": "-9.346464196418724",
      "lat": "38.979254499551175"
    },
    {
      "id": "pt.ine.add.PTCONT.3179317",
      "street": "R HORTAS",
      "house": "8",
      "postcode": "2640-571",
      "city": "MAFRA",
      "lon": "-9.34735015130544",
      "lat": "38.97775006126472"
    },
    {
      "id": "pt.ine.add.PTCONT.3216053",
      "street": "R CANEIRAS",
      "house": "",
      "postcode": "2640-571",
      "city": "MAFRA",
      "lon": "-9.343404016320227",
      "lat": "38.97980871000671"
    },
    {
      "id": "pt.ine.add.PTCONT.3225453",
      "street": "ESTR PRINCIPAL CASA SOL POENTE",
      "house": "",
      "postcode": "2640-571",
      "city": "MAFRA",
      "lon": "-9.347006333645856",
      "lat": "38.9772131971339"
    },
    {
      "id": "pt.ine.add.PTCONT.3256161",
      "street": "ESTR PRINCIPAL",
      "house": "",
      "postcode": "2640-571",
      "city": "MAFRA",
      "lon": "-9.346543756446472",
      "lat": "38.977154957236216"
    },
    {
      "id": "pt.ine.add.PTCONT.3413549",
      "street": "ESTRADA MUNICIPAL",
      "house": "4",
      "postcode": "2640-571",
      "city": "MAFRA",
      "lon": "-9.343581181805392",
      "lat": "38.97801440723801"
    },
    {
      "id": "pt.ine.add.PTCONT.3447639",
      "street": "R HORTAS",
      "house": "10",
      "postcode": "2640-571",
      "city": "MAFRA",
      "lon": "-9.347630438945947",
      "lat": "38.977945305958194"
    }
  ]
}