{
  "data": {
    "distrito": "Portalegre",
    "concelho": "Avis",
    "freguesia": "Avis",
    "OBJECTID": 168,
    "BGRI2021": "12030300210",
    "DT21": "12",
    "DTMN21": "1203",
    "DTMNFR21": "120303",
    "DTMNFRSEC21": "120303002",
    "SECNUM21": "002",
    "SSNUM21": "10",
    "SECSSNUM21": "00210",
    "OBJECTID_1": 120915,
    "DT": "12",
    "CC": "03",
    "fr": "03",
    "SEC": "002",
    "SS": "10"
  },
  "addresses": [
    {
      "id": "pt.ine.add.PTCONT.3463910",
      "street": "R 1 DE MAIO",
      "house": "",
      "postcode": "7480-153",
      "city": "AVIS",
      "lon": "-7.893071475274593",
      "lat": "39.05531304140169"
    },
    {
      "id": "pt.ine.add.PTCONT.3467573",
      "street": "AV BRASIL",
      "house": "4",
      "postcode": "7480-104",
      "city": "AVIS",
      "lon": "-7.892796521705473",
      "lat": "39.055071125997706"
    },
    {
      "id": "pt.ine.add.PTCONT.3477321",
      "street": "R PLANO DE URBANIZAÇÃO",
      "house": "19",
      "postcode": "7480-150",
      "city": "AVIS",
      "lon": "-7.892539742721358",
      "lat": "39.05530888141659"
    },
    {
      "id": "pt.ine.add.PTCONT.3477889",
      "street": "R PLANO DE URBANIZAÇÃO",
      "house": "19",
      "postcode": "7480-150",
      "city": "AVIS",
      "lon": "-7.892539742721358",
      "lat": "39.05530888141659"
    },
    {
      "id": "pt.ine.add.PTCONT.3489062",
      "street": "R PLANO DE URBANIZAÇÃO",
      "house": "15",
      "postcode": "7480-150",
      "city": "AVIS",
      "lon": "-7.892432228798163",
      "lat": "39.0552530878009"
    },
    {
      "id": "pt.ine.add.PTCONT.3490991",
      "street": "R PLANO DE URBANIZAÇÃO",
      "house": "27",
      "postcode": "7480-150",
      "city": "AVIS",
      "lon": "-7.892860572567233",
      "lat": "39.05545843109969"
    },
    {
      "id": "pt.ine.add.PTCONT.3495609",
      "street": "R PLANO DE URBANIZAÇÃO",
      "house": "21",
      "postcode": "7480-150",
      "city": "AVIS",
      "lon": "-7.892659167733963",
      "lat": "39.05536774948044"
    },
    {
      "id": "pt.ine.add.PTCONT.3510879",
      "street": "R PLANO",
      "house": "23",
      "postcode": "7480-150",
      "city": "AVIS",
      "lon": "-7.892768313605335",
      "lat": "39.05541015187309"
    },
    {
      "id": "pt.ine.add.PTCONT.3510935",
      "street": "R PLANO URBANIZAÇÃO",
      "house": "25",
      "postcode": "7480-150",
      "city": "AVIS",
      "lon": "-7.892768313605335",
      "lat": "39.05541015187309"
    }
  ]
}