{
  "data": {
    "distrito": "Guarda",
    "concelho": "Guarda",
    "freguesia": "União de freguesias de Avelãs de Ambom e Rocamondo",
    "OBJECTID": 286,
    "BGRI2021": "09076100109",
    "DT21": "09",
    "DTMN21": "0907",
    "DTMNFR21": "090761",
    "DTMNFRSEC21": "090761001",
    "SECNUM21": "001",
    "SSNUM21": "09",
    "SECSSNUM21": "00109",
    "OBJECTID_1": 78367,
    "DT": "09",
    "CC": "07",
    "fr": "61",
    "SEC": "001",
    "SS": "09"
  },
  "addresses": [
    {
      "id": "pt.ine.add.PTCONT.1899565",
      "street": "QTA DO BILRO",
      "house": "",
      "postcode": "6300-040",
      "city": "AVELÃS DE AMBOM",
      "lon": "-7.250934310210688",
      "lat": "40.60649177165456"
    },
    {
      "id": "pt.ine.add.PTCONT.1903353",
      "street": "QTA DO PRAZO",
      "house": "",
      "postcode": "6300-040",
      "city": "AVELÃS DE AMBOM",
      "lon": "-7.245822490666683",
      "lat": "40.60795646224315"
    },
    {
      "id": "pt.ine.add.PTCONT.1918086",
      "street": "QTA DE TALETE",
      "house": "",
      "postcode": "6300-040",
      "city": "AVELÃS DE AMBOM",
      "lon": "-7.233666434711238",
      "lat": "40.60514289871838"
    },
    {
      "id": "pt.ine.add.PTCONT.1945699",
      "street": "QTA DO CARVALHO",
      "house": "",
      "postcode": "6300-040",
      "city": "AVELÃS DE AMBOM",
      "lon": "-7.243782060072266",
      "lat": "40.603222103805216"
    },
    {
      "id": "pt.ine.add.PTCONT.1959951",
      "street": "R DR AMÂNDIO PAUL",
      "house": "",
      "postcode": "6300-040",
      "city": "AVELÃS DE AMBOM",
      "lon": "-7.244312890719278",
      "lat": "40.61577026576758"
    },
    {
      "id": "pt.ine.add.PTCONT.1851177",
      "street": "QTA DAS TRIGUEIRAS",
      "house": "",
      "postcode": "6300-040",
      "city": "AVELÃS DE AMBOM",
      "lon": "-7.225433097620983",
      "lat": "40.60675343086313"
    },
    {
      "id": "pt.ine.add.PTCONT.1857241",
      "street": "R DO CRUZEIRO",
      "house": "",
      "postcode": "6300-040",
      "city": "AVELÃS DE AMBOM",
      "lon": "-7.243917001558037",
      "lat": "40.61532596991199"
    },
    {
      "id": "pt.ine.add.PTCONT.1866143",
      "street": "R DO CRUZEIRO",
      "house": "",
      "postcode": "6300-040",
      "city": "AVELÃS DE AMBOM",
      "lon": "-7.243684387912808",
      "lat": "40.61504502151447"
    },
    {
      "id": "pt.ine.add.PTCONT.1871537",
      "street": "QTA DA SERRA",
      "house": "",
      "postcode": "6300-040",
      "city": "AVELÃS DE AMBOM",
      "lon": "-7.2368775704194315",
      "lat": "40.60622145611047"
    }
  ]
}