{
  "data": {
    "distrito": "Porto",
    "concelho": "Póvoa de Varzim",
    "freguesia": "Balazar",
    "OBJECTID": 584,
    "BGRI2021": "13130500110",
    "DT21": "13",
    "DTMN21": "1313",
    "DTMNFR21": "131305",
    "DTMNFRSEC21": "131305001",
    "SECNUM21": "001",
    "SSNUM21": "10",
    "SECSSNUM21": "00110",
    "OBJECTID_1": 140067,
    "DT": "13",
    "CC": "13",
    "fr": "05",
    "SEC": "001",
    "SS": "10"
  },
  "addresses": [
    {
      "id": "pt.ine.add.PTCONT.3549828",
      "street": "R BOUCA DO CUME",
      "house": "163",
      "postcode": "4570-120",
      "city": "BALAZAR PVZ",
      "lon": "-8.617148747049574",
      "lat": "41.397891299621676"
    },
    {
      "id": "pt.ine.add.PTCONT.3590281",
      "street": "R PADRE LINO DA SILVA ARAÚJO",
      "house": "",
      "postcode": "4570-078",
      "city": "BALAZAR PVZ",
      "lon": "-8.619101072122557",
      "lat": "41.399926971131904"
    },
    {
      "id": "pt.ine.add.PTCONT.3648149",
      "street": "R DA BOUÇA DO CUME",
      "house": "152",
      "postcode": "4570-120",
      "city": "BALAZAR PVZ",
      "lon": "-8.617674806009543",
      "lat": "41.39788008147843"
    },
    {
      "id": "pt.ine.add.PTCONT.3732773",
      "street": "R BOUÇA DO CUME",
      "house": "222",
      "postcode": "4570-012",
      "city": "BALAZAR PVZ",
      "lon": "-8.616871122897866",
      "lat": "41.39754131229799"
    },
    {
      "id": "pt.ine.add.PTCONT.3764967",
      "street": "R PADRE LINO DA SILVA ARAÚJO",
      "house": "",
      "postcode": "4570-078",
      "city": "BALAZAR PVZ",
      "lon": "-8.619198277410051",
      "lat": "41.40013365176584"
    },
    {
      "id": "pt.ine.add.PTCONT.3980449",
      "street": "R BOUCA DO CUME",
      "house": "55",
      "postcode": "4570-120",
      "city": "BALAZAR PVZ",
      "lon": "-8.617956584670349",
      "lat": "41.3987882954437"
    },
    {
      "id": "pt.ine.add.PTCONT.4042772",
      "street": "R PADRE LINO DA SILVA ARAÚJO",
      "house": "",
      "postcode": "4570-078",
      "city": "BALAZAR PVZ",
      "lon": "-8.619173892170636",
      "lat": "41.40007072701164"
    },
    {
      "id": "pt.ine.add.PTCONT.4067107",
      "street": "R CAMINHO LARGO",
      "house": "571",
      "postcode": "4570-058",
      "city": "BALAZAR PVZ",
      "lon": "-8.617215881482274",
      "lat": "41.39726974317808"
    },
    {
      "id": "pt.ine.add.PTCONT.4225983",
      "street": "R PADRE LINO DA SILVA ARAÚJO",
      "house": "",
      "postcode": "4570-078",
      "city": "BALAZAR PVZ",
      "lon": "-8.61906479636355",
      "lat": "41.39987310054077"
    },
    {
      "id": "pt.ine.add.PTCONT.4258640",
      "street": "R DO CAMINHO LARGO",
      "house": "548",
      "postcode": "4570-537",
      "city": "BALAZAR PVZ",
      "lon": "-8.617820502400445",
      "lat": "41.39817659884149"
    }
  ]
}