{
  "data": {
    "distrito": "Évora",
    "concelho": "Évora",
    "freguesia": "União das freguesias de Bacelo e Senhora da Saúde",
    "OBJECTID": 1080,
    "BGRI2021": "07052200203",
    "DT21": "07",
    "DTMN21": "0705",
    "DTMNFR21": "070522",
    "DTMNFRSEC21": "070522002",
    "SECNUM21": "002",
    "SSNUM21": "03",
    "SECSSNUM21": "00203",
    "OBJECTID_1": 60599,
    "DT": "07",
    "CC": "05",
    "fr": "22",
    "SEC": "002",
    "SS": "03"
  },
  "addresses": [
    {
      "id": "pt.ine.add.PTCONT.1389797",
      "street": "R S MARCOS ABOBODA",
      "house": "6",
      "postcode": "7005-606",
      "city": "ÉVORA",
      "lon": "-7.900066960672015",
      "lat": "38.56596587798203"
    },
    {
      "id": "pt.ine.add.PTCONT.1390062",
      "street": "R S MARCOS DA ABÓBODA",
      "house": "6",
      "postcode": "7005-606",
      "city": "ÉVORA",
      "lon": "-7.900066960672015",
      "lat": "38.56596587798203"
    },
    {
      "id": "pt.ine.add.PTCONT.1394307",
      "street": "R CONDE DE MONSARAZ",
      "house": "52",
      "postcode": "7005-331",
      "city": "ÉVORA",
      "lon": "-7.899708970973416",
      "lat": "38.56583103858753"
    },
    {
      "id": "pt.ine.add.PTCONT.1395354",
      "street": "R D MANUEL DA CONCEIÇÃO SANTOS",
      "house": "19",
      "postcode": "7005-451",
      "city": "ÉVORA",
      "lon": "-7.899867365702214",
      "lat": "38.56646766308797"
    },
    {
      "id": "pt.ine.add.PTCONT.1400501",
      "street": "R D MANUEL DA CONCEIÇÃO SANTOS",
      "house": "21",
      "postcode": "7005-451",
      "city": "ÉVORA",
      "lon": "-7.9000005867544925",
      "lat": "38.56644075910071"
    },
    {
      "id": "pt.ine.add.PTCONT.1409996",
      "street": "R D MANUEL DA CONCEIÇÃO SANTOS",
      "house": "23",
      "postcode": "7005-451",
      "city": "ÉVORA",
      "lon": "-7.9001773724901305",
      "lat": "38.56640393331714"
    },
    {
      "id": "pt.ine.add.PTCONT.1409997",
      "street": "R D MANUEL DA CONCEIÇÃO SANTOS",
      "house": "17",
      "postcode": "7005-451",
      "city": "ÉVORA",
      "lon": "-7.899639284759788",
      "lat": "38.56648493696029"
    },
    {
      "id": "pt.ine.add.PTCONT.1419370",
      "street": "R CONDE DE MONSARAZ",
      "house": "50",
      "postcode": "7005-331",
      "city": "ÉVORA",
      "lon": "-7.899909753865941",
      "lat": "38.56597686145525"
    },
    {
      "id": "pt.ine.add.PTCONT.1423002",
      "street": "R S MARCOS DA ABOBODA",
      "house": "2",
      "postcode": "7005-606",
      "city": "ÉVORA",
      "lon": "-7.900131554100302",
      "lat": "38.566322910615334"
    },
    {
      "id": "pt.ine.add.PTCONT.1423003",
      "street": "R S MARCOS DA ABOBODA",
      "house": "2",
      "postcode": "7005-606",
      "city": "ÉVORA",
      "lon": "-7.900131554100302",
      "lat": "38.566322910615334"
    },
    {
      "id": "pt.ine.add.PTCONT.1423004",
      "street": "R S MARCOS DA ABOBODA",
      "house": "2",
      "postcode": "7005-606",
      "city": "ÉVORA",
      "lon": "-7.900131554100302",
      "lat": "38.566322910615334"
    },
    {
      "id": "pt.ine.add.PTCONT.1423005",
      "street": "R S MARCOS DA ABOBODA",
      "house": "2",
      "postcode": "7005-606",
      "city": "ÉVORA",
      "lon": "-7.900131554100302",
      "lat": "38.566322910615334"
    },
    {
      "id": "pt.ine.add.PTCONT.1423006",
      "street": "R S MARCOS DA ABOBODA",
      "house": "2",
      "postcode": "7005-606",
      "city": "ÉVORA",
      "lon": "-7.900131554100302",
      "lat": "38.566322910615334"
    },
    {
      "id": "pt.ine.add.PTCONT.1423187",
      "street": "R S MARCOS DA ABOBODA",
      "house": "2",
      "postcode": "7005-606",
      "city": "ÉVORA",
      "lon": "-7.900131554100302",
      "lat": "38.566322910615334"
    },
    {
      "id": "pt.ine.add.PTCONT.1433599",
      "street": "R AZARUJA",
      "house": "2",
      "postcode": "7005-343",
      "city": "ÉVORA",
      "lon": "-7.899908550946108",
      "lat": "38.56572776759711"
    },
    {
      "id": "pt.ine.add.PTCONT.1433819",
      "street": "R S MARCOS DA ABOBODA",
      "house": "8",
      "postcode": "7005-606",
      "city": "ÉVORA",
      "lon": "-7.900120604177124",
      "lat": "38.56582299431819"
    },
    {
      "id": "pt.ine.add.PTCONT.1437506",
      "street": "R S MARCOS ABOBODA",
      "house": "4",
      "postcode": "7005-606",
      "city": "ÉVORA",
      "lon": "-7.900092264906688",
      "lat": "38.56608189357452"
    },
    {
      "id": "pt.ine.add.PTCONT.1437628",
      "street": "R S MARCOS DA ABÓBODA",
      "house": "4",
      "postcode": "7005-606",
      "city": "ÉVORA",
      "lon": "-7.900092264906688",
      "lat": "38.56608189357452"
    },
    {
      "id": "pt.ine.add.PTCONT.1444990",
      "street": "R CONDE DE MONSARAZ",
      "house": "48",
      "postcode": "7005-331",
      "city": "ÉVORA",
      "lon": "-7.899702260957608",
      "lat": "38.56627372533702"
    },
    {
      "id": "pt.ine.add.PTCONT.1445031",
      "street": "R CONDE DE MONSARAZ",
      "house": "48",
      "postcode": "7005-331",
      "city": "ÉVORA",
      "lon": "-7.899702260957608",
      "lat": "38.56627372533702"
    },
    {
      "id": "pt.ine.add.PTCONT.1461671",
      "street": "R CONDE DE MONSARAZ",
      "house": "52 A",
      "postcode": "7005-331",
      "city": "ÉVORA",
      "lon": "-7.899766129786978",
      "lat": "38.56578282243478"
    }
  ]
}