{
  "data": {
    "distrito": "Faro",
    "concelho": "Albufeira",
    "freguesia": "Albufeira e Olhos de Água",
    "OBJECTID": 592,
    "BGRI2021": "08010600408",
    "DT21": "08",
    "DTMN21": "0801",
    "DTMNFR21": "080106",
    "DTMNFRSEC21": "080106004",
    "SECNUM21": "004",
    "SSNUM21": "08",
    "SECSSNUM21": "00408",
    "OBJECTID_1": 64641,
    "DT": "08",
    "CC": "01",
    "fr": "06",
    "SEC": "004",
    "SS": "08"
  },
  "addresses": [
    {
      "id": "pt.ine.add.PTCONT.1489870",
      "street": "R OLIVEIRA MARTINS",
      "house": "",
      "postcode": "8200-619",
      "city": "ALBUFEIRA",
      "lon": "-8.221255901127087",
      "lat": "37.08908634256305"
    },
    {
      "id": "pt.ine.add.PTCONT.1497832",
      "street": "ESTR STA EULALIA",
      "house": "",
      "postcode": "8200-269",
      "city": "ALBUFEIRA",
      "lon": "-8.219737587352704",
      "lat": "37.08918657889208"
    },
    {
      "id": "pt.ine.add.PTCONT.1550647",
      "street": "QTA STA EULÁLIA",
      "house": "",
      "postcode": "8200-381",
      "city": "ALBUFEIRA",
      "lon": "-8.218316735782409",
      "lat": "37.08592573922103"
    },
    {
      "id": "pt.ine.add.PTCONT.1550665",
      "street": "ESTR STA EULÁLIA",
      "house": "",
      "postcode": "8200-381",
      "city": "ALBUFEIRA",
      "lon": "-8.22088470940889",
      "lat": "37.08906859650472"
    },
    {
      "id": "pt.ine.add.PTCONT.1559655",
      "street": "R PRAIA STA EULÁLIA",
      "house": "",
      "postcode": "8200-381",
      "city": "ALBUFEIRA",
      "lon": "-8.216454653853816",
      "lat": "37.090441416676"
    },
    {
      "id": "pt.ine.add.PTCONT.1580072",
      "street": "R PRAIA STA EULÁLIA",
      "house": "",
      "postcode": "8200-381",
      "city": "ALBUFEIRA",
      "lon": "-8.216744017481243",
      "lat": "37.08763888967997"
    },
    {
      "id": "pt.ine.add.PTCONT.1591545",
      "street": "QTA STA EULÁLIA",
      "house": "",
      "postcode": "8200-381",
      "city": "ALBUFEIRA",
      "lon": "-8.217957861883326",
      "lat": "37.086854097558415"
    },
    {
      "id": "pt.ine.add.PTCONT.1631832",
      "street": "ESTR STA EULÁLIA",
      "house": "",
      "postcode": "8200-381",
      "city": "ALBUFEIRA",
      "lon": "-8.217624765825274",
      "lat": "37.090746951796234"
    },
    {
      "id": "pt.ine.add.PTCONT.1643522",
      "street": "ESTR PRAIA STA EULÁLIA",
      "house": "",
      "postcode": "8200-381",
      "city": "ALBUFEIRA",
      "lon": "-8.21542878403718",
      "lat": "37.08829759009033"
    },
    {
      "id": "pt.ine.add.PTCONT.1643523",
      "street": "R PRAIA STA EULÁLIA",
      "house": "",
      "postcode": "8200-381",
      "city": "ALBUFEIRA",
      "lon": "-8.216260783227433",
      "lat": "37.08800866767162"
    },
    {
      "id": "pt.ine.add.PTCONT.1643529",
      "street": "QTA STA EULÁLIA",
      "house": "",
      "postcode": "8200-381",
      "city": "ALBUFEIRA",
      "lon": "-8.217709580602982",
      "lat": "37.08609737699931"
    },
    {
      "id": "pt.ine.add.PTCONT.1709353",
      "street": "QTA STA EULÁLIA",
      "house": "",
      "postcode": "8200-381",
      "city": "ALBUFEIRA",
      "lon": "-8.217474328915799",
      "lat": "37.08694454940122"
    },
    {
      "id": "pt.ine.add.PTCONT.1718089",
      "street": "QTA STA EULÁLIA",
      "house": "",
      "postcode": "8200-381",
      "city": "ALBUFEIRA",
      "lon": "-8.217980718118914",
      "lat": "37.08717846600061"
    },
    {
      "id": "pt.ine.add.PTCONT.1835785",
      "street": "QTA STA EULÁLIA",
      "house": "",
      "postcode": "8200-381",
      "city": "ALBUFEIRA",
      "lon": "-8.218497458172049",
      "lat": "37.08661042167426"
    }
  ]
}