{
  "data": {
    "distrito": "Santarém",
    "concelho": "Mação",
    "freguesia": "União das freguesias de Mação, Penhascoso e Aboboreira",
    "OBJECTID": 507,
    "BGRI2021": "14130900459",
    "DT21": "14",
    "DTMN21": "1413",
    "DTMNFR21": "141309",
    "DTMNFRSEC21": "141309004",
    "SECNUM21": "004",
    "SSNUM21": "59",
    "SECSSNUM21": "00459",
    "OBJECTID_1": 152347,
    "DT": "14",
    "CC": "13",
    "fr": "09",
    "SEC": "004",
    "SS": "59"
  },
  "addresses": [
    {
      "id": "pt.ine.add.PTCONT.4427690",
      "street": "R CASAL",
      "house": "306",
      "postcode": "6120-116",
      "city": "ABOBOREIRA",
      "lon": "-8.095298116348017",
      "lat": "39.611149361336665"
    },
    {
      "id": "pt.ine.add.PTCONT.4478829",
      "street": "R CIMO DO CASAL",
      "house": "33",
      "postcode": "6120-116",
      "city": "ABOBOREIRA",
      "lon": "-8.095204629998136",
      "lat": "39.611752786715044"
    },
    {
      "id": "pt.ine.add.PTCONT.4531153",
      "street": "R PRINCIPAL",
      "house": "",
      "postcode": "6120-116",
      "city": "ABOBOREIRA",
      "lon": "-8.09512344645643",
      "lat": "39.611149304362115"
    },
    {
      "id": "pt.ine.add.PTCONT.4531154",
      "street": "R CIMO",
      "house": "63",
      "postcode": "6120-116",
      "city": "ABOBOREIRA",
      "lon": "-8.09483193814295",
      "lat": "39.61186074616707"
    },
    {
      "id": "pt.ine.add.PTCONT.4532047",
      "street": "R ESCOLA",
      "house": "",
      "postcode": "6120-116",
      "city": "ABOBOREIRA",
      "lon": "-8.095181232354264",
      "lat": "39.61195092874441"
    },
    {
      "id": "pt.ine.add.PTCONT.4539357",
      "street": "R ESCOLA",
      "house": "",
      "postcode": "6120-116",
      "city": "ABOBOREIRA",
      "lon": "-8.09519314737001",
      "lat": "39.611455558458324"
    },
    {
      "id": "pt.ine.add.PTCONT.4539377",
      "street": "ESCNH ESCOLA",
      "house": "386",
      "postcode": "6120-116",
      "city": "ABOBOREIRA",
      "lon": "-8.095495690525182",
      "lat": "39.61186096294197"
    },
    {
      "id": "pt.ine.add.PTCONT.4562148",
      "street": "R PRINCIPAL",
      "house": "102",
      "postcode": "6120-116",
      "city": "ABOBOREIRA",
      "lon": "-8.094250660935666",
      "lat": "39.61014025360028"
    },
    {
      "id": "pt.ine.add.PTCONT.4579238",
      "street": "R ESCOLA",
      "house": "30",
      "postcode": "6120-116",
      "city": "ABOBOREIRA",
      "lon": "-8.095193034368886",
      "lat": "39.61166271489978"
    },
    {
      "id": "pt.ine.add.PTCONT.4589253",
      "street": "R CASAL",
      "house": "336",
      "postcode": "6120-116",
      "city": "ABOBOREIRA",
      "lon": "-8.095437652126302",
      "lat": "39.61151868561658"
    },
    {
      "id": "pt.ine.add.PTCONT.4604168",
      "street": "R PRINCIPAL",
      "house": "",
      "postcode": "6120-116",
      "city": "ABOBOREIRA",
      "lon": "-8.09526323631285",
      "lat": "39.61105027513501"
    },
    {
      "id": "pt.ine.add.PTCONT.4638916",
      "street": "R FONTE",
      "house": "30",
      "postcode": "6120-116",
      "city": "ABOBOREIRA",
      "lon": "-8.095204914869004",
      "lat": "39.611230392204334"
    },
    {
      "id": "pt.ine.add.PTCONT.4649262",
      "street": "R EIRO DO CASAL",
      "house": "",
      "postcode": "6120-116",
      "city": "ABOBOREIRA",
      "lon": "-8.09504158855257",
      "lat": "39.61177975381951"
    }
  ]
}