{
  "data": {
    "distrito": "Aveiro",
    "concelho": "Vale de Cambra",
    "freguesia": "Arões",
    "OBJECTID": 403,
    "BGRI2021": "01190100107",
    "DT21": "01",
    "DTMN21": "0119",
    "DTMNFR21": "011901",
    "DTMNFRSEC21": "011901001",
    "SECNUM21": "001",
    "SSNUM21": "07",
    "SECSSNUM21": "00107",
    "OBJECTID_1": 12000,
    "DT": "01",
    "CC": "19",
    "fr": "01",
    "SEC": "001",
    "SS": "07"
  },
  "addresses": [
    {
      "id": "pt.ine.add.PTCONT.291581",
      "street": "R FONTE",
      "house": "2",
      "postcode": "3730-006",
      "city": "ARÕES",
      "lon": "-8.305883692444413",
      "lat": "40.7832779473578"
    },
    {
      "id": "pt.ine.add.PTCONT.304803",
      "street": "",
      "house": "",
      "postcode": "3730-006",
      "city": "ARÕES",
      "lon": "-8.305434675473105",
      "lat": "40.78372886720468"
    },
    {
      "id": "pt.ine.add.PTCONT.15305",
      "street": "R CABECINHO",
      "house": "115",
      "postcode": "3730-006",
      "city": "ARÕES",
      "lon": "-8.305067675783974",
      "lat": "40.78382846932491"
    },
    {
      "id": "pt.ine.add.PTCONT.39513",
      "street": "R FARMACIA",
      "house": "",
      "postcode": "3730-006",
      "city": "ARÕES",
      "lon": "-8.304607868079323",
      "lat": "40.784693630498076"
    },
    {
      "id": "pt.ine.add.PTCONT.99672",
      "street": "",
      "house": "",
      "postcode": "3730-006",
      "city": "ARÕES",
      "lon": "-8.304476670285936",
      "lat": "40.78435163664435"
    },
    {
      "id": "pt.ine.add.PTCONT.112147",
      "street": "R ANTA",
      "house": "",
      "postcode": "3730-006",
      "city": "ARÕES",
      "lon": "-8.305285688358062",
      "lat": "40.78567416247993"
    },
    {
      "id": "pt.ine.add.PTCONT.122682",
      "street": "",
      "house": "",
      "postcode": "3730-006",
      "city": "ARÕES",
      "lon": "-8.304181025422805",
      "lat": "40.784559189559765"
    },
    {
      "id": "pt.ine.add.PTCONT.170490",
      "street": "R CABECINHO",
      "house": "64",
      "postcode": "3730-006",
      "city": "ARÕES",
      "lon": "-8.305078152371358",
      "lat": "40.78329716055023"
    },
    {
      "id": "pt.ine.add.PTCONT.175277",
      "street": "R ANTA",
      "house": "",
      "postcode": "3730-006",
      "city": "ARÕES",
      "lon": "-8.305488954940634",
      "lat": "40.78639425621412"
    }
  ]
}