{
  "data": {
    "distrito": "Leiria",
    "concelho": "Porto de Mós",
    "freguesia": "Juncal",
    "OBJECTID": 378,
    "BGRI2021": "10160600202",
    "DT21": "10",
    "DTMN21": "1016",
    "DTMNFR21": "101606",
    "DTMNFRSEC21": "101606002",
    "SECNUM21": "002",
    "SSNUM21": "02",
    "SECSSNUM21": "00202",
    "OBJECTID_1": 98491,
    "DT": "10",
    "CC": "16",
    "fr": "06",
    "SEC": "002",
    "SS": "02"
  },
  "addresses": [
    {
      "id": "pt.ine.add.PTCONT.2003519",
      "street": "R ANTÓNIO XAVIER",
      "house": "18",
      "postcode": "2480-078",
      "city": "JUNCAL",
      "lon": "-8.906867821995423",
      "lat": "39.576569204076165"
    },
    {
      "id": "pt.ine.add.PTCONT.2014459",
      "street": "R PIMENTAS",
      "house": "2",
      "postcode": "2480-078",
      "city": "JUNCAL",
      "lon": "-8.906804280691803",
      "lat": "39.57818182654648"
    },
    {
      "id": "pt.ine.add.PTCONT.2047228",
      "street": "ESTR PRINCIPAL",
      "house": "",
      "postcode": "2480-078",
      "city": "JUNCAL",
      "lon": "-8.908068718917763",
      "lat": "39.577804126160935"
    },
    {
      "id": "pt.ine.add.PTCONT.2051552",
      "street": "ESTR PRINCIPAL",
      "house": "139",
      "postcode": "2480-078",
      "city": "JUNCAL",
      "lon": "-8.907717172474191",
      "lat": "39.577590309313834"
    },
    {
      "id": "pt.ine.add.PTCONT.2069148",
      "street": "ESTR PRINCIPAL",
      "house": "197",
      "postcode": "2480-078",
      "city": "JUNCAL",
      "lon": "-8.908136942107527",
      "lat": "39.57765956396741"
    },
    {
      "id": "pt.ine.add.PTCONT.2073122",
      "street": "ESTR PRINCIPAL",
      "house": "135",
      "postcode": "2480-078",
      "city": "JUNCAL",
      "lon": "-8.907338129264273",
      "lat": "39.57804317037821"
    },
    {
      "id": "pt.ine.add.PTCONT.2082977",
      "street": "R BECO DOS PIMENTAS",
      "house": "6",
      "postcode": "2480-078",
      "city": "JUNCAL",
      "lon": "-8.906053641350557",
      "lat": "39.577664433408465"
    },
    {
      "id": "pt.ine.add.PTCONT.2088868",
      "street": "ESTR PRINCIPAL",
      "house": "201",
      "postcode": "2480-078",
      "city": "JUNCAL",
      "lon": "-8.908648110231361",
      "lat": "39.577575093253024"
    },
    {
      "id": "pt.ine.add.PTCONT.2115315",
      "street": "ESTR PRINCIPAL",
      "house": "187",
      "postcode": "2480-078",
      "city": "JUNCAL",
      "lon": "-8.907500460687743",
      "lat": "39.57798804849432"
    },
    {
      "id": "pt.ine.add.PTCONT.2129493",
      "street": "R ANTONIO XAVIER",
      "house": "26",
      "postcode": "2480-078",
      "city": "JUNCAL",
      "lon": "-8.907641641202801",
      "lat": "39.57603265350485"
    },
    {
      "id": "pt.ine.add.PTCONT.2205032",
      "street": "ESTR PRINCIPAL",
      "house": "199",
      "postcode": "2480-078",
      "city": "JUNCAL",
      "lon": "-8.908335189234588",
      "lat": "39.57769426836357"
    },
    {
      "id": "pt.ine.add.PTCONT.2223212",
      "street": "R FARELA",
      "house": "10",
      "postcode": "2480-078",
      "city": "JUNCAL",
      "lon": "-8.905875170942085",
      "lat": "39.57731435907349"
    },
    {
      "id": "pt.ine.add.PTCONT.2237884",
      "street": "R BECO DOS PIMENTAS",
      "house": "4",
      "postcode": "2480-078",
      "city": "JUNCAL",
      "lon": "-8.90641762184114",
      "lat": "39.57795022615396"
    }
  ]
}