{
  "data": {
    "distrito": "Setúbal",
    "concelho": "Setúbal",
    "freguesia": "Setúbal (São Sebastião)",
    "OBJECTID": 274,
    "BGRI2021": "15120503909",
    "DT21": "15",
    "DTMN21": "1512",
    "DTMNFR21": "151205",
    "DTMNFRSEC21": "151205039",
    "SECNUM21": "039",
    "SSNUM21": "09",
    "SECSSNUM21": "03909",
    "OBJECTID_1": 170916,
    "DT": "15",
    "CC": "12",
    "fr": "05",
    "SEC": "039",
    "SS": "09"
  },
  "addresses": [
    {
      "id": "pt.ine.add.PTCONT.4668791",
      "street": "R JOÃO VAZ",
      "house": "7",
      "postcode": "2910-552",
      "city": "SETÚBAL",
      "lon": "-8.877636034242029",
      "lat": "38.52545527742769"
    },
    {
      "id": "pt.ine.add.PTCONT.4677436",
      "street": "AV JAIME CORTESÃO",
      "house": "24",
      "postcode": "2910-538",
      "city": "SETÚBAL",
      "lon": "-8.877990598372605",
      "lat": "38.52517852556576"
    },
    {
      "id": "pt.ine.add.PTCONT.4749417",
      "street": "R CAMPOS RODRIGUES",
      "house": "27",
      "postcode": "2910-452",
      "city": "SETÚBAL",
      "lon": "-8.87784895126908",
      "lat": "38.5255117513738"
    },
    {
      "id": "pt.ine.add.PTCONT.4767606",
      "street": "R JOÃO VAZ",
      "house": "",
      "postcode": "2910-552",
      "city": "SETÚBAL",
      "lon": "-8.877635384548178",
      "lat": "38.525392223361784"
    },
    {
      "id": "pt.ine.add.PTCONT.4828623",
      "street": "AV JAIME CORTESÃO",
      "house": "22",
      "postcode": "2910-538",
      "city": "SETÚBAL",
      "lon": "-8.877898958384899",
      "lat": "38.525188116811414"
    },
    {
      "id": "pt.ine.add.PTCONT.4882191",
      "street": "AV JAIME CORTESÃO",
      "house": "18",
      "postcode": "2910-538",
      "city": "SETÚBAL",
      "lon": "-8.877647406596578",
      "lat": "38.52520877908382"
    },
    {
      "id": "pt.ine.add.PTCONT.4929134",
      "street": "R CAMPOS RODRIGUES",
      "house": "25",
      "postcode": "2910-452",
      "city": "SETÚBAL",
      "lon": "-8.877780151325007",
      "lat": "38.52551218894211"
    },
    {
      "id": "pt.ine.add.PTCONT.5048548",
      "street": "AV JAIME CORTESÃO",
      "house": "20",
      "postcode": "2910-538",
      "city": "SETÚBAL",
      "lon": "-8.877716206253854",
      "lat": "38.5252083415964"
    },
    {
      "id": "pt.ine.add.PTCONT.5066970",
      "street": "R FREDERICO DO NASCIMENTO",
      "house": "8",
      "postcode": "2910-066",
      "city": "SETÚBAL",
      "lon": "-8.878005543233414",
      "lat": "38.525436768215435"
    },
    {
      "id": "pt.ine.add.PTCONT.5101122",
      "street": "R FREDERICO NASCIMENTO",
      "house": "6",
      "postcode": "2910-066",
      "city": "SETÚBAL",
      "lon": "-8.877993426582634",
      "lat": "38.52537378710052"
    }
  ]
}