{
  "data": {
    "distrito": "Viseu",
    "concelho": "Tarouca",
    "freguesia": "União das freguesias de Tarouca e Dálvares",
    "OBJECTID": 34,
    "BGRI2021": "18201300117",
    "DT21": "18",
    "DTMN21": "1820",
    "DTMNFR21": "182013",
    "DTMNFRSEC21": "182013001",
    "SECNUM21": "001",
    "SSNUM21": "17",
    "SECSSNUM21": "00117",
    "OBJECTID_1": 198505,
    "DT": "18",
    "CC": "20",
    "fr": "13",
    "SEC": "001",
    "SS": "17"
  },
  "addresses": [
    {
      "id": "pt.ine.add.PTCONT.5480867",
      "street": "TV OUTEIRO",
      "house": "",
      "postcode": "3610-166",
      "city": "TAROUCA",
      "lon": "-7.777561455265041",
      "lat": "41.00670026865228"
    },
    {
      "id": "pt.ine.add.PTCONT.5489809",
      "street": "",
      "house": "",
      "postcode": "3610-166",
      "city": "TAROUCA",
      "lon": "-7.777834653812139",
      "lat": "41.006737129404726"
    },
    {
      "id": "pt.ine.add.PTCONT.5521370",
      "street": "TV OUTEIRO",
      "house": "",
      "postcode": "3610-166",
      "city": "TAROUCA",
      "lon": "-7.777478926754493",
      "lat": "41.0065739496524"
    },
    {
      "id": "pt.ine.add.PTCONT.5533139",
      "street": "R OUTEIRO",
      "house": "",
      "postcode": "3610-166",
      "city": "TAROUCA",
      "lon": "-7.779637473974546",
      "lat": "41.007481049021884"
    },
    {
      "id": "pt.ine.add.PTCONT.5540777",
      "street": "R TRAVESSA",
      "house": "",
      "postcode": "3610-166",
      "city": "TAROUCA",
      "lon": "-7.777727819406082",
      "lat": "41.006709786278265"
    },
    {
      "id": "pt.ine.add.PTCONT.5583054",
      "street": "",
      "house": "",
      "postcode": "3610-166",
      "city": "TAROUCA",
      "lon": "-7.779612208702391",
      "lat": "41.007760114135586"
    },
    {
      "id": "pt.ine.add.PTCONT.5614748",
      "street": "VALE",
      "house": "84",
      "postcode": "3610-166",
      "city": "TAROUCA",
      "lon": "-7.7794380471783615",
      "lat": "41.00698518429575"
    },
    {
      "id": "pt.ine.add.PTCONT.5639245",
      "street": "AV VALE",
      "house": "",
      "postcode": "3610-166",
      "city": "TAROUCA",
      "lon": "-7.7782632482275105",
      "lat": "41.00661238516447"
    },
    {
      "id": "pt.ine.add.PTCONT.5659665",
      "street": "CRUZ TAROUCA",
      "house": "TAROUCA",
      "postcode": "3610-166",
      "city": "TAROUCA",
      "lon": "-7.779297767235294",
      "lat": "41.00654352835416"
    }
  ]
}