{
  "data": {
    "distrito": "Évora",
    "concelho": "Arraiolos",
    "freguesia": "Igrejinha",
    "OBJECTID": 10,
    "BGRI2021": "07020200102",
    "DT21": "07",
    "DTMN21": "0702",
    "DTMNFR21": "070202",
    "DTMNFRSEC21": "070202001",
    "SECNUM21": "001",
    "SSNUM21": "02",
    "SECSSNUM21": "00102",
    "OBJECTID_1": 58895,
    "DT": "07",
    "CC": "02",
    "fr": "02",
    "SEC": "001",
    "SS": "02"
  },
  "addresses": [
    {
      "id": "pt.ine.add.PTCONT.1377455",
      "street": "HRD HERDADE DO SOBRAL COURELA 2",
      "house": "",
      "postcode": "7040-269",
      "city": "IGREJINHA",
      "lon": "-7.912698342794414",
      "lat": "38.665156351173835"
    },
    {
      "id": "pt.ine.add.PTCONT.1398441",
      "street": "MTE DE CORNEIRINHOS",
      "house": "",
      "postcode": "7040-269",
      "city": "IGREJINHA",
      "lon": "-7.909089072133582",
      "lat": "38.650871392454604"
    },
    {
      "id": "pt.ine.add.PTCONT.1398464",
      "street": "MTE DE CORNEIRINHOS",
      "house": "",
      "postcode": "7040-269",
      "city": "IGREJINHA",
      "lon": "-7.909089072133582",
      "lat": "38.650871392454604"
    },
    {
      "id": "pt.ine.add.PTCONT.1405995",
      "street": "MTE 7 CHAMINÉS",
      "house": "",
      "postcode": "7040-269",
      "city": "IGREJINHA",
      "lon": "-7.887305495312226",
      "lat": "38.66524087029706"
    },
    {
      "id": "pt.ine.add.PTCONT.1431518",
      "street": "MTE DE CORNEIRINHOS",
      "house": "",
      "postcode": "7040-269",
      "city": "IGREJINHA",
      "lon": "-7.9089967511974395",
      "lat": "38.65100633978331"
    },
    {
      "id": "pt.ine.add.PTCONT.1458220",
      "street": "MTE MORTAL",
      "house": "",
      "postcode": "7040-269",
      "city": "IGREJINHA",
      "lon": "-7.90034794143773",
      "lat": "38.67188861360416"
    }
  ]
}