{
  "data": {
    "distrito": "Portalegre",
    "concelho": "Elvas",
    "freguesia": "Caia, São Pedro e Alcáçova",
    "OBJECTID": 190,
    "BGRI2021": "12071300303",
    "DT21": "12",
    "DTMN21": "1207",
    "DTMNFR21": "120713",
    "DTMNFRSEC21": "120713003",
    "SECNUM21": "003",
    "SSNUM21": "03",
    "SECSSNUM21": "00303",
    "OBJECTID_1": 122060,
    "DT": "12",
    "CC": "07",
    "fr": "13",
    "SEC": "003",
    "SS": "03"
  },
  "addresses": [
    {
      "id": "pt.ine.add.PTCONT.3463954",
      "street": "MTE ALFAROFIA",
      "house": "",
      "postcode": "7350-216",
      "city": "ELVAS",
      "lon": "-7.066930899972722",
      "lat": "38.86154043261088"
    },
    {
      "id": "pt.ine.add.PTCONT.3465190",
      "street": "MTE ALFAROFIA",
      "house": "",
      "postcode": "7350-216",
      "city": "ELVAS",
      "lon": "-7.04663670772016",
      "lat": "38.864947430221235"
    },
    {
      "id": "pt.ine.add.PTCONT.3468795",
      "street": "MTE CALDEIRINHAS",
      "house": "",
      "postcode": "7350-216",
      "city": "ELVAS",
      "lon": "-7.051919591407953",
      "lat": "38.874436435971084"
    },
    {
      "id": "pt.ine.add.PTCONT.3474802",
      "street": "MTE CALDEIRAS SECADOR ARROZ",
      "house": "",
      "postcode": "7350-216",
      "city": "ELVAS",
      "lon": "-7.0522261990300565",
      "lat": "38.87853773246258"
    },
    {
      "id": "pt.ine.add.PTCONT.3485384",
      "street": "MTE CALDEIRAS",
      "house": "",
      "postcode": "7350-216",
      "city": "ELVAS",
      "lon": "-7.044983134154063",
      "lat": "38.87745609323387"
    },
    {
      "id": "pt.ine.add.PTCONT.3485385",
      "street": "MTE CALDEIRAS",
      "house": "",
      "postcode": "7350-216",
      "city": "ELVAS",
      "lon": "-7.044983134154063",
      "lat": "38.87745609323387"
    },
    {
      "id": "pt.ine.add.PTCONT.3485386",
      "street": "MTE CALDEIRAS",
      "house": "",
      "postcode": "7350-216",
      "city": "ELVAS",
      "lon": "-7.044983134154063",
      "lat": "38.87745609323387"
    },
    {
      "id": "pt.ine.add.PTCONT.3485387",
      "street": "MTE CALDEIRAS",
      "house": "",
      "postcode": "7350-216",
      "city": "ELVAS",
      "lon": "-7.044983134154063",
      "lat": "38.87745609323387"
    },
    {
      "id": "pt.ine.add.PTCONT.3489848",
      "street": "HRD ALFAROFIA",
      "house": "",
      "postcode": "7350-216",
      "city": "ELVAS",
      "lon": "-7.05394435054862",
      "lat": "38.869320829237616"
    },
    {
      "id": "pt.ine.add.PTCONT.3493600",
      "street": "MTE ENXARA",
      "house": "",
      "postcode": "7350-216",
      "city": "ELVAS",
      "lon": "-7.071923709926003",
      "lat": "38.88372663354964"
    },
    {
      "id": "pt.ine.add.PTCONT.3493601",
      "street": "POMAR CAIA",
      "house": "",
      "postcode": "7350-225",
      "city": "ELVAS",
      "lon": "-7.060904970299923",
      "lat": "38.863872283762404"
    }
  ]
}