{
  "data": {
    "distrito": "Portalegre",
    "concelho": "Elvas",
    "freguesia": "Caia, São Pedro e Alcáçova",
    "OBJECTID": 339,
    "BGRI2021": "12071300325",
    "DT21": "12",
    "DTMN21": "1207",
    "DTMNFR21": "120713",
    "DTMNFRSEC21": "120713003",
    "SECNUM21": "003",
    "SSNUM21": "25",
    "SECSSNUM21": "00325",
    "OBJECTID_1": 122064,
    "DT": "12",
    "CC": "07",
    "fr": "13",
    "SEC": "003",
    "SS": "25"
  },
  "addresses": [
    {
      "id": "pt.ine.add.PTCONT.3459634",
      "street": "QTA QUER CASAR",
      "house": "",
      "postcode": "7350-227",
      "city": "ELVAS",
      "lon": "-7.154232164264631",
      "lat": "38.90892840806753"
    },
    {
      "id": "pt.ine.add.PTCONT.3462676",
      "street": "MTE LAGO",
      "house": "",
      "postcode": "7350-224",
      "city": "",
      "lon": "-7.132153280008158",
      "lat": "38.91477628130774"
    },
    {
      "id": "pt.ine.add.PTCONT.3476768",
      "street": "HORTA DA FREIRA",
      "house": "",
      "postcode": "7350-225",
      "city": "ELVAS",
      "lon": "-7.160063825433365",
      "lat": "38.90795139594852"
    },
    {
      "id": "pt.ine.add.PTCONT.3483479",
      "street": "QTA AMIMOAS",
      "house": "",
      "postcode": "7350-224",
      "city": "",
      "lon": "-7.130419958831138",
      "lat": "38.919148101273095"
    },
    {
      "id": "pt.ine.add.PTCONT.3491036",
      "street": "EN 373 HERDADE REGUENGO",
      "house": "",
      "postcode": "7350-442",
      "city": "",
      "lon": "-7.14785582409096",
      "lat": "38.90649675990896"
    },
    {
      "id": "pt.ine.add.PTCONT.3492556",
      "street": "",
      "house": "",
      "postcode": "7350-224",
      "city": "",
      "lon": "-7.151997482514254",
      "lat": "38.904604009213436"
    },
    {
      "id": "pt.ine.add.PTCONT.3497276",
      "street": "QTA SEPETA",
      "house": "1",
      "postcode": "7350-224",
      "city": "",
      "lon": "-7.159624065220637",
      "lat": "38.90834296062674"
    },
    {
      "id": "pt.ine.add.PTCONT.3503339",
      "street": "OLIVAL ESTANQUEIRO",
      "house": "",
      "postcode": "7350-224",
      "city": "",
      "lon": "-7.157817806918944",
      "lat": "38.91228222710172"
    },
    {
      "id": "pt.ine.add.PTCONT.3503609",
      "street": "EN 373 QTA REGUENGO",
      "house": "",
      "postcode": "7350-227",
      "city": "ELVAS",
      "lon": "-7.14984536270611",
      "lat": "38.90768452304151"
    },
    {
      "id": "pt.ine.add.PTCONT.3504711",
      "street": "EM 1116",
      "house": "",
      "postcode": "7350-442",
      "city": "",
      "lon": "-7.133485471333765",
      "lat": "38.90117720904652"
    },
    {
      "id": "pt.ine.add.PTCONT.3507587",
      "street": "QTA SEPETA",
      "house": "",
      "postcode": "7350-224",
      "city": "",
      "lon": "-7.158197228384092",
      "lat": "38.90913016829141"
    },
    {
      "id": "pt.ine.add.PTCONT.3507649",
      "street": "HERDADE MADALENA TULIO",
      "house": "",
      "postcode": "7350-224",
      "city": "",
      "lon": "-7.154153823281637",
      "lat": "38.90875660651389"
    },
    {
      "id": "pt.ine.add.PTCONT.3507650",
      "street": "OLIVAL BEM QUER CASAR",
      "house": "",
      "postcode": "7350-224",
      "city": "",
      "lon": "-7.157947867788514",
      "lat": "38.909517976638995"
    },
    {
      "id": "pt.ine.add.PTCONT.3518741",
      "street": "HORTAS DAS REGAS HORTA DAS REGAS",
      "house": "",
      "postcode": "7350-240",
      "city": "",
      "lon": "-7.15086868298681",
      "lat": "38.90428309006023"
    },
    {
      "id": "pt.ine.add.PTCONT.3521765",
      "street": "HORTAS DAS REGAS",
      "house": "",
      "postcode": "7350-227",
      "city": "ELVAS",
      "lon": "-7.150249915844719",
      "lat": "38.90459560008981"
    },
    {
      "id": "pt.ine.add.PTCONT.3531049",
      "street": "",
      "house": "",
      "postcode": "7350-240",
      "city": "",
      "lon": "-7.150512281292866",
      "lat": "38.90446541190355"
    },
    {
      "id": "pt.ine.add.PTCONT.3531050",
      "street": "HORAT DAS REGAS",
      "house": "",
      "postcode": "7350-240",
      "city": "",
      "lon": "-7.1509522792218965",
      "lat": "38.90432499240036"
    },
    {
      "id": "pt.ine.add.PTCONT.3532420",
      "street": "HORTA ESTANQUEIRO",
      "house": "",
      "postcode": "7350-224",
      "city": "",
      "lon": "-7.16179889022131",
      "lat": "38.91106356563542"
    }
  ]
}