{
  "data": {
    "distrito": "Bragança",
    "concelho": "Vinhais",
    "freguesia": "Paçó",
    "OBJECTID": 424,
    "BGRI2021": "04121500115",
    "DT21": "04",
    "DTMN21": "0412",
    "DTMNFR21": "041215",
    "DTMNFRSEC21": "041215001",
    "SECNUM21": "001",
    "SSNUM21": "15",
    "SECSSNUM21": "00115",
    "OBJECTID_1": 39832,
    "DT": "04",
    "CC": "12",
    "fr": "15",
    "SEC": "001",
    "SS": "15"
  },
  "addresses": [
    {
      "id": "pt.ine.add.PTCONT.860669",
      "street": "ESTR PRINCIPAL",
      "house": "",
      "postcode": "5320-102",
      "city": "PAÇÓ",
      "lon": "-6.947094297270951",
      "lat": "41.87110314930387"
    },
    {
      "id": "pt.ine.add.PTCONT.860670",
      "street": "ESTR PRINCIPAL",
      "house": "",
      "postcode": "5320-102",
      "city": "PAÇÓ",
      "lon": "-6.947458582740008",
      "lat": "41.870944856160726"
    },
    {
      "id": "pt.ine.add.PTCONT.890622",
      "street": "R DA CALE",
      "house": "",
      "postcode": "5320-102",
      "city": "PAÇÓ",
      "lon": "-6.950502312000176",
      "lat": "41.8711473003896"
    },
    {
      "id": "pt.ine.add.PTCONT.895939",
      "street": "R DO CEMITÉRIO",
      "house": "",
      "postcode": "5320-102",
      "city": "PAÇÓ",
      "lon": "-6.949646923272378",
      "lat": "41.871156494089426"
    },
    {
      "id": "pt.ine.add.PTCONT.899480",
      "street": "R DO CANTO",
      "house": "",
      "postcode": "5320-102",
      "city": "PAÇÓ",
      "lon": "-6.950710362047513",
      "lat": "41.87096938170062"
    },
    {
      "id": "pt.ine.add.PTCONT.915020",
      "street": "R DOS CAMPOS",
      "house": "",
      "postcode": "5320-102",
      "city": "PAÇÓ",
      "lon": "-6.94764145691881",
      "lat": "41.871477924371554"
    },
    {
      "id": "pt.ine.add.PTCONT.927193",
      "street": "R DO CEMITÉRIO",
      "house": "",
      "postcode": "5320-102",
      "city": "PAÇÓ",
      "lon": "-6.94889842644724",
      "lat": "41.87124781127358"
    },
    {
      "id": "pt.ine.add.PTCONT.950260",
      "street": "ESTR PRINCIPAL",
      "house": "",
      "postcode": "5320-102",
      "city": "PAÇÓ",
      "lon": "-6.947276939390344",
      "lat": "41.87099699887268"
    }
  ]
}