{
  "data": {
    "distrito": "Évora",
    "concelho": "Évora",
    "freguesia": "União das freguesias de Bacelo e Senhora da Saúde",
    "OBJECTID": 732,
    "BGRI2021": "07052200411",
    "DT21": "07",
    "DTMN21": "0705",
    "DTMNFR21": "070522",
    "DTMNFRSEC21": "070522004",
    "SECNUM21": "004",
    "SSNUM21": "11",
    "SECSSNUM21": "00411",
    "OBJECTID_1": 61213,
    "DT": "07",
    "CC": "05",
    "fr": "22",
    "SEC": "004",
    "SS": "11"
  },
  "addresses": [
    {
      "id": "pt.ine.add.PTCONT.1385149",
      "street": "ESTR CHAINHA",
      "house": "",
      "postcode": "7005-198",
      "city": "ÉVORA",
      "lon": "-7.911520692678542",
      "lat": "38.591719167131835"
    },
    {
      "id": "pt.ine.add.PTCONT.1385150",
      "street": "ESTR CHAINHA",
      "house": "",
      "postcode": "7005-198",
      "city": "ÉVORA",
      "lon": "-7.911520692678542",
      "lat": "38.591719167131835"
    },
    {
      "id": "pt.ine.add.PTCONT.1388073",
      "street": "ESTR CHAINHA",
      "house": "20",
      "postcode": "7005-198",
      "city": "ÉVORA",
      "lon": "-7.9114991001576165",
      "lat": "38.591988703479146"
    },
    {
      "id": "pt.ine.add.PTCONT.1392026",
      "street": "R DOS SOLDADOS DA PAZ",
      "house": "17",
      "postcode": "7005-623",
      "city": "ÉVORA",
      "lon": "-7.911207776488353",
      "lat": "38.592017261136434"
    },
    {
      "id": "pt.ine.add.PTCONT.1403747",
      "street": "R DO SOL NASCENTE",
      "house": "16",
      "postcode": "7005-443",
      "city": "ÉVORA",
      "lon": "-7.910871657278698",
      "lat": "38.591669570574254"
    },
    {
      "id": "pt.ine.add.PTCONT.1403902",
      "street": "R DO SOL NASCENTE",
      "house": "18",
      "postcode": "7005-443",
      "city": "ÉVORA",
      "lon": "-7.911019685459745",
      "lat": "38.59167051368003"
    },
    {
      "id": "pt.ine.add.PTCONT.1403903",
      "street": "R DO SOL NASCENTE",
      "house": "18",
      "postcode": "7005-443",
      "city": "ÉVORA",
      "lon": "-7.911019685459745",
      "lat": "38.59167051368003"
    },
    {
      "id": "pt.ine.add.PTCONT.1404724",
      "street": "R SOZINHA",
      "house": "3",
      "postcode": "7005-626",
      "city": "ÉVORA",
      "lon": "-7.910661775711277",
      "lat": "38.59188365389978"
    },
    {
      "id": "pt.ine.add.PTCONT.1404725",
      "street": "R SOZINHA",
      "house": "3",
      "postcode": "7005-626",
      "city": "ÉVORA",
      "lon": "-7.910661775711277",
      "lat": "38.59188365389978"
    },
    {
      "id": "pt.ine.add.PTCONT.1409686",
      "street": "R DOS SOLDADOS DA PAZ",
      "house": "11",
      "postcode": "7005-623",
      "city": "ÉVORA",
      "lon": "-7.9107010428894124",
      "lat": "38.592018949539586"
    },
    {
      "id": "pt.ine.add.PTCONT.1422740",
      "street": "R DO SOL NASCENTE",
      "house": "14",
      "postcode": "7005-443",
      "city": "ÉVORA",
      "lon": "-7.910716880648924",
      "lat": "38.591667289327155"
    },
    {
      "id": "pt.ine.add.PTCONT.1426428",
      "street": "R DOS SOLDADOS DA PAZ",
      "house": "19",
      "postcode": "7005-623",
      "city": "ÉVORA",
      "lon": "-7.911331335124585",
      "lat": "38.59201445050864"
    },
    {
      "id": "pt.ine.add.PTCONT.1443878",
      "street": "ESTR CHAINHA",
      "house": "18",
      "postcode": "7005-198",
      "city": "ÉVORA",
      "lon": "-7.91152217067658",
      "lat": "38.59189853555788"
    },
    {
      "id": "pt.ine.add.PTCONT.1445208",
      "street": "AV FERNANDO PESSOA",
      "house": "38",
      "postcode": "7005-152",
      "city": "ÉVORA",
      "lon": "-7.911192299742583",
      "lat": "38.59167408231527"
    },
    {
      "id": "pt.ine.add.PTCONT.1445226",
      "street": "R SOL NASCENTE",
      "house": "20",
      "postcode": "7005-443",
      "city": "ÉVORA",
      "lon": "-7.911192299742583",
      "lat": "38.59167408231527"
    },
    {
      "id": "pt.ine.add.PTCONT.1450818",
      "street": "R DOS SOLDADOS DA PAZ",
      "house": "13",
      "postcode": "7005-623",
      "city": "ÉVORA",
      "lon": "-7.910888572239855",
      "lat": "38.592019701222426"
    },
    {
      "id": "pt.ine.add.PTCONT.1466147",
      "street": "R DOS SOLDADOS DA PAZ",
      "house": "15",
      "postcode": "7005-623",
      "city": "ÉVORA",
      "lon": "-7.911034067096177",
      "lat": "38.592020907049175"
    },
    {
      "id": "pt.ine.add.PTCONT.1466692",
      "street": "R DO SOL NASCENTE",
      "house": "22",
      "postcode": "7005-443",
      "city": "ÉVORA",
      "lon": "-7.911349535332823",
      "lat": "38.59166394775478"
    }
  ]
}