{
  "data": {
    "distrito": "Évora",
    "concelho": "Évora",
    "freguesia": "União das freguesias de Bacelo e Senhora da Saúde",
    "OBJECTID": 778,
    "BGRI2021": "07052200418",
    "DT21": "07",
    "DTMN21": "0705",
    "DTMNFR21": "070522",
    "DTMNFRSEC21": "070522004",
    "SECNUM21": "004",
    "SSNUM21": "18",
    "SECSSNUM21": "00418",
    "OBJECTID_1": 60989,
    "DT": "07",
    "CC": "05",
    "fr": "22",
    "SEC": "004",
    "SS": "18"
  },
  "addresses": [
    {
      "id": "pt.ine.add.PTCONT.1393323",
      "street": "R DOS SOLDADOS DA PAZ",
      "house": "12",
      "postcode": "7005-623",
      "city": "ÉVORA",
      "lon": "-7.910316024190585",
      "lat": "38.592202530258646"
    },
    {
      "id": "pt.ine.add.PTCONT.1404721",
      "street": "R BELA VISTA",
      "house": "",
      "postcode": "7005-346",
      "city": "ÉVORA",
      "lon": "-7.910168583111746",
      "lat": "38.592319823107616"
    },
    {
      "id": "pt.ine.add.PTCONT.1404722",
      "street": "R BELA VISTA",
      "house": "",
      "postcode": "7005-346",
      "city": "ÉVORA",
      "lon": "-7.910168583111746",
      "lat": "38.592319823107616"
    },
    {
      "id": "pt.ine.add.PTCONT.1409149",
      "street": "R DA BELA VISTA",
      "house": "29",
      "postcode": "7005-346",
      "city": "ÉVORA",
      "lon": "-7.910028736113172",
      "lat": "38.59231008343379"
    },
    {
      "id": "pt.ine.add.PTCONT.1424800",
      "street": "R SOLDADOS DA PAZ",
      "house": "",
      "postcode": "7005-623",
      "city": "ÉVORA",
      "lon": "-7.910499368478096",
      "lat": "38.59230197117726"
    },
    {
      "id": "pt.ine.add.PTCONT.1424801",
      "street": "R SOLDADOS DA PAZ",
      "house": "",
      "postcode": "7005-623",
      "city": "ÉVORA",
      "lon": "-7.910499368478096",
      "lat": "38.59230197117726"
    },
    {
      "id": "pt.ine.add.PTCONT.1437856",
      "street": "R BELA VISTA",
      "house": "",
      "postcode": "7005-346",
      "city": "ÉVORA",
      "lon": "-7.909890998200889",
      "lat": "38.59230982081486"
    },
    {
      "id": "pt.ine.add.PTCONT.1451543",
      "street": "R DA BELA VISTA",
      "house": "25",
      "postcode": "7005-346",
      "city": "ÉVORA",
      "lon": "-7.909707519097512",
      "lat": "38.59229303856801"
    }
  ]
}