{
  "data": {
    "distrito": "Viana do Castelo",
    "concelho": "Ponte de Lima",
    "freguesia": "Facha",
    "OBJECTID": 466,
    "BGRI2021": "16071800138",
    "DT21": "16",
    "DTMN21": "1607",
    "DTMNFR21": "160718",
    "DTMNFRSEC21": "160718001",
    "SECNUM21": "001",
    "SSNUM21": "38",
    "SECSSNUM21": "00138",
    "OBJECTID_1": 175621,
    "DT": "16",
    "CC": "07",
    "fr": "18",
    "SEC": "001",
    "SS": "38"
  },
  "addresses": [
    {
      "id": "pt.ine.add.PTCONT.5151142",
      "street": "ESTR COMBATENTES DO ULTRAMAR",
      "house": "",
      "postcode": "4990-600",
      "city": "FACHA",
      "lon": "-8.629707128732523",
      "lat": "41.70988889828039"
    },
    {
      "id": "pt.ine.add.PTCONT.5161429",
      "street": "CAM CAMINHO DOS CASEIRINHOS",
      "house": "",
      "postcode": "4990-600",
      "city": "FACHA",
      "lon": "-8.63007980240482",
      "lat": "41.70991429766021"
    },
    {
      "id": "pt.ine.add.PTCONT.5181533",
      "street": "CAM CAMINHO DOS CASEIROS",
      "house": "134",
      "postcode": "4990-600",
      "city": "FACHA",
      "lon": "-8.63059623412815",
      "lat": "41.71144265483645"
    },
    {
      "id": "pt.ine.add.PTCONT.5196072",
      "street": "CAM CAMINHO DOS CASEIROS",
      "house": "63",
      "postcode": "4990-600",
      "city": "FACHA",
      "lon": "-8.630182164785897",
      "lat": "41.71072416824874"
    },
    {
      "id": "pt.ine.add.PTCONT.5214136",
      "street": "CAM CANCELA",
      "house": "82",
      "postcode": "4990-600",
      "city": "FACHA",
      "lon": "-8.629901448607429",
      "lat": "41.71015816284015"
    },
    {
      "id": "pt.ine.add.PTCONT.5227112",
      "street": "CAM CAMINHO DOS CASEIROS",
      "house": "165",
      "postcode": "4990-600",
      "city": "FACHA",
      "lon": "-8.630597136571279",
      "lat": "41.71155969616102"
    },
    {
      "id": "pt.ine.add.PTCONT.5231672",
      "street": "CAM CAMINHO DOS CASEIROS",
      "house": "",
      "postcode": "4990-600",
      "city": "FACHA",
      "lon": "-8.630267450323263",
      "lat": "41.71087685848094"
    },
    {
      "id": "pt.ine.add.PTCONT.5237730",
      "street": "CAM CAMINHO DOS CASEIROS",
      "house": "102",
      "postcode": "4990-600",
      "city": "FACHA",
      "lon": "-8.630241685727386",
      "lat": "41.710651882929014"
    },
    {
      "id": "pt.ine.add.PTCONT.5247081",
      "street": "CAM CAMINHO DOS CASEIROS",
      "house": "",
      "postcode": "4990-600",
      "city": "FACHA",
      "lon": "-8.630132925097925",
      "lat": "41.71057132205288"
    },
    {
      "id": "pt.ine.add.PTCONT.5260703",
      "street": "BEC DOS CASEIROS",
      "house": "9",
      "postcode": "4990-600",
      "city": "FACHA",
      "lon": "-8.630591860825609",
      "lat": "41.710875454537224"
    }
  ]
}