{
  "data": {
    "distrito": "Braga",
    "concelho": "Vila Verde",
    "freguesia": "Lage",
    "OBJECTID": 1242,
    "BGRI2021": "03132300111",
    "DT21": "03",
    "DTMN21": "0313",
    "DTMNFR21": "031323",
    "DTMNFRSEC21": "031323001",
    "SECNUM21": "001",
    "SSNUM21": "11",
    "SECSSNUM21": "00111",
    "OBJECTID_1": 32482,
    "DT": "03",
    "CC": "13",
    "fr": "23",
    "SEC": "001",
    "SS": "11"
  },
  "addresses": [
    {
      "id": "pt.ine.add.PTCONT.522761",
      "street": "R HOSPITAL CARDEIRA",
      "house": "8",
      "postcode": "4730-243",
      "city": "LAGE",
      "lon": "-8.463245557837668",
      "lat": "41.61827305583131"
    },
    {
      "id": "pt.ine.add.PTCONT.526195",
      "street": "R PROF ABEL MADEIRA",
      "house": "6",
      "postcode": "4730-244",
      "city": "LAGE",
      "lon": "-8.468155964052732",
      "lat": "41.618862093820745"
    },
    {
      "id": "pt.ine.add.PTCONT.547348",
      "street": "R VARZIELA CARDEIRA",
      "house": "19",
      "postcode": "4730-247",
      "city": "LAGE",
      "lon": "-8.461451345326443",
      "lat": "41.619367635630695"
    },
    {
      "id": "pt.ine.add.PTCONT.558852",
      "street": "R HOSPITAL",
      "house": "2",
      "postcode": "4730-243",
      "city": "LAGE",
      "lon": "-8.462106501530057",
      "lat": "41.61842938328076"
    },
    {
      "id": "pt.ine.add.PTCONT.579413",
      "street": "R PROF ABEL MADEIRA",
      "house": "4",
      "postcode": "4730-244",
      "city": "LAGE",
      "lon": "-8.4681547524444",
      "lat": "41.61862800254897"
    },
    {
      "id": "pt.ine.add.PTCONT.646995",
      "street": "R PROF ABEL MADEIRA",
      "house": "12",
      "postcode": "4730-244",
      "city": "LAGE",
      "lon": "-8.467751091845617",
      "lat": "41.619457513709904"
    },
    {
      "id": "pt.ine.add.PTCONT.711935",
      "street": "R PROF ABEL MADEIRA",
      "house": "",
      "postcode": "4730-244",
      "city": "LAGE",
      "lon": "-8.468225856738032",
      "lat": "41.61845672601154"
    },
    {
      "id": "pt.ine.add.PTCONT.729921",
      "street": "R PROF ABEL MADEIRA",
      "house": "16",
      "postcode": "4730-244",
      "city": "LAGE",
      "lon": "-8.467655941680365",
      "lat": "41.61961985625995"
    },
    {
      "id": "pt.ine.add.PTCONT.747282",
      "street": "R PROF ABEL MADEIRA",
      "house": "18",
      "postcode": "4730-244",
      "city": "LAGE",
      "lon": "-8.467596786624528",
      "lat": "41.61978209400063"
    },
    {
      "id": "pt.ine.add.PTCONT.751264",
      "street": "R HOSPITAL LAGOEIRA",
      "house": "10",
      "postcode": "4730-243",
      "city": "LAGE",
      "lon": "-8.463389353134364",
      "lat": "41.61823662820708"
    },
    {
      "id": "pt.ine.add.PTCONT.789705",
      "street": "R VARZIELA SARRELA",
      "house": "19",
      "postcode": "4730-247",
      "city": "LAGE",
      "lon": "-8.466799453406091",
      "lat": "41.61873098463364"
    },
    {
      "id": "pt.ine.add.PTCONT.795148",
      "street": "R HOSPITAL CARDEIRA",
      "house": "22",
      "postcode": "4730-243",
      "city": "LAGE",
      "lon": "-8.464980042460875",
      "lat": "41.617241645849994"
    }
  ]
}