{
  "data": {
    "distrito": "Porto",
    "concelho": "Amarante",
    "freguesia": "Candemil",
    "OBJECTID": 1357,
    "BGRI2021": "13010700103",
    "DT21": "13",
    "DTMN21": "1301",
    "DTMNFR21": "130107",
    "DTMNFRSEC21": "130107001",
    "SECNUM21": "001",
    "SSNUM21": "03",
    "SECSSNUM21": "00103",
    "OBJECTID_1": 125795,
    "DT": "13",
    "CC": "01",
    "fr": "07",
    "SEC": "001",
    "SS": "03"
  },
  "addresses": [
    {
      "id": "pt.ine.add.PTCONT.3572081",
      "street": "R POUSAO",
      "house": "79",
      "postcode": "4600-553",
      "city": "CANDEMIL AMT",
      "lon": "-7.94531768458725",
      "lat": "41.224805165278774"
    },
    {
      "id": "pt.ine.add.PTCONT.3614418",
      "street": "R CENTRAL DE MURGIDO",
      "house": "",
      "postcode": "4600-553",
      "city": "CANDEMIL AMT",
      "lon": "-7.94393045857322",
      "lat": "41.22611751893092"
    },
    {
      "id": "pt.ine.add.PTCONT.3630092",
      "street": "CAM PORTO AMIEIRO",
      "house": "160 2",
      "postcode": "4600-553",
      "city": "CANDEMIL AMT",
      "lon": "-7.9449290766575995",
      "lat": "41.22307570947727"
    },
    {
      "id": "pt.ine.add.PTCONT.3649090",
      "street": "R CENTRAL MURGIDO",
      "house": "",
      "postcode": "4600-553",
      "city": "CANDEMIL AMT",
      "lon": "-7.944432740041438",
      "lat": "41.22564111641685"
    },
    {
      "id": "pt.ine.add.PTCONT.3668850",
      "street": "CAM PORTO AMIEIRO",
      "house": "336",
      "postcode": "4600-553",
      "city": "CANDEMIL AMT",
      "lon": "-7.944726802002782",
      "lat": "41.22291330172144"
    },
    {
      "id": "pt.ine.add.PTCONT.4088568",
      "street": "CC BARREIROS",
      "house": "17",
      "postcode": "4600-553",
      "city": "CANDEMIL AMT",
      "lon": "-7.944887309220303",
      "lat": "41.2251646336922"
    },
    {
      "id": "pt.ine.add.PTCONT.4212047",
      "street": "CAM PORTO AMIEIRO",
      "house": "48",
      "postcode": "4600-553",
      "city": "CANDEMIL AMT",
      "lon": "-7.9448201683883095",
      "lat": "41.223624792481026"
    },
    {
      "id": "pt.ine.add.PTCONT.4306971",
      "street": "R CENTRAL DE MURGIDO",
      "house": "544",
      "postcode": "4600-553",
      "city": "CANDEMIL AMT",
      "lon": "-7.942762165515216",
      "lat": "41.225944512476964"
    },
    {
      "id": "pt.ine.add.PTCONT.4313498",
      "street": "R CENTRAL DE MURGIDO",
      "house": "516",
      "postcode": "4600-553",
      "city": "CANDEMIL AMT",
      "lon": "-7.942952544276348",
      "lat": "41.2260978996824"
    },
    {
      "id": "pt.ine.add.PTCONT.4313499",
      "street": "CC BARREIROS",
      "house": "85",
      "postcode": "4600-553",
      "city": "CANDEMIL AMT",
      "lon": "-7.944470485699652",
      "lat": "41.224956853276694"
    },
    {
      "id": "pt.ine.add.PTCONT.4354605",
      "street": "CAM PORTO AMIEIRO",
      "house": "160 1",
      "postcode": "4600-553",
      "city": "CANDEMIL AMT",
      "lon": "-7.944535135000987",
      "lat": "41.22321012924078"
    },
    {
      "id": "pt.ine.add.PTCONT.4354606",
      "street": "CC BARREIROS",
      "house": "26",
      "postcode": "4600-553",
      "city": "CANDEMIL AMT",
      "lon": "-7.9450913450185405",
      "lat": "41.22471475317851"
    }
  ]
}