{
  "data": {
    "distrito": "Viana do Castelo",
    "concelho": "Vila Nova de Cerveira",
    "freguesia": "Cornes",
    "OBJECTID": 144,
    "BGRI2021": "16100300106",
    "DT21": "16",
    "DTMN21": "1610",
    "DTMNFR21": "161003",
    "DTMNFRSEC21": "161003001",
    "SECNUM21": "001",
    "SSNUM21": "06",
    "SECSSNUM21": "00106",
    "OBJECTID_1": 179343,
    "DT": "16",
    "CC": "10",
    "fr": "03",
    "SEC": "001",
    "SS": "06"
  },
  "addresses": [
    {
      "id": "pt.ine.add.PTCONT.5148163",
      "street": "R FURAO",
      "house": "8",
      "postcode": "4920-030",
      "city": "CORNES",
      "lon": "-8.68203809241564",
      "lat": "41.9442495898665"
    },
    {
      "id": "pt.ine.add.PTCONT.5158756",
      "street": "R FURAO",
      "house": "2",
      "postcode": "4920-030",
      "city": "CORNES",
      "lon": "-8.679911219448787",
      "lat": "41.945142043286396"
    },
    {
      "id": "pt.ine.add.PTCONT.5183118",
      "street": "R PROF SILVINA GONÃ‡ALVES",
      "house": "J0",
      "postcode": "4920-030",
      "city": "CORNES",
      "lon": "-8.681976022363104",
      "lat": "41.944042815118934"
    },
    {
      "id": "pt.ine.add.PTCONT.5193206",
      "street": "R SENHORA DO PILAR",
      "house": "",
      "postcode": "4920-030",
      "city": "CORNES",
      "lon": "-8.681875985505691",
      "lat": "41.94503363512826"
    },
    {
      "id": "pt.ine.add.PTCONT.5211242",
      "street": "R VALINHA",
      "house": "10",
      "postcode": "4920-030",
      "city": "CORNES",
      "lon": "-8.679741639526046",
      "lat": "41.946466307355266"
    },
    {
      "id": "pt.ine.add.PTCONT.5235963",
      "street": "R VALINHA",
      "house": "2",
      "postcode": "4920-030",
      "city": "CORNES",
      "lon": "-8.679773971686245",
      "lat": "41.94601599815396"
    },
    {
      "id": "pt.ine.add.PTCONT.5242868",
      "street": "R FURAO",
      "house": "4",
      "postcode": "4920-030",
      "city": "CORNES",
      "lon": "-8.67992227836581",
      "lat": "41.94502495022657"
    },
    {
      "id": "pt.ine.add.PTCONT.5254552",
      "street": "R VALINHA",
      "house": "6",
      "postcode": "4920-030",
      "city": "CORNES",
      "lon": "-8.679902852930894",
      "lat": "41.945574232248376"
    },
    {
      "id": "pt.ine.add.PTCONT.5259503",
      "street": "R VALINHA",
      "house": "8",
      "postcode": "4920-030",
      "city": "CORNES",
      "lon": "-8.67988887072549",
      "lat": "41.94534922117565"
    },
    {
      "id": "pt.ine.add.PTCONT.5259504",
      "street": "R VALINHA",
      "house": "8",
      "postcode": "4920-030",
      "city": "CORNES",
      "lon": "-8.67988887072549",
      "lat": "41.94534922117565"
    }
  ]
}