{
  "data": {
    "distrito": "Vila Real",
    "concelho": "Chaves",
    "freguesia": "Vilela Seca",
    "OBJECTID": 553,
    "BGRI2021": "17034800102",
    "DT21": "17",
    "DTMN21": "1703",
    "DTMNFR21": "170348",
    "DTMNFRSEC21": "170348001",
    "SECNUM21": "001",
    "SSNUM21": "02",
    "SECSSNUM21": "00102",
    "OBJECTID_1": 181501,
    "DT": "17",
    "CC": "03",
    "fr": "48",
    "SEC": "001",
    "SS": "02"
  },
  "addresses": [
    {
      "id": "pt.ine.add.PTCONT.5309079",
      "street": "ESTR DA BARREIRINHA",
      "house": "63 B",
      "postcode": "5400-820",
      "city": "VILELA SECA",
      "lon": "-7.461575486011881",
      "lat": "41.81616687175114"
    },
    {
      "id": "pt.ine.add.PTCONT.5317227",
      "street": "ESTR DA BARREIRINHA",
      "house": "63",
      "postcode": "5400-820",
      "city": "VILELA SECA",
      "lon": "-7.46191771813673",
      "lat": "41.81681710843135"
    },
    {
      "id": "pt.ine.add.PTCONT.5333080",
      "street": "ESTR DA BARREIRINHA",
      "house": "63 A",
      "postcode": "5400-820",
      "city": "VILELA SECA",
      "lon": "-7.461728737448661",
      "lat": "41.816473879244384"
    },
    {
      "id": "pt.ine.add.PTCONT.5343179",
      "street": "ESTR DA BARREIRINHA",
      "house": "65",
      "postcode": "5400-820",
      "city": "VILELA SECA",
      "lon": "-7.4611740299301434",
      "lat": "41.815426254711056"
    },
    {
      "id": "pt.ine.add.PTCONT.5362751",
      "street": "R DA TORGA",
      "house": "61 A",
      "postcode": "5400-820",
      "city": "VILELA SECA",
      "lon": "-7.463014015966162",
      "lat": "41.817867889888575"
    },
    {
      "id": "pt.ine.add.PTCONT.5394134",
      "street": "ESTR DA BARREIRINHA",
      "house": "69",
      "postcode": "5400-820",
      "city": "VILELA SECA",
      "lon": "-7.460619999535694",
      "lat": "41.814315608291"
    },
    {
      "id": "pt.ine.add.PTCONT.5402810",
      "street": "ESTR DA BARREIRINHA",
      "house": "61",
      "postcode": "5400-820",
      "city": "VILELA SECA",
      "lon": "-7.462696603836941",
      "lat": "41.818298195298524"
    },
    {
      "id": "pt.ine.add.PTCONT.5404713",
      "street": "R TORGA SN",
      "house": "SN",
      "postcode": "5400-820",
      "city": "VILELA SECA",
      "lon": "-7.4641993727831",
      "lat": "41.81846001206555"
    },
    {
      "id": "pt.ine.add.PTCONT.5425359",
      "street": "TORGA",
      "house": "",
      "postcode": "5400-820",
      "city": "VILELA SECA",
      "lon": "-7.463395846958119",
      "lat": "41.81818523159495"
    }
  ]
}