{
  "data": {
    "distrito": "Viseu",
    "concelho": "Viseu",
    "freguesia": "Campo",
    "OBJECTID": 1941,
    "BGRI2021": "18230600333",
    "DT21": "18",
    "DTMN21": "1823",
    "DTMNFR21": "182306",
    "DTMNFRSEC21": "182306003",
    "SECNUM21": "003",
    "SSNUM21": "33",
    "SECSSNUM21": "00333",
    "OBJECTID_1": 202301,
    "DT": "18",
    "CC": "23",
    "fr": "06",
    "SEC": "003",
    "SS": "33"
  },
  "addresses": [
    {
      "id": "pt.ine.add.PTCONT.5471010",
      "street": "R CAL",
      "house": "",
      "postcode": "3515-404",
      "city": "VISEU",
      "lon": "-7.926874426491434",
      "lat": "40.707553769676764"
    },
    {
      "id": "pt.ine.add.PTCONT.5486314",
      "street": "R PORTO",
      "house": "28",
      "postcode": "3515-425",
      "city": "VISEU",
      "lon": "-7.927806085488942",
      "lat": "40.708591014988635"
    },
    {
      "id": "pt.ine.add.PTCONT.5511043",
      "street": "R PORTO",
      "house": "",
      "postcode": "3515-425",
      "city": "VISEU",
      "lon": "-7.928137702185375",
      "lat": "40.70850155342502"
    },
    {
      "id": "pt.ine.add.PTCONT.5543835",
      "street": "R BACELOS",
      "house": "",
      "postcode": "3515-403",
      "city": "VISEU",
      "lon": "-7.925098967123338",
      "lat": "40.707694665583425"
    },
    {
      "id": "pt.ine.add.PTCONT.5561734",
      "street": "R CAL",
      "house": "6",
      "postcode": "3515-404",
      "city": "VISEU",
      "lon": "-7.927347956834997",
      "lat": "40.70749157905531"
    },
    {
      "id": "pt.ine.add.PTCONT.5561735",
      "street": "R SALGUEIRO",
      "house": "18",
      "postcode": "3515-426",
      "city": "VISEU",
      "lon": "-7.929012397157721",
      "lat": "40.70882728616459"
    },
    {
      "id": "pt.ine.add.PTCONT.5571711",
      "street": "R CAL",
      "house": "",
      "postcode": "3515-404",
      "city": "VISEU",
      "lon": "-7.926222725171176",
      "lat": "40.707831761223034"
    },
    {
      "id": "pt.ine.add.PTCONT.5661059",
      "street": "R OUTEIRAL",
      "house": "",
      "postcode": "3515-401",
      "city": "VISEU",
      "lon": "-7.927110928167112",
      "lat": "40.707608222446645"
    }
  ]
}