{
  "data": {
    "distrito": "Viseu",
    "concelho": "Moimenta da Beira",
    "freguesia": "Alvite",
    "OBJECTID": 120,
    "BGRI2021": "18070200116",
    "DT21": "18",
    "DTMN21": "1807",
    "DTMNFR21": "180702",
    "DTMNFRSEC21": "180702001",
    "SECNUM21": "001",
    "SSNUM21": "16",
    "SECSSNUM21": "00116",
    "OBJECTID_1": 192366,
    "DT": "18",
    "CC": "07",
    "fr": "02",
    "SEC": "001",
    "SS": "16"
  },
  "addresses": [
    {
      "id": "pt.ine.add.PTCONT.5449410",
      "street": "AV URGUEIRA",
      "house": "9",
      "postcode": "3620-025",
      "city": "ALVITE MBR",
      "lon": "-7.7126741770981875",
      "lat": "40.97633441138242"
    },
    {
      "id": "pt.ine.add.PTCONT.5458602",
      "street": "R TRAS DO OUTEIRO",
      "house": "2",
      "postcode": "3620-053",
      "city": "ALVITE MBR",
      "lon": "-7.712215199013376",
      "lat": "40.9775123441449"
    },
    {
      "id": "pt.ine.add.PTCONT.5500027",
      "street": "R TRAS DO OUTEIRO",
      "house": "4",
      "postcode": "3620-053",
      "city": "ALVITE MBR",
      "lon": "-7.711847566923326",
      "lat": "40.977402945741055"
    },
    {
      "id": "pt.ine.add.PTCONT.5549714",
      "street": "R CAPELA",
      "house": "",
      "postcode": "3620-027",
      "city": "ALVITE MBR",
      "lon": "-7.711236224283896",
      "lat": "40.97638318621346"
    },
    {
      "id": "pt.ine.add.PTCONT.5559057",
      "street": "R CRUZEIRO",
      "house": "7",
      "postcode": "3620-025",
      "city": "ALVITE MBR",
      "lon": "-7.712221552014662",
      "lat": "40.976512852593345"
    },
    {
      "id": "pt.ine.add.PTCONT.5563920",
      "street": "R CRUZEIRO",
      "house": "1",
      "postcode": "3620-025",
      "city": "ALVITE MBR",
      "lon": "-7.712351385841921",
      "lat": "40.97664839608835"
    },
    {
      "id": "pt.ine.add.PTCONT.5573255",
      "street": "R LUGAR DA ESTRADA",
      "house": "",
      "postcode": "3620-025",
      "city": "ALVITE MBR",
      "lon": "-7.711439865317696",
      "lat": "40.97612279671309"
    },
    {
      "id": "pt.ine.add.PTCONT.5597350",
      "street": "R CRUZEIRO",
      "house": "1",
      "postcode": "3620-025",
      "city": "ALVITE MBR",
      "lon": "-7.712382909974237",
      "lat": "40.97729684503229"
    }
  ]
}