{
  "data": {
    "distrito": "Coimbra",
    "concelho": "Tábua",
    "freguesia": "Midões",
    "OBJECTID": 410,
    "BGRI2021": "06160800132",
    "DT21": "06",
    "DTMN21": "0616",
    "DTMNFR21": "061608",
    "DTMNFRSEC21": "061608001",
    "SECNUM21": "001",
    "SSNUM21": "32",
    "SECSSNUM21": "00132",
    "OBJECTID_1": 57443,
    "DT": "06",
    "CC": "16",
    "fr": "08",
    "SEC": "001",
    "SS": "32"
  },
  "addresses": [
    {
      "id": "pt.ine.add.PTCONT.1146120",
      "street": "ESTR PRINCIPAL",
      "house": "",
      "postcode": "3420-142",
      "city": "MIDÕES TBU",
      "lon": "-7.914685728781871",
      "lat": "40.387851012772444"
    },
    {
      "id": "pt.ine.add.PTCONT.1146121",
      "street": "QTA DO PICOTO",
      "house": "",
      "postcode": "3420-136",
      "city": "MIDÕES TBU",
      "lon": "-7.915100894639099",
      "lat": "40.386933226640714"
    },
    {
      "id": "pt.ine.add.PTCONT.1146865",
      "street": "QTA DO PICOTO",
      "house": "",
      "postcode": "3420-136",
      "city": "MIDÕES TBU",
      "lon": "-7.915100894639099",
      "lat": "40.386933226640714"
    },
    {
      "id": "pt.ine.add.PTCONT.1197596",
      "street": "QTA DO PICOTO",
      "house": "",
      "postcode": "3420-136",
      "city": "MIDÕES TBU",
      "lon": "-7.913571391865405",
      "lat": "40.38646204267508"
    },
    {
      "id": "pt.ine.add.PTCONT.1237881",
      "street": "QTA DA RIBEIRA",
      "house": "",
      "postcode": "3420-137",
      "city": "MIDÕES TBU",
      "lon": "-7.922140301088863",
      "lat": "40.376679906837204"
    },
    {
      "id": "pt.ine.add.PTCONT.1276254",
      "street": "R DA RIBEIRA",
      "house": "",
      "postcode": "3420-137",
      "city": "MIDÕES TBU",
      "lon": "-7.915524986249727",
      "lat": "40.38689800302763"
    },
    {
      "id": "pt.ine.add.PTCONT.1316689",
      "street": "R DA RIBEIRA",
      "house": "",
      "postcode": "3420-137",
      "city": "MIDÕES TBU",
      "lon": "-7.92278087285351",
      "lat": "40.375168132393746"
    },
    {
      "id": "pt.ine.add.PTCONT.1326767",
      "street": "QTA DA RIBEIRA",
      "house": "",
      "postcode": "3420-137",
      "city": "MIDÕES TBU",
      "lon": "-7.9219400643807285",
      "lat": "40.37669755258733"
    },
    {
      "id": "pt.ine.add.PTCONT.1329947",
      "street": "ESTR PRINCIPAL",
      "house": "",
      "postcode": "3420-142",
      "city": "MIDÕES TBU",
      "lon": "-7.914898620458741",
      "lat": "40.387572241604445"
    }
  ]
}