{
  "data": {
    "distrito": "Porto",
    "concelho": "Felgueiras",
    "freguesia": "União das freguesias de Vila Cova da Lixa e Borba de Godim",
    "OBJECTID": 906,
    "BGRI2021": "13033900320",
    "DT21": "13",
    "DTMN21": "1303",
    "DTMNFR21": "130339",
    "DTMNFRSEC21": "130339003",
    "SECNUM21": "003",
    "SSNUM21": "20",
    "SECSSNUM21": "00320",
    "OBJECTID_1": 127235,
    "DT": "13",
    "CC": "03",
    "fr": "39",
    "SEC": "003",
    "SS": "20"
  },
  "addresses": [
    {
      "id": "pt.ine.add.PTCONT.3583244",
      "street": "R CERDEIRA ERVAS",
      "house": "111",
      "postcode": "4615-616",
      "city": "LIXA",
      "lon": "-8.154946255820061",
      "lat": "41.33512256140099"
    },
    {
      "id": "pt.ine.add.PTCONT.3598351",
      "street": "R INÁCIO C SOARES",
      "house": "200",
      "postcode": "4615-616",
      "city": "LIXA",
      "lon": "-8.15464744885793",
      "lat": "41.3346724121829"
    },
    {
      "id": "pt.ine.add.PTCONT.3598352",
      "street": "R INÁCIO C SOARES",
      "house": "200",
      "postcode": "4615-616",
      "city": "LIXA",
      "lon": "-8.15464744885793",
      "lat": "41.3346724121829"
    },
    {
      "id": "pt.ine.add.PTCONT.3649608",
      "street": "R CERDEIRA DAS ERVAS",
      "house": "19",
      "postcode": "4615-616",
      "city": "LIXA",
      "lon": "-8.154492041417537",
      "lat": "41.33434829316137"
    },
    {
      "id": "pt.ine.add.PTCONT.3714787",
      "street": "R D MANUEL I",
      "house": "59",
      "postcode": "4615-510",
      "city": "LIXA",
      "lon": "-8.155304575905431",
      "lat": "41.33491539832178"
    },
    {
      "id": "pt.ine.add.PTCONT.3750756",
      "street": "R CERDEIRA ERVAS",
      "house": "",
      "postcode": "4615-616",
      "city": "LIXA",
      "lon": "-8.155543412478236",
      "lat": "41.33465423280671"
    },
    {
      "id": "pt.ine.add.PTCONT.3750757",
      "street": "R INACIO C REIS",
      "house": "",
      "postcode": "4615-616",
      "city": "LIXA",
      "lon": "-8.155543412478236",
      "lat": "41.33465423280671"
    },
    {
      "id": "pt.ine.add.PTCONT.3750758",
      "street": "R INACIO C REIS",
      "house": "",
      "postcode": "4615-616",
      "city": "LIXA",
      "lon": "-8.155543412478236",
      "lat": "41.33465423280671"
    },
    {
      "id": "pt.ine.add.PTCONT.3750759",
      "street": "R INACIO C REIS",
      "house": "",
      "postcode": "4615-616",
      "city": "LIXA",
      "lon": "-8.155543412478236",
      "lat": "41.33465423280671"
    },
    {
      "id": "pt.ine.add.PTCONT.3753076",
      "street": "TV ESCALHEIRA",
      "house": "102",
      "postcode": "4615-629",
      "city": "LIXA",
      "lon": "-8.15598535481463",
      "lat": "41.33445605537257"
    },
    {
      "id": "pt.ine.add.PTCONT.3814980",
      "street": "R CERDEIRA DAS ERVAS",
      "house": "",
      "postcode": "4615-616",
      "city": "LIXA",
      "lon": "-8.154539876407732",
      "lat": "41.33450135415504"
    },
    {
      "id": "pt.ine.add.PTCONT.3814981",
      "street": "R CERDEIRA DAS ERVAS",
      "house": "",
      "postcode": "4615-616",
      "city": "LIXA",
      "lon": "-8.154539876407732",
      "lat": "41.33450135415504"
    },
    {
      "id": "pt.ine.add.PTCONT.3902747",
      "street": "R INÁCIO C SOARES",
      "house": "166",
      "postcode": "4615-616",
      "city": "LIXA",
      "lon": "-8.155017731752594",
      "lat": "41.33451927240784"
    },
    {
      "id": "pt.ine.add.PTCONT.3959690",
      "street": "R INÁCIO C SOARES",
      "house": "140",
      "postcode": "4615-616",
      "city": "LIXA",
      "lon": "-8.155208850225417",
      "lat": "41.334456207091364"
    },
    {
      "id": "pt.ine.add.PTCONT.4007357",
      "street": "R INÁCIO C REIS",
      "house": "49",
      "postcode": "4615-616",
      "city": "LIXA",
      "lon": "-8.15520895370029",
      "lat": "41.33476234684284"
    },
    {
      "id": "pt.ine.add.PTCONT.4083601",
      "street": "R INACIO C SOARES",
      "house": "141",
      "postcode": "4615-616",
      "city": "LIXA",
      "lon": "-8.155364224697914",
      "lat": "41.33467227581628"
    },
    {
      "id": "pt.ine.add.PTCONT.4083602",
      "street": "R INACIO C SOARES",
      "house": "141",
      "postcode": "4615-616",
      "city": "LIXA",
      "lon": "-8.155364224697914",
      "lat": "41.33467227581628"
    },
    {
      "id": "pt.ine.add.PTCONT.4181330",
      "street": "R INÁCIO C REIS",
      "house": "",
      "postcode": "4615-616",
      "city": "LIXA",
      "lon": "-8.154838675862317",
      "lat": "41.33493349544654"
    },
    {
      "id": "pt.ine.add.PTCONT.4287134",
      "street": "R INÁCIO C REIS",
      "house": "",
      "postcode": "4615-616",
      "city": "LIXA",
      "lon": "-8.155017834332877",
      "lat": "41.334825412156334"
    },
    {
      "id": "pt.ine.add.PTCONT.4326882",
      "street": "R D MANUEL I",
      "house": "286",
      "postcode": "4615-510",
      "city": "LIXA",
      "lon": "-8.15534019746604",
      "lat": "41.33427609956992"
    },
    {
      "id": "pt.ine.add.PTCONT.4346401",
      "street": "R INÁCIO C SOARES",
      "house": "",
      "postcode": "4615-616",
      "city": "LIXA",
      "lon": "-8.154850514388206",
      "lat": "41.33460934522671"
    },
    {
      "id": "pt.ine.add.PTCONT.4346400",
      "street": "R INÁCIO C SOARES",
      "house": "",
      "postcode": "4615-616",
      "city": "LIXA",
      "lon": "-8.154850514388206",
      "lat": "41.33460934522671"
    }
  ]
}