{
  "data": {
    "distrito": "Braga",
    "concelho": "Vila Verde",
    "freguesia": "Cervães",
    "OBJECTID": 312,
    "BGRI2021": "03130900121",
    "DT21": "03",
    "DTMN21": "0313",
    "DTMNFR21": "031309",
    "DTMNFRSEC21": "031309001",
    "SECNUM21": "001",
    "SSNUM21": "21",
    "SECSSNUM21": "00121",
    "OBJECTID_1": 32468,
    "DT": "03",
    "CC": "13",
    "fr": "09",
    "SEC": "001",
    "SS": "21"
  },
  "addresses": [
    {
      "id": "pt.ine.add.PTCONT.466842",
      "street": "R SOUTO VISAGE",
      "house": "4",
      "postcode": "4730-017",
      "city": "CERVÃES",
      "lon": "-8.533944908597801",
      "lat": "41.59576423420085"
    },
    {
      "id": "pt.ine.add.PTCONT.476440",
      "street": "TV DE VISAGE DE BAIXO",
      "house": "",
      "postcode": "4730-679",
      "city": "CERVÃES",
      "lon": "-8.534508179812287",
      "lat": "41.595690239615685"
    },
    {
      "id": "pt.ine.add.PTCONT.579389",
      "street": "TV JAPONEIRAS",
      "house": "1",
      "postcode": "4730-049",
      "city": "CERVÃES",
      "lon": "-8.535381112400799",
      "lat": "41.5952640158963"
    },
    {
      "id": "pt.ine.add.PTCONT.585525",
      "street": "R SOUTO VISAGE",
      "house": "2",
      "postcode": "4730-017",
      "city": "CERVÃES",
      "lon": "-8.53359663762972",
      "lat": "41.595693418504446"
    },
    {
      "id": "pt.ine.add.PTCONT.598860",
      "street": "AV SOBRAL ILHO",
      "house": "6",
      "postcode": "4730-015",
      "city": "CERVÃES",
      "lon": "-8.536939308354436",
      "lat": "41.5950964871794"
    },
    {
      "id": "pt.ine.add.PTCONT.655630",
      "street": "TV VISAGE DE BAIXO",
      "house": "1",
      "postcode": "4730-017",
      "city": "CERVÃES",
      "lon": "-8.53591242637067",
      "lat": "41.595838390797304"
    },
    {
      "id": "pt.ine.add.PTCONT.774885",
      "street": "AV SOBRAL ILHO",
      "house": "55",
      "postcode": "4730-015",
      "city": "CERVÃES",
      "lon": "-8.534566531727174",
      "lat": "41.59542892931439"
    },
    {
      "id": "pt.ine.add.PTCONT.797423",
      "street": "TV VISAGE DE BAIXO",
      "house": "7",
      "postcode": "4730-017",
      "city": "CERVÃES",
      "lon": "-8.53416035452306",
      "lat": "41.59569145346539"
    },
    {
      "id": "pt.ine.add.PTCONT.829130",
      "street": "TV VISAGE DE BAIXO",
      "house": "5",
      "postcode": "4730-017",
      "city": "CERVÃES",
      "lon": "-8.53469997179017",
      "lat": "41.595671562496385"
    },
    {
      "id": "pt.ine.add.PTCONT.830801",
      "street": "AV SOBRAL ILHO",
      "house": "57",
      "postcode": "4730-015",
      "city": "CERVÃES",
      "lon": "-8.534974157674968",
      "lat": "41.59540049420216"
    },
    {
      "id": "pt.ine.add.PTCONT.845195",
      "street": "R BOM DESPACHO",
      "house": "5",
      "postcode": "4730-109",
      "city": "CERVÃES",
      "lon": "-8.536103770317599",
      "lat": "41.5957476835148"
    }
  ]
}