{
  "data": {
    "distrito": "Braga",
    "concelho": "Amares",
    "freguesia": "Barreiros",
    "OBJECTID": 30,
    "BGRI2021": "03010200102",
    "DT21": "03",
    "DTMN21": "0301",
    "DTMNFR21": "030102",
    "DTMNFRSEC21": "030102001",
    "SECNUM21": "001",
    "SSNUM21": "02",
    "SECSSNUM21": "00102",
    "OBJECTID_1": 19593,
    "DT": "03",
    "CC": "01",
    "fr": "02",
    "SEC": "001",
    "SS": "02"
  },
  "addresses": [
    {
      "id": "pt.ine.add.PTCONT.488613",
      "street": "R NOVA DA LAMEIRA",
      "house": "127",
      "postcode": "4720-603",
      "city": "BARREIROS AMR",
      "lon": "-8.400669018743146",
      "lat": "41.61423102082765"
    },
    {
      "id": "pt.ine.add.PTCONT.566643",
      "street": "TV VILAR",
      "house": "165",
      "postcode": "4720-139",
      "city": "BARREIROS AMR",
      "lon": "-8.400104840806941",
      "lat": "41.611252120235314"
    },
    {
      "id": "pt.ine.add.PTCONT.591630",
      "street": "R NOVA DA LAMEIRA",
      "house": "143",
      "postcode": "4720-603",
      "city": "BARREIROS AMR",
      "lon": "-8.400788473328344",
      "lat": "41.61410469150875"
    },
    {
      "id": "pt.ine.add.PTCONT.610461",
      "street": "R POCA DE QUINTÃO",
      "house": "17",
      "postcode": "4720-139",
      "city": "BARREIROS AMR",
      "lon": "-8.399179580504883",
      "lat": "41.61381130561159"
    },
    {
      "id": "pt.ine.add.PTCONT.615449",
      "street": "AV RIO CAVADO",
      "house": "714",
      "postcode": "4720-103",
      "city": "BARREIROS AMR",
      "lon": "-8.398785870221344",
      "lat": "41.611426245523134"
    },
    {
      "id": "pt.ine.add.PTCONT.621856",
      "street": "TV VILAR",
      "house": "59",
      "postcode": "4720-139",
      "city": "BARREIROS AMR",
      "lon": "-8.399532021548367",
      "lat": "41.61199174961024"
    },
    {
      "id": "pt.ine.add.PTCONT.644712",
      "street": "R POCA DE QUINTÃO",
      "house": "105",
      "postcode": "4720-139",
      "city": "BARREIROS AMR",
      "lon": "-8.399925577328238",
      "lat": "41.61433178894797"
    },
    {
      "id": "pt.ine.add.PTCONT.736609",
      "street": "R NOVA DA LAMEIRA",
      "house": "161",
      "postcode": "4720-603",
      "city": "BARREIROS AMR",
      "lon": "-8.40102793996574",
      "lat": "41.613987086099335"
    },
    {
      "id": "pt.ine.add.PTCONT.775643",
      "street": "TV VILAR",
      "house": "20",
      "postcode": "4720-139",
      "city": "BARREIROS AMR",
      "lon": "-8.399641812044312",
      "lat": "41.61243267462378"
    },
    {
      "id": "pt.ine.add.PTCONT.778681",
      "street": "R SALGUEIRAL",
      "house": "215",
      "postcode": "4720-102",
      "city": "BARREIROS AMR",
      "lon": "-8.401337749543583",
      "lat": "41.61347315501028"
    },
    {
      "id": "pt.ine.add.PTCONT.814901",
      "street": "R NOVA DA LAMEIRA",
      "house": "107",
      "postcode": "4720-603",
      "city": "BARREIROS AMR",
      "lon": "-8.400513310596198",
      "lat": "41.614294408732796"
    }
  ]
}