{
  "data": {
    "distrito": "Braga",
    "concelho": "Celorico de Basto",
    "freguesia": "Moreira do Castelo",
    "OBJECTID": 383,
    "BGRI2021": "03051500113",
    "DT21": "03",
    "DTMN21": "0305",
    "DTMNFR21": "030515",
    "DTMNFRSEC21": "030515001",
    "SECNUM21": "001",
    "SSNUM21": "13",
    "SECSSNUM21": "00113",
    "OBJECTID_1": 23842,
    "DT": "03",
    "CC": "05",
    "fr": "15",
    "SEC": "001",
    "SS": "13"
  },
  "addresses": [
    {
      "id": "pt.ine.add.PTCONT.461260",
      "street": "R SANTA MARIA",
      "house": "",
      "postcode": "4890-441",
      "city": "MOREIRA DO CASTELO",
      "lon": "-8.061909436390803",
      "lat": "41.35583903786765"
    },
    {
      "id": "pt.ine.add.PTCONT.510062",
      "street": "R ESCOLA",
      "house": "",
      "postcode": "4890-441",
      "city": "MOREIRA DO CASTELO",
      "lon": "-8.063823012753057",
      "lat": "41.3543725410781"
    },
    {
      "id": "pt.ine.add.PTCONT.548957",
      "street": "R RAPOSINHOS",
      "house": "",
      "postcode": "4890-441",
      "city": "MOREIRA DO CASTELO",
      "lon": "-8.061286406658182",
      "lat": "41.357315319145386"
    },
    {
      "id": "pt.ine.add.PTCONT.592693",
      "street": "R CAMPO NOVO",
      "house": "",
      "postcode": "4890-441",
      "city": "MOREIRA DO CASTELO",
      "lon": "-8.061166506120601",
      "lat": "41.357675407223816"
    },
    {
      "id": "pt.ine.add.PTCONT.596872",
      "street": "R SANTA MARIA",
      "house": "",
      "postcode": "4890-441",
      "city": "MOREIRA DO CASTELO",
      "lon": "-8.060044653103619",
      "lat": "41.3563420973907"
    },
    {
      "id": "pt.ine.add.PTCONT.620538",
      "street": "R SANTA MARIA",
      "house": "",
      "postcode": "4890-441",
      "city": "MOREIRA DO CASTELO",
      "lon": "-8.0600931080154",
      "lat": "41.35575686317563"
    },
    {
      "id": "pt.ine.add.PTCONT.629480",
      "street": "R ALTO DO CARVALHAL",
      "house": "",
      "postcode": "4890-441",
      "city": "MOREIRA DO CASTELO",
      "lon": "-8.060175241093177",
      "lat": "41.3571165307003"
    },
    {
      "id": "pt.ine.add.PTCONT.643184",
      "street": "R RAPOSINHOS",
      "house": "",
      "postcode": "4890-441",
      "city": "MOREIRA DO CASTELO",
      "lon": "-8.060677136173766",
      "lat": "41.357134855816334"
    },
    {
      "id": "pt.ine.add.PTCONT.666195",
      "street": "R SANTA MARIA",
      "house": "",
      "postcode": "4890-441",
      "city": "MOREIRA DO CASTELO",
      "lon": "-8.060020037527618",
      "lat": "41.356981371117456"
    },
    {
      "id": "pt.ine.add.PTCONT.688411",
      "street": "R SANTA MARIA",
      "house": "",
      "postcode": "4890-441",
      "city": "MOREIRA DO CASTELO",
      "lon": "-8.060153170230059",
      "lat": "41.3554777748755"
    },
    {
      "id": "pt.ine.add.PTCONT.689825",
      "street": "R RIBEIRINHA",
      "house": "",
      "postcode": "4890-441",
      "city": "MOREIRA DO CASTELO",
      "lon": "-8.063210217978769",
      "lat": "41.35750558921182"
    },
    {
      "id": "pt.ine.add.PTCONT.698687",
      "street": "R SANTA MARIA",
      "house": "",
      "postcode": "4890-441",
      "city": "MOREIRA DO CASTELO",
      "lon": "-8.060810742266002",
      "lat": "41.35519005935503"
    },
    {
      "id": "pt.ine.add.PTCONT.776550",
      "street": "R SANTA MARIA",
      "house": "",
      "postcode": "4890-441",
      "city": "MOREIRA DO CASTELO",
      "lon": "-8.060056351635227",
      "lat": "41.35656720671123"
    },
    {
      "id": "pt.ine.add.PTCONT.776578",
      "street": "TV RIBEIRINHA",
      "house": "",
      "postcode": "4890-441",
      "city": "MOREIRA DO CASTELO",
      "lon": "-8.062360362652393",
      "lat": "41.3587746442335"
    },
    {
      "id": "pt.ine.add.PTCONT.785527",
      "street": "R SANTA MARIA",
      "house": "",
      "postcode": "4890-441",
      "city": "MOREIRA DO CASTELO",
      "lon": "-8.060056885203656",
      "lat": "41.35608999102353"
    },
    {
      "id": "pt.ine.add.PTCONT.795725",
      "street": "R ALTO DO CARVALHAL",
      "house": "",
      "postcode": "4890-453",
      "city": "MOREIRA DO CASTELO",
      "lon": "-8.061523125694748",
      "lat": "41.3594044115241"
    },
    {
      "id": "pt.ine.add.PTCONT.798267",
      "street": "R S MARIA",
      "house": "",
      "postcode": "4890-441",
      "city": "MOREIRA DO CASTELO",
      "lon": "-8.059996358529508",
      "lat": "41.35678326642507"
    }
  ]
}