{
  "data": {
    "distrito": "Vila Real",
    "concelho": "Vila Real",
    "freguesia": "União das freguesias de Mouçós e Lamares",
    "OBJECTID": 557,
    "BGRI2021": "17143400210",
    "DT21": "17",
    "DTMN21": "1714",
    "DTMNFR21": "171434",
    "DTMNFRSEC21": "171434002",
    "SECNUM21": "002",
    "SSNUM21": "10",
    "SECSSNUM21": "00210",
    "OBJECTID_1": 187772,
    "DT": "17",
    "CC": "14",
    "fr": "34",
    "SEC": "002",
    "SS": "10"
  },
  "addresses": [
    {
      "id": "pt.ine.add.PTCONT.5294902",
      "street": "R CENTRAL",
      "house": "",
      "postcode": "5000-355",
      "city": "VILA REAL",
      "lon": "-7.7125929544508365",
      "lat": "41.31909450872863"
    },
    {
      "id": "pt.ine.add.PTCONT.5300655",
      "street": "R PRINCIPAL",
      "house": "",
      "postcode": "5000-355",
      "city": "VILA REAL",
      "lon": "-7.712599804558456",
      "lat": "41.31988689483172"
    },
    {
      "id": "pt.ine.add.PTCONT.5301755",
      "street": "R CORGA",
      "house": "",
      "postcode": "5000-355",
      "city": "VILA REAL",
      "lon": "-7.7123808306524495",
      "lat": "41.32050737768672"
    },
    {
      "id": "pt.ine.add.PTCONT.5304774",
      "street": "URB JOÃO BAPTISTA DOS SANTOS",
      "house": "9",
      "postcode": "5000-355",
      "city": "VILA REAL",
      "lon": "-7.71297507576216",
      "lat": "41.31910490821737"
    },
    {
      "id": "pt.ine.add.PTCONT.5317434",
      "street": "R CRUZEIRO",
      "house": "2",
      "postcode": "5000-355",
      "city": "VILA REAL",
      "lon": "-7.713012350500911",
      "lat": "41.318879941665074"
    },
    {
      "id": "pt.ine.add.PTCONT.5319174",
      "street": "R QUINTA DA CAPELA",
      "house": "",
      "postcode": "5000-355",
      "city": "VILA REAL",
      "lon": "-7.715021463655048",
      "lat": "41.320336917412554"
    },
    {
      "id": "pt.ine.add.PTCONT.5322556",
      "street": "R QUINTA DA CAPELA",
      "house": "",
      "postcode": "5000-355",
      "city": "VILA REAL",
      "lon": "-7.7150726316097735",
      "lat": "41.31980586120215"
    },
    {
      "id": "pt.ine.add.PTCONT.5324113",
      "street": "R QUINTA DA CAPELA",
      "house": "",
      "postcode": "5000-355",
      "city": "VILA REAL",
      "lon": "-7.716073337606461",
      "lat": "41.32020567175024"
    },
    {
      "id": "pt.ine.add.PTCONT.5325627",
      "street": "R CRUZEIRO",
      "house": "",
      "postcode": "5000-355",
      "city": "VILA REAL",
      "lon": "-7.714731633041856",
      "lat": "41.318967240617454"
    },
    {
      "id": "pt.ine.add.PTCONT.5327988",
      "street": "R QUINTA PISCAIS",
      "house": "",
      "postcode": "5000-352",
      "city": "VILA REAL",
      "lon": "-7.715712912856318",
      "lat": "41.320537517106814"
    },
    {
      "id": "pt.ine.add.PTCONT.5329484",
      "street": "URB JOÃO BAPTISTA DOS SANTOS",
      "house": "",
      "postcode": "5000-355",
      "city": "VILA REAL",
      "lon": "-7.713236090357477",
      "lat": "41.31937598373924"
    },
    {
      "id": "pt.ine.add.PTCONT.5337124",
      "street": "R QUINTA CAPELA",
      "house": "1",
      "postcode": "5000-355",
      "city": "VILA REAL",
      "lon": "-7.715307585996776",
      "lat": "41.32041899324756"
    },
    {
      "id": "pt.ine.add.PTCONT.5337125",
      "street": "R QTA DA CAPELA",
      "house": "",
      "postcode": "5000-355",
      "city": "VILA REAL",
      "lon": "-7.715307585996776",
      "lat": "41.32041899324756"
    },
    {
      "id": "pt.ine.add.PTCONT.5338478",
      "street": "QTA PISCAIS",
      "house": "",
      "postcode": "5000-352",
      "city": "VILA REAL",
      "lon": "-7.709343866894096",
      "lat": "41.3247011505704"
    },
    {
      "id": "pt.ine.add.PTCONT.5345888",
      "street": "QTA PISCAIS",
      "house": "",
      "postcode": "5000-352",
      "city": "VILA REAL",
      "lon": "-7.709247088668907",
      "lat": "41.324889880206975"
    },
    {
      "id": "pt.ine.add.PTCONT.5348952",
      "street": "R CENTRAL",
      "house": "",
      "postcode": "5000-355",
      "city": "VILA REAL",
      "lon": "-7.712394395359628",
      "lat": "41.320255312419214"
    },
    {
      "id": "pt.ine.add.PTCONT.5358586",
      "street": "URB JOÃO BAPTISTA DOS SANTOS",
      "house": "12",
      "postcode": "5000-355",
      "city": "VILA REAL",
      "lon": "-7.713211106029358",
      "lat": "41.31954697056229"
    },
    {
      "id": "pt.ine.add.PTCONT.5362058",
      "street": "URB JOÃO BAPTISTA DOS SANTOS",
      "house": "",
      "postcode": "5000-355",
      "city": "VILA REAL",
      "lon": "-7.713112785941836",
      "lat": "41.31997880878557"
    },
    {
      "id": "pt.ine.add.PTCONT.5368690",
      "street": "PONTE",
      "house": "",
      "postcode": "5000-369",
      "city": "VILA REAL",
      "lon": "-7.715255173177088",
      "lat": "41.31927528190844"
    },
    {
      "id": "pt.ine.add.PTCONT.5385715",
      "street": "URB JOÃO BAPTISTA DOS SANTOS",
      "house": "15",
      "postcode": "5000-355",
      "city": "VILA REAL",
      "lon": "-7.713063683215472",
      "lat": "41.32018572396009"
    },
    {
      "id": "pt.ine.add.PTCONT.5385716",
      "street": "URB JOÃO BAPTISTA DOS SANTOS",
      "house": "",
      "postcode": "5000-355",
      "city": "VILA REAL",
      "lon": "-7.7132257652914165",
      "lat": "41.319123831174"
    },
    {
      "id": "pt.ine.add.PTCONT.5388871",
      "street": "QTA S JOAO BATISTA",
      "house": "1",
      "postcode": "5000-355",
      "city": "VILA REAL",
      "lon": "-7.713299099479808",
      "lat": "41.318862979645225"
    },
    {
      "id": "pt.ine.add.PTCONT.5389377",
      "street": "R CENTRAL",
      "house": "",
      "postcode": "5000-355",
      "city": "VILA REAL",
      "lon": "-7.711780415468427",
      "lat": "41.321009411138476"
    },
    {
      "id": "pt.ine.add.PTCONT.5393291",
      "street": "R CRUZEIRO",
      "house": "",
      "postcode": "5000-355",
      "city": "VILA REAL",
      "lon": "-7.712618403182666",
      "lat": "41.31885149089163"
    },
    {
      "id": "pt.ine.add.PTCONT.5400750",
      "street": "R CENTRAL",
      "house": "",
      "postcode": "5000-355",
      "city": "VILA REAL",
      "lon": "-7.712555967547065",
      "lat": "41.31927445566943"
    },
    {
      "id": "pt.ine.add.PTCONT.5400751",
      "street": "R ESCOLA VELHA PONTE MOUCOS",
      "house": "",
      "postcode": "5000-355",
      "city": "VILA REAL",
      "lon": "-7.7125983576492025",
      "lat": "41.32011199210467"
    },
    {
      "id": "pt.ine.add.PTCONT.5409184",
      "street": "QTA S JOAO BAPTISTA",
      "house": "8",
      "postcode": "5000-355",
      "city": "VILA REAL",
      "lon": "-7.712518980435779",
      "lat": "41.31945440259177"
    },
    {
      "id": "pt.ine.add.PTCONT.5412566",
      "street": "R STA CABECA",
      "house": "",
      "postcode": "5000-355",
      "city": "VILA REAL",
      "lon": "-7.714571303946066",
      "lat": "41.31975901886953"
    },
    {
      "id": "pt.ine.add.PTCONT.5421284",
      "street": "R CRUZEIRO",
      "house": "3",
      "postcode": "5000-355",
      "city": "VILA REAL",
      "lon": "-7.712773489326291",
      "lat": "41.3188790696472"
    },
    {
      "id": "pt.ine.add.PTCONT.5422373",
      "street": "URB JOÃO BAPTISTA DOS SANTOS",
      "house": "16",
      "postcode": "5000-355",
      "city": "VILA REAL",
      "lon": "-7.712894915477091",
      "lat": "41.32042821870955"
    },
    {
      "id": "pt.ine.add.PTCONT.5422374",
      "street": "R QUINTA DA CAPELA",
      "house": "",
      "postcode": "5000-355",
      "city": "VILA REAL",
      "lon": "-7.7159891603647415",
      "lat": "41.32029540775996"
    },
    {
      "id": "pt.ine.add.PTCONT.5422415",
      "street": "QINTA",
      "house": "13",
      "postcode": "5000-355",
      "city": "VILA REAL",
      "lon": "-7.713186005976893",
      "lat": "41.31973596515827"
    }
  ]
}