{
  "data": {
    "distrito": "Braga",
    "concelho": "Esposende",
    "freguesia": "Antas",
    "OBJECTID": 573,
    "BGRI2021": "03060100108",
    "DT21": "03",
    "DTMN21": "0306",
    "DTMNFR21": "030601",
    "DTMNFRSEC21": "030601001",
    "SECNUM21": "001",
    "SSNUM21": "08",
    "SECSSNUM21": "00108",
    "OBJECTID_1": 24420,
    "DT": "03",
    "CC": "06",
    "fr": "01",
    "SEC": "001",
    "SS": "08"
  },
  "addresses": [
    {
      "id": "pt.ine.add.PTCONT.501249",
      "street": "R MONTE",
      "house": "15",
      "postcode": "4740-015",
      "city": "ANTAS EPS",
      "lon": "-8.766499999053847",
      "lat": "41.60180409180533"
    },
    {
      "id": "pt.ine.add.PTCONT.521925",
      "street": "TV MONTE DE ANTAS",
      "house": "9",
      "postcode": "4740-015",
      "city": "ANTAS EPS",
      "lon": "-8.768105871913384",
      "lat": "41.60165117510895"
    },
    {
      "id": "pt.ine.add.PTCONT.573681",
      "street": "TV MONTE DE ANTAS",
      "house": "3",
      "postcode": "4740-011",
      "city": "ANTAS EPS",
      "lon": "-8.767531187580712",
      "lat": "41.601762391395475"
    },
    {
      "id": "pt.ine.add.PTCONT.581771",
      "street": "TV MONTE DE ANTAS",
      "house": "3",
      "postcode": "4740-015",
      "city": "ANTAS EPS",
      "lon": "-8.766982693342706",
      "lat": "41.602098551027424"
    },
    {
      "id": "pt.ine.add.PTCONT.664286",
      "street": "R MENHIR",
      "house": "10",
      "postcode": "4740-015",
      "city": "ANTAS EPS",
      "lon": "-8.767384606743253",
      "lat": "41.60149309144168"
    },
    {
      "id": "pt.ine.add.PTCONT.669164",
      "street": "R MENHIR",
      "house": "4",
      "postcode": "4740-015",
      "city": "ANTAS EPS",
      "lon": "-8.766739187795498",
      "lat": "41.601730744756466"
    },
    {
      "id": "pt.ine.add.PTCONT.721392",
      "street": "TV DO MONTE",
      "house": "5",
      "postcode": "4740-011",
      "city": "ANTAS EPS",
      "lon": "-8.76769548585048",
      "lat": "41.601797995209985"
    },
    {
      "id": "pt.ine.add.PTCONT.782602",
      "street": "TV MONTE DE ANTAS",
      "house": "1S",
      "postcode": "4740-015",
      "city": "ANTAS EPS",
      "lon": "-8.768392065369149",
      "lat": "41.60147852510983"
    },
    {
      "id": "pt.ine.add.PTCONT.791374",
      "street": "R POÃ‡OS",
      "house": "1",
      "postcode": "4740-015",
      "city": "ANTAS EPS",
      "lon": "-8.766789896967364",
      "lat": "41.60200957763283"
    },
    {
      "id": "pt.ine.add.PTCONT.799078",
      "street": "TV MONTE DE ANTAS",
      "house": "1",
      "postcode": "4740-015",
      "city": "ANTAS EPS",
      "lon": "-8.767126718122647",
      "lat": "41.60210676045818"
    },
    {
      "id": "pt.ine.add.PTCONT.838700",
      "street": "R MENHIR",
      "house": "6",
      "postcode": "4740-015",
      "city": "ANTAS EPS",
      "lon": "-8.767064717717291",
      "lat": "41.601900019000965"
    }
  ]
}