{
  "data": {
    "distrito": "Beja",
    "concelho": "Odemira",
    "freguesia": "São Teotónio",
    "OBJECTID": 1070,
    "BGRI2021": "02112100503",
    "DT21": "02",
    "DTMN21": "0211",
    "DTMNFR21": "021121",
    "DTMNFRSEC21": "021121005",
    "SECNUM21": "005",
    "SSNUM21": "03",
    "SECSSNUM21": "00503",
    "OBJECTID_1": 17636,
    "DT": "02",
    "CC": "11",
    "fr": "21",
    "SEC": "005",
    "SS": "03"
  },
  "addresses": [
    {
      "id": "pt.ine.add.PTCONT.363418",
      "street": "",
      "house": "",
      "postcode": "7630-908",
      "city": "",
      "lon": "-8.691012168033263",
      "lat": "37.39819495806655"
    },
    {
      "id": "pt.ine.add.PTCONT.367695",
      "street": "MTE REGUENGO",
      "house": "",
      "postcode": "7630-592",
      "city": "SÃO TEOTÓNIO",
      "lon": "-8.691706339256001",
      "lat": "37.40042618590889"
    },
    {
      "id": "pt.ine.add.PTCONT.372418",
      "street": "MTE REGUENGO",
      "house": "",
      "postcode": "7630-590",
      "city": "SÃO TEOTÓNIO",
      "lon": "-8.690557640762805",
      "lat": "37.3978186774416"
    },
    {
      "id": "pt.ine.add.PTCONT.378875",
      "street": "MTE REGUENGO DO ALMERINDO",
      "house": "",
      "postcode": "7630-592",
      "city": "SÃO TEOTÓNIO",
      "lon": "-8.698026537465257",
      "lat": "37.3998465423018"
    },
    {
      "id": "pt.ine.add.PTCONT.378876",
      "street": "MTE REGUENGO",
      "house": "",
      "postcode": "7630-592",
      "city": "SÃO TEOTÓNIO",
      "lon": "-8.692000370260336",
      "lat": "37.400478857042735"
    },
    {
      "id": "pt.ine.add.PTCONT.386154",
      "street": "MTE PISCO",
      "house": "",
      "postcode": "7630-592",
      "city": "SÃO TEOTÓNIO",
      "lon": "-8.699711985879825",
      "lat": "37.422697051519165"
    },
    {
      "id": "pt.ine.add.PTCONT.393375",
      "street": "MTE ZAMBUJEIRA DA SERRA",
      "house": "",
      "postcode": "7630-592",
      "city": "SÃO TEOTÓNIO",
      "lon": "-8.718469613731505",
      "lat": "37.40002641559795"
    },
    {
      "id": "pt.ine.add.PTCONT.403932",
      "street": "MTE ALTURA DA LARANJEIRA",
      "house": "",
      "postcode": "7630-592",
      "city": "SÃO TEOTÓNIO",
      "lon": "-8.730592544695822",
      "lat": "37.39777632645105"
    },
    {
      "id": "pt.ine.add.PTCONT.408855",
      "street": "MTE REGUENGO",
      "house": "",
      "postcode": "7630-592",
      "city": "SÃO TEOTÓNIO",
      "lon": "-8.689532037596528",
      "lat": "37.398102821444276"
    },
    {
      "id": "pt.ine.add.PTCONT.409647",
      "street": "MTE REGUENGO",
      "house": "",
      "postcode": "7630-590",
      "city": "SÃO TEOTÓNIO",
      "lon": "-8.691285115668789",
      "lat": "37.399129226711175"
    },
    {
      "id": "pt.ine.add.PTCONT.409648",
      "street": "MTE MOINHO DAS CANAS - REGUENGO",
      "house": "",
      "postcode": "7630-592",
      "city": "SÃO TEOTÓNIO",
      "lon": "-8.692921272434244",
      "lat": "37.399780722816715"
    },
    {
      "id": "pt.ine.add.PTCONT.412926",
      "street": "MTE PISCO",
      "house": "",
      "postcode": "7630-592",
      "city": "SÃO TEOTÓNIO",
      "lon": "-8.6993325090903",
      "lat": "37.423311554026505"
    },
    {
      "id": "pt.ine.add.PTCONT.437184",
      "street": "MTE REGUENGO",
      "house": "",
      "postcode": "7630-590",
      "city": "SÃO TEOTÓNIO",
      "lon": "-8.690992119706229",
      "lat": "37.39853743659133"
    },
    {
      "id": "pt.ine.add.PTCONT.451613",
      "street": "",
      "house": "",
      "postcode": "7630-590",
      "city": "SÃO TEOTÓNIO",
      "lon": "-8.698236827866488",
      "lat": "37.409801687650386"
    },
    {
      "id": "pt.ine.add.PTCONT.451787",
      "street": "MTE REGUENGO",
      "house": "",
      "postcode": "7630-590",
      "city": "SÃO TEOTÓNIO",
      "lon": "-8.698236827866488",
      "lat": "37.409801687650386"
    }
  ]
}