{
  "data": {
    "distrito": "Beja",
    "concelho": "Odemira",
    "freguesia": "São Teotónio",
    "OBJECTID": 106,
    "BGRI2021": "02112100529",
    "DT21": "02",
    "DTMN21": "0211",
    "DTMNFR21": "021121",
    "DTMNFRSEC21": "021121005",
    "SECNUM21": "005",
    "SSNUM21": "29",
    "SECSSNUM21": "00529",
    "OBJECTID_1": 17939,
    "DT": "02",
    "CC": "11",
    "fr": "21",
    "SEC": "005",
    "SS": "29"
  },
  "addresses": [
    {
      "id": "pt.ine.add.PTCONT.354548",
      "street": "MTE DA NESPEREIRA",
      "house": "",
      "postcode": "7630-560",
      "city": "SÃO TEOTÓNIO",
      "lon": "-8.643782343202835",
      "lat": "37.51117798609405"
    },
    {
      "id": "pt.ine.add.PTCONT.371598",
      "street": "MTE CASETA DO CANAL",
      "house": "",
      "postcode": "7630-560",
      "city": "SÃO TEOTÓNIO",
      "lon": "-8.650789924156088",
      "lat": "37.50227267574016"
    },
    {
      "id": "pt.ine.add.PTCONT.374182",
      "street": "MTE NESPEREIRA",
      "house": "",
      "postcode": "7630-560",
      "city": "SÃO TEOTÓNIO",
      "lon": "-8.65053243219012",
      "lat": "37.502652222277106"
    },
    {
      "id": "pt.ine.add.PTCONT.377425",
      "street": "MTE DO MOINHO VELHO",
      "house": "",
      "postcode": "7630-560",
      "city": "SÃO TEOTÓNIO",
      "lon": "-8.644924654377338",
      "lat": "37.517795351649696"
    },
    {
      "id": "pt.ine.add.PTCONT.378186",
      "street": "MTE DO MOINHO VELHO",
      "house": "",
      "postcode": "7630-560",
      "city": "SÃO TEOTÓNIO",
      "lon": "-8.644588270364",
      "lat": "37.518229285973156"
    },
    {
      "id": "pt.ine.add.PTCONT.398250",
      "street": "",
      "house": "",
      "postcode": "7630-560",
      "city": "SÃO TEOTÓNIO",
      "lon": "-8.653893266168543",
      "lat": "37.499682185581264"
    },
    {
      "id": "pt.ine.add.PTCONT.398251",
      "street": "",
      "house": "",
      "postcode": "7630-560",
      "city": "SÃO TEOTÓNIO",
      "lon": "-8.653893266168543",
      "lat": "37.499682185581264"
    },
    {
      "id": "pt.ine.add.PTCONT.408819",
      "street": "",
      "house": "",
      "postcode": "7630-560",
      "city": "SÃO TEOTÓNIO",
      "lon": "-8.651717963978557",
      "lat": "37.50073691141938"
    },
    {
      "id": "pt.ine.add.PTCONT.450250",
      "street": "",
      "house": "",
      "postcode": "7630-560",
      "city": "SÃO TEOTÓNIO",
      "lon": "-8.654393969486618",
      "lat": "37.50013047532502"
    },
    {
      "id": "pt.ine.add.PTCONT.450292",
      "street": "",
      "house": "",
      "postcode": "7630-560",
      "city": "SÃO TEOTÓNIO",
      "lon": "-8.653734510039566",
      "lat": "37.49961981561184"
    },
    {
      "id": "pt.ine.add.PTCONT.454189",
      "street": "MTE ACOREIRO",
      "house": "",
      "postcode": "7630-572",
      "city": "SÃO TEOTÓNIO",
      "lon": "-8.660889230954",
      "lat": "37.511940711398445"
    }
  ]
}