{
  "data": {
    "distrito": "Coimbra",
    "concelho": "Cantanhede",
    "freguesia": "São Caetano",
    "OBJECTID": 53,
    "BGRI2021": "06021500113",
    "DT21": "06",
    "DTMN21": "0602",
    "DTMNFR21": "060215",
    "DTMNFRSEC21": "060215001",
    "SECNUM21": "001",
    "SSNUM21": "13",
    "SECSSNUM21": "00113",
    "OBJECTID_1": 47802,
    "DT": "06",
    "CC": "02",
    "fr": "15",
    "SEC": "001",
    "SS": "13"
  },
  "addresses": [
    {
      "id": "pt.ine.add.PTCONT.1107709",
      "street": "R PRINCIPAL 12 JULHO",
      "house": "30",
      "postcode": "3060-739",
      "city": "SÃO CAETANO CNT",
      "lon": "-8.672630061893244",
      "lat": "40.38524074979792"
    },
    {
      "id": "pt.ine.add.PTCONT.1120805",
      "street": "R PRINCIPAL 12 JULHO",
      "house": "4",
      "postcode": "3060-739",
      "city": "SÃO CAETANO CNT",
      "lon": "-8.67416491206588",
      "lat": "40.38425197552511"
    },
    {
      "id": "pt.ine.add.PTCONT.1125885",
      "street": "R PRINCIPAL 12 JULHO",
      "house": "14",
      "postcode": "3060-739",
      "city": "SÃO CAETANO CNT",
      "lon": "-8.675610421694282",
      "lat": "40.38387597631542"
    },
    {
      "id": "pt.ine.add.PTCONT.1207319",
      "street": "R PRINCIPAL 12 JULHO",
      "house": "10",
      "postcode": "3060-739",
      "city": "SÃO CAETANO CNT",
      "lon": "-8.675152163316774",
      "lat": "40.38400420272062"
    },
    {
      "id": "pt.ine.add.PTCONT.1237692",
      "street": "R FLORES",
      "house": "14",
      "postcode": "3060-739",
      "city": "SÃO CAETANO CNT",
      "lon": "-8.676698168572232",
      "lat": "40.38441120025864"
    },
    {
      "id": "pt.ine.add.PTCONT.1243930",
      "street": "R PRINCIPAL 12 JULHO",
      "house": "2",
      "postcode": "3060-739",
      "city": "SÃO CAETANO CNT",
      "lon": "-8.6739652209395",
      "lat": "40.38431594841013"
    },
    {
      "id": "pt.ine.add.PTCONT.1253164",
      "street": "R LAMEIRO",
      "house": "21",
      "postcode": "3060-734",
      "city": "SÃO CAETANO CNT",
      "lon": "-8.672478477539554",
      "lat": "40.3854305731153"
    },
    {
      "id": "pt.ine.add.PTCONT.1263021",
      "street": "R PRINCIPAL 12 JULHO",
      "house": "32",
      "postcode": "3060-739",
      "city": "SÃO CAETANO CNT",
      "lon": "-8.672946010856359",
      "lat": "40.384987120358396"
    },
    {
      "id": "pt.ine.add.PTCONT.1279855",
      "street": "R PRINCIPAL 12 JULHO",
      "house": "6",
      "postcode": "3060-739",
      "city": "SÃO CAETANO CNT",
      "lon": "-8.674470660551224",
      "lat": "40.384196511374434"
    },
    {
      "id": "pt.ine.add.PTCONT.1307260",
      "street": "R FLORES",
      "house": "18",
      "postcode": "3060-739",
      "city": "SÃO CAETANO CNT",
      "lon": "-8.67594737512681",
      "lat": "40.38330704638659"
    },
    {
      "id": "pt.ine.add.PTCONT.1331745",
      "street": "R JOSE MARJA COTRIM LOPES",
      "house": "",
      "postcode": "3060-739",
      "city": "SÃO CAETANO CNT",
      "lon": "-8.67474396521467",
      "lat": "40.384501419734754"
    },
    {
      "id": "pt.ine.add.PTCONT.1366408",
      "street": "R LEIRINHA",
      "house": "19",
      "postcode": "3060-739",
      "city": "SÃO CAETANO CNT",
      "lon": "-8.676303419595094",
      "lat": "40.38511548675018"
    }
  ]
}