{
  "data": {
    "distrito": "Porto",
    "concelho": "Penafiel",
    "freguesia": "Recezinhos (São Martinho)",
    "OBJECTID": 1667,
    "BGRI2021": "13113300117",
    "DT21": "13",
    "DTMN21": "1311",
    "DTMNFR21": "131133",
    "DTMNFRSEC21": "131133001",
    "SECNUM21": "001",
    "SSNUM21": "17",
    "SECSSNUM21": "00117",
    "OBJECTID_1": 136721,
    "DT": "13",
    "CC": "11",
    "fr": "33",
    "SEC": "001",
    "SS": "17"
  },
  "addresses": [
    {
      "id": "pt.ine.add.PTCONT.3587204",
      "street": "R LEIROS",
      "house": "26",
      "postcode": "4560-807",
      "city": "SÃO MARTINHO RECEZINHOS",
      "lon": "-8.201433322986395",
      "lat": "41.22434373467924"
    },
    {
      "id": "pt.ine.add.PTCONT.3682367",
      "street": "R LEIROS",
      "house": "106",
      "postcode": "4560-807",
      "city": "SÃO MARTINHO RECEZINHOS",
      "lon": "-8.2021967201125",
      "lat": "41.22446033488187"
    },
    {
      "id": "pt.ine.add.PTCONT.3774574",
      "street": "TV SOUTINHO",
      "house": "37",
      "postcode": "4560-807",
      "city": "SÃO MARTINHO RECEZINHOS",
      "lon": "-8.200813915194813",
      "lat": "41.2250734474211"
    },
    {
      "id": "pt.ine.add.PTCONT.4032996",
      "street": "TV SOUTINHO",
      "house": "49",
      "postcode": "4560-807",
      "city": "SÃO MARTINHO RECEZINHOS",
      "lon": "-8.200813850181483",
      "lat": "41.225010417484484"
    },
    {
      "id": "pt.ine.add.PTCONT.4032997",
      "street": "TV SOUTINHO",
      "house": "49",
      "postcode": "4560-807",
      "city": "SÃO MARTINHO RECEZINHOS",
      "lon": "-8.200813850181483",
      "lat": "41.225010417484484"
    },
    {
      "id": "pt.ine.add.PTCONT.4032998",
      "street": "TV SOUTINHO",
      "house": "49A",
      "postcode": "4560-807",
      "city": "SÃO MARTINHO RECEZINHOS",
      "lon": "-8.200813850181483",
      "lat": "41.225010417484484"
    },
    {
      "id": "pt.ine.add.PTCONT.4035579",
      "street": "TV SOUTINHO",
      "house": "49",
      "postcode": "4560-807",
      "city": "SÃO MARTINHO RECEZINHOS",
      "lon": "-8.200813850181483",
      "lat": "41.225010417484484"
    },
    {
      "id": "pt.ine.add.PTCONT.4131128",
      "street": "R SOUTINHO",
      "house": "3",
      "postcode": "4560-807",
      "city": "SÃO MARTINHO RECEZINHOS",
      "lon": "-8.201063751998385",
      "lat": "41.224479017610605"
    },
    {
      "id": "pt.ine.add.PTCONT.4179970",
      "street": "R LEIROS",
      "house": "4",
      "postcode": "4560-807",
      "city": "SÃO MARTINHO RECEZINHOS",
      "lon": "-8.201147048594976",
      "lat": "41.22429888276262"
    },
    {
      "id": "pt.ine.add.PTCONT.4340791",
      "street": "TV SOUTINHO",
      "house": "23",
      "postcode": "4560-807",
      "city": "SÃO MARTINHO RECEZINHOS",
      "lon": "-8.20083748904541",
      "lat": "41.22480330508993"
    },
    {
      "id": "pt.ine.add.PTCONT.4361298",
      "street": "LAD LEIROS",
      "house": "",
      "postcode": "4560-807",
      "city": "SÃO MARTINHO RECEZINHOS",
      "lon": "-8.202101897480928",
      "lat": "41.22501865725143"
    }
  ]
}