{
  "data": {
    "distrito": "Aveiro",
    "concelho": "Oliveira de Azeméis",
    "freguesia": "Carregosa",
    "OBJECTID": 297,
    "BGRI2021": "01130100216",
    "DT21": "01",
    "DTMN21": "0113",
    "DTMNFR21": "011301",
    "DTMNFRSEC21": "011301002",
    "SECNUM21": "002",
    "SSNUM21": "16",
    "SECSSNUM21": "00216",
    "OBJECTID_1": 8907,
    "DT": "01",
    "CC": "13",
    "fr": "01",
    "SEC": "002",
    "SS": "16"
  },
  "addresses": [
    {
      "id": "pt.ine.add.PTCONT.299117",
      "street": "LG JOGO",
      "house": "7",
      "postcode": "3720-012",
      "city": "CARREGOSA",
      "lon": "-8.41349985050164",
      "lat": "40.89838300242965"
    },
    {
      "id": "pt.ine.add.PTCONT.305103",
      "street": "CAM FISCAL",
      "house": "200",
      "postcode": "3720-012",
      "city": "CARREGOSA",
      "lon": "-8.416441783682961",
      "lat": "40.89810566913799"
    },
    {
      "id": "pt.ine.add.PTCONT.310662",
      "street": "R FONTAÍNHAS",
      "house": "127",
      "postcode": "3720-012",
      "city": "CARREGOSA",
      "lon": "-8.416478999322614",
      "lat": "40.8984837784336"
    },
    {
      "id": "pt.ine.add.PTCONT.310665",
      "street": "R FONTAÍNHAS",
      "house": "127",
      "postcode": "3720-012",
      "city": "CARREGOSA",
      "lon": "-8.416478999322614",
      "lat": "40.8984837784336"
    },
    {
      "id": "pt.ine.add.PTCONT.322771",
      "street": "TV OUTEIRINHO",
      "house": "18",
      "postcode": "3720-012",
      "city": "CARREGOSA",
      "lon": "-8.413852518756501",
      "lat": "40.89758972384473"
    },
    {
      "id": "pt.ine.add.PTCONT.14716",
      "street": "TV OUTEIRINHO",
      "house": "",
      "postcode": "3720-012",
      "city": "CARREGOSA",
      "lon": "-8.413946618064113",
      "lat": "40.89739138956887"
    },
    {
      "id": "pt.ine.add.PTCONT.60988",
      "street": "TV OUTEIRINHO",
      "house": "56",
      "postcode": "3720-012",
      "city": "CARREGOSA",
      "lon": "-8.413969933331456",
      "lat": "40.89729228020134"
    },
    {
      "id": "pt.ine.add.PTCONT.105724",
      "street": "CAM TEIRALTOS",
      "house": "353",
      "postcode": "3720-012",
      "city": "CARREGOSA",
      "lon": "-8.416062262498453",
      "lat": "40.89816062955762"
    },
    {
      "id": "pt.ine.add.PTCONT.138150",
      "street": "CAM TEIRALTOS",
      "house": "",
      "postcode": "3720-012",
      "city": "CARREGOSA",
      "lon": "-8.414164723277247",
      "lat": "40.89845342231805"
    },
    {
      "id": "pt.ine.add.PTCONT.154618",
      "street": "CAM TEIRALTOS",
      "house": "363",
      "postcode": "3720-012",
      "city": "CARREGOSA",
      "lon": "-8.416276832838815",
      "lat": "40.89838522241368"
    },
    {
      "id": "pt.ine.add.PTCONT.164588",
      "street": "R CARREIRO NOVO",
      "house": "242",
      "postcode": "3720-012",
      "city": "CARREGOSA",
      "lon": "-8.413487222783054",
      "lat": "40.898202937537285"
    },
    {
      "id": "pt.ine.add.PTCONT.188424",
      "street": "LG JOGO",
      "house": "47",
      "postcode": "3720-012",
      "city": "CARREGOSA",
      "lon": "-8.413867736291252",
      "lat": "40.89838210744391"
    },
    {
      "id": "pt.ine.add.PTCONT.220991",
      "street": "CAM TEIRALTOS",
      "house": "211",
      "postcode": "3720-012",
      "city": "CARREGOSA",
      "lon": "-8.41484154116068",
      "lat": "40.898541818750395"
    },
    {
      "id": "pt.ine.add.PTCONT.223629",
      "street": "CAM TEIRALTOS",
      "house": "218",
      "postcode": "3720-012",
      "city": "CARREGOSA",
      "lon": "-8.41483055254799",
      "lat": "40.898748955507756"
    },
    {
      "id": "pt.ine.add.PTCONT.247104",
      "street": "CAM TEIRALTOS",
      "house": "128",
      "postcode": "3720-012",
      "city": "CARREGOSA",
      "lon": "-8.413903795081037",
      "lat": "40.89849007700954"
    },
    {
      "id": "pt.ine.add.PTCONT.269664",
      "street": "CAM TEIRALTOS",
      "house": "176",
      "postcode": "3720-012",
      "city": "CARREGOSA",
      "lon": "-8.41447357820541",
      "lat": "40.89852470747317"
    },
    {
      "id": "pt.ine.add.PTCONT.278404",
      "street": "R DALEM",
      "house": "41",
      "postcode": "3720-012",
      "city": "CARREGOSA",
      "lon": "-8.413736777562537",
      "lat": "40.89828337359778"
    }
  ]
}