{
  "data": {
    "distrito": "Viseu",
    "concelho": "Penalva do Castelo",
    "freguesia": "Pindo",
    "OBJECTID": 134,
    "BGRI2021": "18110900114",
    "DT21": "18",
    "DTMN21": "1811",
    "DTMNFR21": "181109",
    "DTMNFRSEC21": "181109001",
    "SECNUM21": "001",
    "SSNUM21": "14",
    "SECSSNUM21": "00114",
    "OBJECTID_1": 194448,
    "DT": "18",
    "CC": "11",
    "fr": "09",
    "SEC": "001",
    "SS": "14"
  },
  "addresses": [
    {
      "id": "pt.ine.add.PTCONT.5459291",
      "street": "R CABIDO",
      "house": "1",
      "postcode": "3550-128",
      "city": "PINDO",
      "lon": "-7.747881826926395",
      "lat": "40.67668506004906"
    },
    {
      "id": "pt.ine.add.PTCONT.5470679",
      "street": "R CABIDO",
      "house": "7",
      "postcode": "3550-128",
      "city": "PINDO",
      "lon": "-7.747388382716931",
      "lat": "40.676107085501464"
    },
    {
      "id": "pt.ine.add.PTCONT.5511602",
      "street": "R ALMAS",
      "house": "",
      "postcode": "3550-128",
      "city": "PINDO",
      "lon": "-7.7476156496841",
      "lat": "40.6756665940102"
    },
    {
      "id": "pt.ine.add.PTCONT.5537362",
      "street": "R CRUZ DE PEDRA",
      "house": "21",
      "postcode": "3550-252",
      "city": "PINDO",
      "lon": "-7.744124579522191",
      "lat": "40.67395291898318"
    },
    {
      "id": "pt.ine.add.PTCONT.5553060",
      "street": "R CRUZ DE PEDRA",
      "house": "",
      "postcode": "3550-252",
      "city": "PINDO",
      "lon": "-7.745344196946319",
      "lat": "40.67371388326965"
    },
    {
      "id": "pt.ine.add.PTCONT.5555649",
      "street": "R ALMAS",
      "house": "22",
      "postcode": "3550-128",
      "city": "PINDO",
      "lon": "-7.747685007540564",
      "lat": "40.67594598404416"
    },
    {
      "id": "pt.ine.add.PTCONT.5565316",
      "street": "R CRUZ DE PEDRA",
      "house": "19",
      "postcode": "3550-252",
      "city": "PINDO",
      "lon": "-7.74393434838683",
      "lat": "40.67412337512372"
    },
    {
      "id": "pt.ine.add.PTCONT.5588358",
      "street": "R SEM NOME",
      "house": "",
      "postcode": "3550-128",
      "city": "PINDO",
      "lon": "-7.749006453081276",
      "lat": "40.67445553880903"
    },
    {
      "id": "pt.ine.add.PTCONT.5609509",
      "street": "R PRINCIPAL",
      "house": "",
      "postcode": "3550-253",
      "city": "PINDO",
      "lon": "-7.752328347972025",
      "lat": "40.67682588163387"
    },
    {
      "id": "pt.ine.add.PTCONT.5615396",
      "street": "R PRINCIPAL",
      "house": "",
      "postcode": "3550-253",
      "city": "PINDO",
      "lon": "-7.752032448173512",
      "lat": "40.67686092583791"
    }
  ]
}