{
  "data": {
    "distrito": "Viseu",
    "concelho": "Lamego",
    "freguesia": "União das freguesias de Cepões, Meijinhos e Melcões",
    "OBJECTID": 690,
    "BGRI2021": "18052700161",
    "DT21": "18",
    "DTMN21": "1805",
    "DTMNFR21": "180527",
    "DTMNFRSEC21": "180527001",
    "SECNUM21": "001",
    "SSNUM21": "61",
    "SECSSNUM21": "00161",
    "OBJECTID_1": 190990,
    "DT": "18",
    "CC": "05",
    "fr": "27",
    "SEC": "001",
    "SS": "61"
  },
  "addresses": [
    {
      "id": "pt.ine.add.PTCONT.5439325",
      "street": "LUGAR DA RECHECA",
      "house": "",
      "postcode": "5100-446",
      "city": "CEPÕES LMG",
      "lon": "-7.793081181039696",
      "lat": "41.07457836857575"
    },
    {
      "id": "pt.ine.add.PTCONT.5516769",
      "street": "",
      "house": "",
      "postcode": "5100-446",
      "city": "CEPÕES LMG",
      "lon": "-7.795001274219644",
      "lat": "41.0760517512001"
    },
    {
      "id": "pt.ine.add.PTCONT.5524206",
      "street": "QTA GALHOSA",
      "house": "",
      "postcode": "5100-446",
      "city": "CEPÕES LMG",
      "lon": "-7.793974572168064",
      "lat": "41.07670606222416"
    },
    {
      "id": "pt.ine.add.PTCONT.5533950",
      "street": "",
      "house": "",
      "postcode": "5100-446",
      "city": "CEPÕES LMG",
      "lon": "-7.794643284694931",
      "lat": "41.076248799137694"
    },
    {
      "id": "pt.ine.add.PTCONT.5547613",
      "street": "",
      "house": "",
      "postcode": "5100-446",
      "city": "CEPÕES LMG",
      "lon": "-7.794874722500127",
      "lat": "41.0752049572305"
    },
    {
      "id": "pt.ine.add.PTCONT.5560031",
      "street": "GALHOSA",
      "house": "CX 105",
      "postcode": "5100-465",
      "city": "CEPÕES LMG",
      "lon": "-7.7947951113167555",
      "lat": "41.07680752362488"
    },
    {
      "id": "pt.ine.add.PTCONT.5572545",
      "street": "",
      "house": "",
      "postcode": "5100-446",
      "city": "CEPÕES LMG",
      "lon": "-7.79459279658469",
      "lat": "41.074492774130036"
    },
    {
      "id": "pt.ine.add.PTCONT.5591505",
      "street": "LUGAR DA RECHECA",
      "house": "",
      "postcode": "5100-446",
      "city": "CEPÕES LMG",
      "lon": "-7.793458931632188",
      "lat": "41.07516477488924"
    },
    {
      "id": "pt.ine.add.PTCONT.5609778",
      "street": "",
      "house": "",
      "postcode": "5100-446",
      "city": "CEPÕES LMG",
      "lon": "-7.794343170965804",
      "lat": "41.07676117340315"
    },
    {
      "id": "pt.ine.add.PTCONT.5652734",
      "street": "",
      "house": "",
      "postcode": "5100-446",
      "city": "CEPÕES LMG",
      "lon": "-7.794500793947369",
      "lat": "41.073871193476485"
    },
    {
      "id": "pt.ine.add.PTCONT.5660296",
      "street": "QTA RECHECA",
      "house": "",
      "postcode": "5100-446",
      "city": "CEPÕES LMG",
      "lon": "-7.791801531034398",
      "lat": "41.07582621042509"
    },
    {
      "id": "pt.ine.add.PTCONT.5664418",
      "street": "SANTANA",
      "house": "",
      "postcode": "5100-446",
      "city": "CEPÕES LMG",
      "lon": "-7.795154533080142",
      "lat": "41.0763313401157"
    }
  ]
}