{
  "data": {
    "distrito": "Vila Real",
    "concelho": "Chaves",
    "freguesia": "Sanfins",
    "OBJECTID": 246,
    "BGRI2021": "17032700103",
    "DT21": "17",
    "DTMN21": "1703",
    "DTMNFR21": "170327",
    "DTMNFRSEC21": "170327001",
    "SECNUM21": "001",
    "SSNUM21": "03",
    "SECSSNUM21": "00103",
    "OBJECTID_1": 180759,
    "DT": "17",
    "CC": "03",
    "fr": "27",
    "SEC": "001",
    "SS": "03"
  },
  "addresses": [
    {
      "id": "pt.ine.add.PTCONT.5292935",
      "street": "R DO LOMBEIRO",
      "house": "6",
      "postcode": "5400-732",
      "city": "SANFINS CHV",
      "lon": "-7.218786203100503",
      "lat": "41.783402650346495"
    },
    {
      "id": "pt.ine.add.PTCONT.5294047",
      "street": "LG DO CRUZEIRO",
      "house": "14",
      "postcode": "5400-732",
      "city": "SANFINS CHV",
      "lon": "-7.21940870141498",
      "lat": "41.78361467852248"
    },
    {
      "id": "pt.ine.add.PTCONT.5309632",
      "street": "R DO LOMBEIRO",
      "house": "",
      "postcode": "5400-732",
      "city": "SANFINS CHV",
      "lon": "-7.219085487994876",
      "lat": "41.78350406802545"
    },
    {
      "id": "pt.ine.add.PTCONT.5311709",
      "street": "CAM DE S GONÇALO",
      "house": "",
      "postcode": "5400-732",
      "city": "SANFINS CHV",
      "lon": "-7.218948444993241",
      "lat": "41.78298979086321"
    },
    {
      "id": "pt.ine.add.PTCONT.5313454",
      "street": "R DO LOMBEIRO",
      "house": "",
      "postcode": "5400-732",
      "city": "SANFINS CHV",
      "lon": "-7.218884214753596",
      "lat": "41.783277384537776"
    },
    {
      "id": "pt.ine.add.PTCONT.5345096",
      "street": "CAM DE S GONÇALO",
      "house": "",
      "postcode": "5400-732",
      "city": "SANFINS CHV",
      "lon": "-7.219103524942508",
      "lat": "41.78308105759404"
    },
    {
      "id": "pt.ine.add.PTCONT.5362747",
      "street": "R DO LOMBEIRO",
      "house": "8",
      "postcode": "5400-732",
      "city": "SANFINS CHV",
      "lon": "-7.218618711433152",
      "lat": "41.78333829421335"
    },
    {
      "id": "pt.ine.add.PTCONT.5406259",
      "street": "R DO LOMBEIRO",
      "house": "",
      "postcode": "5400-732",
      "city": "SANFINS CHV",
      "lon": "-7.2191103104799605",
      "lat": "41.783450245872785"
    },
    {
      "id": "pt.ine.add.PTCONT.5408703",
      "street": "R DE S GONÇALO",
      "house": "7",
      "postcode": "5400-732",
      "city": "SANFINS CHV",
      "lon": "-7.218881017558173",
      "lat": "41.78350244097194"
    },
    {
      "id": "pt.ine.add.PTCONT.5408704",
      "street": "CAM DE S GONÇALO",
      "house": "",
      "postcode": "5400-732",
      "city": "SANFINS CHV",
      "lon": "-7.218854526397135",
      "lat": "41.78282698448424"
    }
  ]
}