{
  "data": {
    "distrito": "Lisboa",
    "concelho": "Sintra",
    "freguesia": "Uni達o das freguesias de Sintra (Santa Maria e S達o Miguel, S達o Martinho e S達o Pedro de Penaferrim)",
    "OBJECTID": 2676,
    "BGRI2021": "11112801213",
    "DT21": "11",
    "DTMN21": "1111",
    "DTMNFR21": "111128",
    "DTMNFRSEC21": "111128012",
    "SECNUM21": "012",
    "SSNUM21": "13",
    "SECSSNUM21": "01213",
    "OBJECTID_1": 114095,
    "DT": "11",
    "CC": "11",
    "fr": "28",
    "SEC": "012",
    "SS": "13"
  },
  "addresses": [
    {
      "id": "pt.ine.add.PTCONT.2536221",
      "street": "AV HELIODORO SALGADO",
      "house": "42",
      "postcode": "2710-573",
      "city": "SINTRA",
      "lon": "-9.381811330686626",
      "lat": "38.80222717052583"
    },
    {
      "id": "pt.ine.add.PTCONT.2581769",
      "street": "PTO OLIVENCA",
      "house": "7",
      "postcode": "2710-600",
      "city": "SINTRA",
      "lon": "-9.381978778873227",
      "lat": "38.80192813006228"
    },
    {
      "id": "pt.ine.add.PTCONT.2627214",
      "street": "AV DR DESIDERIO CAMBOURNAC",
      "house": "10",
      "postcode": "2710-553",
      "city": "SINTRA",
      "lon": "-9.380706142130748",
      "lat": "38.80222096262399"
    },
    {
      "id": "pt.ine.add.PTCONT.2643377",
      "street": "AV HELIODORO SALGADO",
      "house": "34",
      "postcode": "2710-572",
      "city": "SINTRA",
      "lon": "-9.382107265356913",
      "lat": "38.80203484765075"
    },
    {
      "id": "pt.ine.add.PTCONT.2643378",
      "street": "AV HELIODORO SALGADO",
      "house": "34",
      "postcode": "2710-572",
      "city": "SINTRA",
      "lon": "-9.382107265356913",
      "lat": "38.80203484765075"
    },
    {
      "id": "pt.ine.add.PTCONT.2678967",
      "street": "AV DR DESIDERIO CAMBOURNAC",
      "house": "8",
      "postcode": "2710-553",
      "city": "SINTRA",
      "lon": "-9.380924815190925",
      "lat": "38.802218627259194"
    },
    {
      "id": "pt.ine.add.PTCONT.2696262",
      "street": "AV HELIODORO SALGADO",
      "house": "44",
      "postcode": "2710-573",
      "city": "SINTRA",
      "lon": "-9.38173249607617",
      "lat": "38.8023270966402"
    },
    {
      "id": "pt.ine.add.PTCONT.2912482",
      "street": "AV DR DESIDERIO CAMBOURNAC",
      "house": "2",
      "postcode": "2710-553",
      "city": "SINTRA",
      "lon": "-9.38157246858264",
      "lat": "38.80239185999611"
    },
    {
      "id": "pt.ine.add.PTCONT.2912485",
      "street": "AV DR DESIDERIO CAMBOURNAC",
      "house": "2",
      "postcode": "2710-553",
      "city": "SINTRA",
      "lon": "-9.38157246858264",
      "lat": "38.80239185999611"
    },
    {
      "id": "pt.ine.add.PTCONT.2958255",
      "street": "AV HELIODORO SALGADO",
      "house": "10",
      "postcode": "2710-572",
      "city": "SINTRA",
      "lon": "-9.382426059232479",
      "lat": "38.80183327199263"
    },
    {
      "id": "pt.ine.add.PTCONT.2958256",
      "street": "AV HELIODORO SALGADO",
      "house": "10",
      "postcode": "2710-572",
      "city": "SINTRA",
      "lon": "-9.382426059232479",
      "lat": "38.80183327199263"
    },
    {
      "id": "pt.ine.add.PTCONT.2982678",
      "street": "PTO OLIVENCA",
      "house": "5",
      "postcode": "2710-600",
      "city": "SINTRA",
      "lon": "-9.381554043922883",
      "lat": "38.80199572272121"
    },
    {
      "id": "pt.ine.add.PTCONT.2982679",
      "street": "PTO OLIVENCA",
      "house": "5",
      "postcode": "2710-600",
      "city": "SINTRA",
      "lon": "-9.381554043922883",
      "lat": "38.80199572272121"
    },
    {
      "id": "pt.ine.add.PTCONT.2982849",
      "street": "PTO OLIVENCA",
      "house": "5",
      "postcode": "2710-600",
      "city": "SINTRA",
      "lon": "-9.381554043922883",
      "lat": "38.80199572272121"
    },
    {
      "id": "pt.ine.add.PTCONT.2982850",
      "street": "PTO OLIVENCA",
      "house": "5",
      "postcode": "2710-600",
      "city": "SINTRA",
      "lon": "-9.381554043922883",
      "lat": "38.80199572272121"
    },
    {
      "id": "pt.ine.add.PTCONT.2982851",
      "street": "PTO OLIVENCA",
      "house": "5",
      "postcode": "2710-600",
      "city": "SINTRA",
      "lon": "-9.381554043922883",
      "lat": "38.80199572272121"
    },
    {
      "id": "pt.ine.add.PTCONT.2988103",
      "street": "PTO OLIVENCA",
      "house": "5",
      "postcode": "2710-600",
      "city": "SINTRA",
      "lon": "-9.381554043922883",
      "lat": "38.80199572272121"
    },
    {
      "id": "pt.ine.add.PTCONT.2994665",
      "street": "AV HELIODORO SALGADO",
      "house": "16",
      "postcode": "2710-572",
      "city": "SINTRA",
      "lon": "-9.382266662520319",
      "lat": "38.80193405992755"
    },
    {
      "id": "pt.ine.add.PTCONT.2994666",
      "street": "AV HELIODORO SALGADO",
      "house": "16",
      "postcode": "2710-572",
      "city": "SINTRA",
      "lon": "-9.382266662520319",
      "lat": "38.80193405992755"
    },
    {
      "id": "pt.ine.add.PTCONT.2994667",
      "street": "AV HELIODORO SALGADO",
      "house": "16",
      "postcode": "2710-572",
      "city": "SINTRA",
      "lon": "-9.382266662520319",
      "lat": "38.80193405992755"
    },
    {
      "id": "pt.ine.add.PTCONT.2994668",
      "street": "AV HELIODORO SALGADO",
      "house": "16",
      "postcode": "2710-572",
      "city": "SINTRA",
      "lon": "-9.382266662520319",
      "lat": "38.80193405992755"
    },
    {
      "id": "pt.ine.add.PTCONT.3078486",
      "street": "R PARTICULAR A",
      "house": "A",
      "postcode": "2710-605",
      "city": "SINTRA",
      "lon": "-9.381155311573327",
      "lat": "38.80223418037131"
    },
    {
      "id": "pt.ine.add.PTCONT.3078487",
      "street": "R PARTICULAR",
      "house": "PORTA C",
      "postcode": "2710-605",
      "city": "SINTRA",
      "lon": "-9.381155311573327",
      "lat": "38.80223418037131"
    },
    {
      "id": "pt.ine.add.PTCONT.3078488",
      "street": "R PARTICULAR",
      "house": "LETRA D",
      "postcode": "2710-605",
      "city": "SINTRA",
      "lon": "-9.381155311573327",
      "lat": "38.80223418037131"
    },
    {
      "id": "pt.ine.add.PTCONT.3078489",
      "street": "R PARTICULAR F",
      "house": "F",
      "postcode": "2710-605",
      "city": "SINTRA",
      "lon": "-9.381155311573327",
      "lat": "38.80223418037131"
    },
    {
      "id": "pt.ine.add.PTCONT.3081054",
      "street": "R PARTICULAR B",
      "house": "B",
      "postcode": "2710-605",
      "city": "SINTRA",
      "lon": "-9.381155311573327",
      "lat": "38.80223418037131"
    },
    {
      "id": "pt.ine.add.PTCONT.3204491",
      "street": "AV HELIODORO SALGADO",
      "house": "9",
      "postcode": "2710-575",
      "city": "SINTRA",
      "lon": "-9.382033651257215",
      "lat": "38.801774414372005"
    },
    {
      "id": "pt.ine.add.PTCONT.3204492",
      "street": "AV HELIODORO SALGADO",
      "house": "9",
      "postcode": "2710-575",
      "city": "SINTRA",
      "lon": "-9.382033651257215",
      "lat": "38.801774414372005"
    },
    {
      "id": "pt.ine.add.PTCONT.3204493",
      "street": "AV HELIODORO SALGADO",
      "house": "9",
      "postcode": "2710-575",
      "city": "SINTRA",
      "lon": "-9.382033651257215",
      "lat": "38.801774414372005"
    },
    {
      "id": "pt.ine.add.PTCONT.3204494",
      "street": "AV HELIODORO SALGADO",
      "house": "20",
      "postcode": "2710-575",
      "city": "SINTRA",
      "lon": "-9.382033651257215",
      "lat": "38.801774414372005"
    },
    {
      "id": "pt.ine.add.PTCONT.3204495",
      "street": "AV HELIODORO SALGADO",
      "house": "9",
      "postcode": "2710-575",
      "city": "SINTRA",
      "lon": "-9.382033651257215",
      "lat": "38.801774414372005"
    },
    {
      "id": "pt.ine.add.PTCONT.3274719",
      "street": "AV DR DESIDERIO CAMBOURNAC",
      "house": "14",
      "postcode": "2710-553",
      "city": "SINTRA",
      "lon": "-9.380452627649339",
      "lat": "38.80220565438182"
    },
    {
      "id": "pt.ine.add.PTCONT.3319308",
      "street": "AV HELIODORO SALGADO",
      "house": "40",
      "postcode": "2710-573",
      "city": "SINTRA",
      "lon": "-9.381948182182144",
      "lat": "38.80215364698982"
    },
    {
      "id": "pt.ine.add.PTCONT.3366857",
      "street": "PTO OLIVENCA",
      "house": "6",
      "postcode": "2710-600",
      "city": "SINTRA",
      "lon": "-9.381817652076608",
      "lat": "38.80192985233965"
    }
  ]
}