{
  "data": {
    "distrito": "Évora",
    "concelho": "Estremoz",
    "freguesia": "União das freguesias de São Lourenço de Mamporcão e São Bento de Ana Loura",
    "OBJECTID": 360,
    "BGRI2021": "07041600106",
    "DT21": "07",
    "DTMN21": "0704",
    "DTMNFR21": "070416",
    "DTMNFRSEC21": "070416001",
    "SECNUM21": "001",
    "SSNUM21": "06",
    "SECSSNUM21": "00106",
    "OBJECTID_1": 59314,
    "DT": "07",
    "CC": "04",
    "fr": "16",
    "SEC": "001",
    "SS": "06"
  },
  "addresses": [
    {
      "id": "pt.ine.add.PTCONT.1370881",
      "street": "R RAINHA STA ISABEL",
      "house": "5",
      "postcode": "7100-658",
      "city": "SÃO LOURENÇO DE MAMPORCÃO",
      "lon": "-7.543681617861879",
      "lat": "38.89098947794846"
    },
    {
      "id": "pt.ine.add.PTCONT.1371623",
      "street": "MTE BRANCO",
      "house": "",
      "postcode": "7100-650",
      "city": "SÃO LOURENÇO DE MAMPORCÃO",
      "lon": "-7.541432196383587",
      "lat": "38.88894128281994"
    },
    {
      "id": "pt.ine.add.PTCONT.1391220",
      "street": "MTE REI SIMAO",
      "house": "",
      "postcode": "7100-652",
      "city": "SÃO LOURENÇO DE MAMPORCÃO",
      "lon": "-7.544333424547858",
      "lat": "38.882353209842975"
    },
    {
      "id": "pt.ine.add.PTCONT.1401728",
      "street": "MTE BRANCO",
      "house": "",
      "postcode": "7100-650",
      "city": "SÃO LOURENÇO DE MAMPORCÃO",
      "lon": "-7.5409240400577335",
      "lat": "38.88906481633405"
    },
    {
      "id": "pt.ine.add.PTCONT.1407365",
      "street": "R RAINHA STA ISABEL",
      "house": "1",
      "postcode": "7100-661",
      "city": "SÃO LOURENÇO DE MAMPORCÃO",
      "lon": "-7.543586291877517",
      "lat": "38.89105723995104"
    },
    {
      "id": "pt.ine.add.PTCONT.1408687",
      "street": "MTE BRANCO",
      "house": "",
      "postcode": "7100-650",
      "city": "SÃO LOURENÇO DE MAMPORCÃO",
      "lon": "-7.540971412270979",
      "lat": "38.8889119236052"
    },
    {
      "id": "pt.ine.add.PTCONT.1408688",
      "street": "MTE BRANCO",
      "house": "",
      "postcode": "7100-650",
      "city": "SÃO LOURENÇO DE MAMPORCÃO",
      "lon": "-7.540888267685773",
      "lat": "38.88920876005034"
    },
    {
      "id": "pt.ine.add.PTCONT.1417566",
      "street": "R FLORES",
      "house": "1",
      "postcode": "7100-661",
      "city": "SÃO LOURENÇO DE MAMPORCÃO",
      "lon": "-7.543267149570357",
      "lat": "38.89094882974409"
    },
    {
      "id": "pt.ine.add.PTCONT.1419927",
      "street": "R RAINHA STA ISABEL",
      "house": "3",
      "postcode": "7100-067",
      "city": "SÃO LOURENÇO DE MAMPORCÃO",
      "lon": "-7.5436852447356",
      "lat": "38.891060507598645"
    },
    {
      "id": "pt.ine.add.PTCONT.1447761",
      "street": "MTE CORTICA",
      "house": "",
      "postcode": "7100-652",
      "city": "SÃO LOURENÇO DE MAMPORCÃO",
      "lon": "-7.542287496706823",
      "lat": "38.88169431238555"
    },
    {
      "id": "pt.ine.add.PTCONT.1448608",
      "street": "MTE REI SIMAO",
      "house": "",
      "postcode": "7100-650",
      "city": "SÃO LOURENÇO DE MAMPORCÃO",
      "lon": "-7.544218926550362",
      "lat": "38.88226255415846"
    },
    {
      "id": "pt.ine.add.PTCONT.1465346",
      "street": "R DR ANTÓNIO SARAIVA",
      "house": "1",
      "postcode": "7100-658",
      "city": "SÃO LOURENÇO DE MAMPORCÃO",
      "lon": "-7.544464050328748",
      "lat": "38.89070898775399"
    }
  ]
}