{
  "data": {
    "distrito": "Aveiro",
    "concelho": "Ílhavo",
    "freguesia": "Gafanha da Encarnação",
    "OBJECTID": 417,
    "BGRI2021": "01100500118",
    "DT21": "01",
    "DTMN21": "0110",
    "DTMNFR21": "011005",
    "DTMNFRSEC21": "011005001",
    "SECNUM21": "001",
    "SSNUM21": "18",
    "SECSSNUM21": "00118",
    "OBJECTID_1": 7658,
    "DT": "01",
    "CC": "10",
    "fr": "05",
    "SEC": "001",
    "SS": "18"
  },
  "addresses": [
    {
      "id": "pt.ine.add.PTCONT.296310",
      "street": "TV PERDIZES",
      "house": "48",
      "postcode": "3830-384",
      "city": "GAFANHA DA ENCARNAÇÃO",
      "lon": "-8.71564060748955",
      "lat": "40.618630648522"
    },
    {
      "id": "pt.ine.add.PTCONT.4030",
      "street": "R 25 DE ABRIL",
      "house": "47",
      "postcode": "3830-025",
      "city": "ÍLHAVO",
      "lon": "-8.713464340795968",
      "lat": "40.61860351305623"
    },
    {
      "id": "pt.ine.add.PTCONT.57479",
      "street": "TV SAUDADE",
      "house": "67",
      "postcode": "3830-805",
      "city": "GAFANHA DA ENCARNAÇÃO",
      "lon": "-8.715892605904772",
      "lat": "40.614991291007556"
    },
    {
      "id": "pt.ine.add.PTCONT.82016",
      "street": "TV PERDIZES",
      "house": "",
      "postcode": "3830-384",
      "city": "GAFANHA DA ENCARNAÇÃO",
      "lon": "-8.715660408904927",
      "lat": "40.618189295735135"
    },
    {
      "id": "pt.ine.add.PTCONT.135342",
      "street": "TV SAUDADE",
      "house": "",
      "postcode": "3830-805",
      "city": "GAFANHA DA ENCARNAÇÃO",
      "lon": "-8.718067160233998",
      "lat": "40.615016318428516"
    },
    {
      "id": "pt.ine.add.PTCONT.201742",
      "street": "R 25 DE ABRIL",
      "house": "",
      "postcode": "3830-498",
      "city": "GAFANHA DA ENCARNAÇÃO",
      "lon": "-8.713509230352132",
      "lat": "40.61814609540083"
    }
  ]
}