{
  "data": {
    "distrito": "Viseu",
    "concelho": "Viseu",
    "freguesia": "União das freguesias de Boa Aldeia, Farminhão e Torredeita",
    "OBJECTID": 999,
    "BGRI2021": "18233600114",
    "DT21": "18",
    "DTMN21": "1823",
    "DTMNFR21": "182336",
    "DTMNFRSEC21": "182336001",
    "SECNUM21": "001",
    "SSNUM21": "14",
    "SECSSNUM21": "00114",
    "OBJECTID_1": 201431,
    "DT": "18",
    "CC": "23",
    "fr": "36",
    "SEC": "001",
    "SS": "14"
  },
  "addresses": [
    {
      "id": "pt.ine.add.PTCONT.5432213",
      "street": "R DA ESCOLA",
      "house": "",
      "postcode": "3510-643",
      "city": "FARMINHÃO",
      "lon": "-8.016379375397785",
      "lat": "40.61457458244345"
    },
    {
      "id": "pt.ine.add.PTCONT.5433089",
      "street": "R ESCOLA",
      "house": "",
      "postcode": "3510-645",
      "city": "FARMINHÃO",
      "lon": "-8.01753169541942",
      "lat": "40.61105469273664"
    },
    {
      "id": "pt.ine.add.PTCONT.5446023",
      "street": "R ALTO DO VISO",
      "house": "6",
      "postcode": "3510-645",
      "city": "FARMINHÃO",
      "lon": "-8.018254146867903",
      "lat": "40.61009185242243"
    },
    {
      "id": "pt.ine.add.PTCONT.5486696",
      "street": "R ESCOLA",
      "house": "23",
      "postcode": "3510-645",
      "city": "FARMINHÃO",
      "lon": "-8.017401668189716",
      "lat": "40.611081578276874"
    },
    {
      "id": "pt.ine.add.PTCONT.5489467",
      "street": "R VISO",
      "house": "12",
      "postcode": "3510-645",
      "city": "FARMINHÃO",
      "lon": "-8.018727395760639",
      "lat": "40.60974111753932"
    },
    {
      "id": "pt.ine.add.PTCONT.5507865",
      "street": "R ESCOLA",
      "house": "",
      "postcode": "3510-645",
      "city": "FARMINHÃO",
      "lon": "-8.017661691549412",
      "lat": "40.61104581750286"
    },
    {
      "id": "pt.ine.add.PTCONT.5515367",
      "street": "R ALTO DO VISO",
      "house": "2",
      "postcode": "3510-645",
      "city": "FARMINHÃO",
      "lon": "-8.017899705714575",
      "lat": "40.610064483693044"
    },
    {
      "id": "pt.ine.add.PTCONT.5553933",
      "street": "AV DR FERNANDO CARVALHO RUAS",
      "house": "",
      "postcode": "3510-643",
      "city": "FARMINHÃO",
      "lon": "-8.01661520007957",
      "lat": "40.61487199333505"
    },
    {
      "id": "pt.ine.add.PTCONT.5565374",
      "street": "R ESCOLA",
      "house": "2T",
      "postcode": "3510-643",
      "city": "FARMINHÃO",
      "lon": "-8.017257476009675",
      "lat": "40.61246824083294"
    },
    {
      "id": "pt.ine.add.PTCONT.5577136",
      "street": "R ESCOLA",
      "house": "39",
      "postcode": "3510-643",
      "city": "FARMINHÃO",
      "lon": "-8.016320149074867",
      "lat": "40.61465556969862"
    },
    {
      "id": "pt.ine.add.PTCONT.5598484",
      "street": "R ESCOLA",
      "house": "17",
      "postcode": "3510-645",
      "city": "FARMINHÃO",
      "lon": "-8.017485314461446",
      "lat": "40.610541347498206"
    },
    {
      "id": "pt.ine.add.PTCONT.5616756",
      "street": "R ESCOLA",
      "house": "7",
      "postcode": "3510-645",
      "city": "FARMINHÃO",
      "lon": "-8.017686858333354",
      "lat": "40.61015432362425"
    },
    {
      "id": "pt.ine.add.PTCONT.5642594",
      "street": "R ALTO DO VISO",
      "house": "8",
      "postcode": "3510-645",
      "city": "FARMINHÃO",
      "lon": "-8.018431390645082",
      "lat": "40.61009202853692"
    },
    {
      "id": "pt.ine.add.PTCONT.5654533",
      "street": "R BARRA",
      "house": "",
      "postcode": "3510-643",
      "city": "FARMINHÃO",
      "lon": "-8.016685961959483",
      "lat": "40.614953111808056"
    }
  ]
}