{
  "data": {
    "distrito": "Santarém",
    "concelho": "Ferreira do Zêzere",
    "freguesia": "Águas Belas",
    "OBJECTID": 503,
    "BGRI2021": "14110100117",
    "DT21": "14",
    "DTMN21": "1411",
    "DTMNFR21": "141101",
    "DTMNFRSEC21": "141101001",
    "SECNUM21": "001",
    "SSNUM21": "17",
    "SECSSNUM21": "00117",
    "OBJECTID_1": 151449,
    "DT": "14",
    "CC": "11",
    "fr": "01",
    "SEC": "001",
    "SS": "17"
  },
  "addresses": [
    {
      "id": "pt.ine.add.PTCONT.4401448",
      "street": "R SANTO ANTÓNIO",
      "house": "",
      "postcode": "2240-029",
      "city": "ÁGUAS BELAS FZZ",
      "lon": "-8.285136534094702",
      "lat": "39.70484308312887"
    },
    {
      "id": "pt.ine.add.PTCONT.4444292",
      "street": "R OOM AFONSO HENRIQUES",
      "house": "",
      "postcode": "2240-005",
      "city": "ÁGUAS BELAS FZZ",
      "lon": "-8.284489557157192",
      "lat": "39.707590956878505"
    },
    {
      "id": "pt.ine.add.PTCONT.4447535",
      "street": "R OOM AFONSO HENRIQUES",
      "house": "",
      "postcode": "2240-005",
      "city": "ÁGUAS BELAS FZZ",
      "lon": "-8.284442480998067",
      "lat": "39.70739287197285"
    },
    {
      "id": "pt.ine.add.PTCONT.4508828",
      "street": "R OOM AFONSO HENRIQUES",
      "house": "",
      "postcode": "2240-005",
      "city": "ÁGUAS BELAS FZZ",
      "lon": "-8.284453020134452",
      "lat": "39.706879479227645"
    },
    {
      "id": "pt.ine.add.PTCONT.4509015",
      "street": "R OOM AFONSO HENRIQUES",
      "house": "",
      "postcode": "2240-005",
      "city": "ÁGUAS BELAS FZZ",
      "lon": "-8.284453020134452",
      "lat": "39.706879479227645"
    },
    {
      "id": "pt.ine.add.PTCONT.4509204",
      "street": "TV SANTO ANTÓNIO",
      "house": "",
      "postcode": "2240-005",
      "city": "ÁGUAS BELAS FZZ",
      "lon": "-8.2848006123784",
      "lat": "39.70586127414455"
    },
    {
      "id": "pt.ine.add.PTCONT.4597291",
      "street": "R D AFONSO HENRIQUES",
      "house": "",
      "postcode": "2240-038",
      "city": "ÁGUAS BELAS FZZ",
      "lon": "-8.285045147598387",
      "lat": "39.70570784134909"
    }
  ]
}