{
  "data": {
    "distrito": "Santarém",
    "concelho": "Ferreira do Zêzere",
    "freguesia": "Águas Belas",
    "OBJECTID": 282,
    "BGRI2021": "14110100127",
    "DT21": "14",
    "DTMN21": "1411",
    "DTMNFR21": "141101",
    "DTMNFRSEC21": "141101001",
    "SECNUM21": "001",
    "SSNUM21": "27",
    "SECSSNUM21": "00127",
    "OBJECTID_1": 151309,
    "DT": "14",
    "CC": "11",
    "fr": "01",
    "SEC": "001",
    "SS": "27"
  },
  "addresses": [
    {
      "id": "pt.ine.add.PTCONT.4391426",
      "street": "R CARVALHEIRAS",
      "house": "",
      "postcode": "2240-041",
      "city": "ÁGUAS BELAS FZZ",
      "lon": "-8.286973074175485",
      "lat": "39.712730486361906"
    },
    {
      "id": "pt.ine.add.PTCONT.4412552",
      "street": "R FONTE DA VARELA",
      "house": "",
      "postcode": "2240-038",
      "city": "ÁGUAS BELAS FZZ",
      "lon": "-8.283486074709156",
      "lat": "39.7126630018008"
    },
    {
      "id": "pt.ine.add.PTCONT.4432272",
      "street": "R SÁ FLORES",
      "house": "125",
      "postcode": "2240-038",
      "city": "ÁGUAS BELAS FZZ",
      "lon": "-8.283460326858368",
      "lat": "39.71154621158395"
    },
    {
      "id": "pt.ine.add.PTCONT.4433091",
      "street": "R CARVALHEIRAS",
      "house": "",
      "postcode": "2240-041",
      "city": "ÁGUAS BELAS FZZ",
      "lon": "-8.28637767067403",
      "lat": "39.7124340547146"
    },
    {
      "id": "pt.ine.add.PTCONT.4455163",
      "street": "R BENFICA",
      "house": "",
      "postcode": "2240-041",
      "city": "ÁGUAS BELAS FZZ",
      "lon": "-8.286368261237408",
      "lat": "39.71345181746605"
    },
    {
      "id": "pt.ine.add.PTCONT.4469902",
      "street": "R FONTE DA VARELA",
      "house": "",
      "postcode": "2240-041",
      "city": "ÁGUAS BELAS FZZ",
      "lon": "-8.284956393124384",
      "lat": "39.71309340693742"
    },
    {
      "id": "pt.ine.add.PTCONT.4522338",
      "street": "R SA FLORES",
      "house": "",
      "postcode": "2240-038",
      "city": "ÁGUAS BELAS FZZ",
      "lon": "-8.283716487788938",
      "lat": "39.71136574674045"
    },
    {
      "id": "pt.ine.add.PTCONT.4574713",
      "street": "R FONTE DA VARELA",
      "house": "",
      "postcode": "2240-041",
      "city": "ÁGUAS BELAS FZZ",
      "lon": "-8.285247125504407",
      "lat": "39.712723754097844"
    },
    {
      "id": "pt.ine.add.PTCONT.4594825",
      "street": "R SA FLORES",
      "house": "",
      "postcode": "2240-038",
      "city": "ÁGUAS BELAS FZZ",
      "lon": "-8.282656442927655",
      "lat": "39.711898508817626"
    },
    {
      "id": "pt.ine.add.PTCONT.4606473",
      "street": "R CARVALHEIRAS",
      "house": "",
      "postcode": "2240-041",
      "city": "ÁGUAS BELAS FZZ",
      "lon": "-8.286190965124428",
      "lat": "39.71238026118069"
    },
    {
      "id": "pt.ine.add.PTCONT.4632114",
      "street": "R SA FLORES RETIRO DO COTRIM",
      "house": "",
      "postcode": "2240-038",
      "city": "ÁGUAS BELAS FZZ",
      "lon": "-8.284217556903977",
      "lat": "39.71119396949458"
    },
    {
      "id": "pt.ine.add.PTCONT.4632115",
      "street": "R FONTE DA VARELA",
      "house": "",
      "postcode": "2240-038",
      "city": "ÁGUAS BELAS FZZ",
      "lon": "-8.283578937582975",
      "lat": "39.71246473539213"
    },
    {
      "id": "pt.ine.add.PTCONT.4646150",
      "street": "R SA FLORES",
      "house": "",
      "postcode": "2240-038",
      "city": "ÁGUAS BELAS FZZ",
      "lon": "-8.282912646220218",
      "lat": "39.711736058986524"
    }
  ]
}