{
  "data": {
    "distrito": "Santarém",
    "concelho": "Santarém",
    "freguesia": "União das freguesias de Achete, Azoia de Baixo e Póvoa de Santarém",
    "OBJECTID": 521,
    "BGRI2021": "14162900127",
    "DT21": "14",
    "DTMN21": "1416",
    "DTMNFR21": "141629",
    "DTMNFRSEC21": "141629001",
    "SECNUM21": "001",
    "SSNUM21": "27",
    "SECSSNUM21": "00127",
    "OBJECTID_1": 155023,
    "DT": "14",
    "CC": "16",
    "fr": "29",
    "SEC": "001",
    "SS": "27"
  },
  "addresses": [
    {
      "id": "pt.ine.add.PTCONT.4397218",
      "street": "FRANCISCO ROSA PERPETUO UERRISSIMO",
      "house": "",
      "postcode": "2000-342",
      "city": "ACHETE",
      "lon": "-8.70668246061463",
      "lat": "39.32886737094451"
    },
    {
      "id": "pt.ine.add.PTCONT.4400518",
      "street": "R PINHAL",
      "house": "",
      "postcode": "2000-324",
      "city": "ACHETE",
      "lon": "-8.700447571425014",
      "lat": "39.33374377423361"
    },
    {
      "id": "pt.ine.add.PTCONT.4434399",
      "street": "R CIDADE DE SANTARÉM",
      "house": "",
      "postcode": "2000-324",
      "city": "ACHETE",
      "lon": "-8.700216106885879",
      "lat": "39.33093467147705"
    },
    {
      "id": "pt.ine.add.PTCONT.4447891",
      "street": "R PINHAL",
      "house": "",
      "postcode": "2000-324",
      "city": "ACHETE",
      "lon": "-8.700100142473524",
      "lat": "39.33380851717751"
    },
    {
      "id": "pt.ine.add.PTCONT.4502968",
      "street": "",
      "house": "",
      "postcode": "2000-334",
      "city": "ACHETE",
      "lon": "-8.698596710595691",
      "lat": "39.327150537668444"
    },
    {
      "id": "pt.ine.add.PTCONT.4511051",
      "street": "ESTR CASAIS DE ESPANHA",
      "house": "",
      "postcode": "2000-342",
      "city": "ACHETE",
      "lon": "-8.709147218585015",
      "lat": "39.3380875234256"
    },
    {
      "id": "pt.ine.add.PTCONT.4513959",
      "street": "R PINHAL",
      "house": "",
      "postcode": "2000-324",
      "city": "ACHETE",
      "lon": "-8.700718784854127",
      "lat": "39.33285975145964"
    },
    {
      "id": "pt.ine.add.PTCONT.4527099",
      "street": "R CIDADE DE SANTARÉM",
      "house": "",
      "postcode": "2000-324",
      "city": "ACHETE",
      "lon": "-8.699133474936525",
      "lat": "39.33043554057656"
    },
    {
      "id": "pt.ine.add.PTCONT.4547550",
      "street": "R PINHAL",
      "house": "",
      "postcode": "2000-324",
      "city": "ACHETE",
      "lon": "-8.700332538154942",
      "lat": "39.33386142778616"
    },
    {
      "id": "pt.ine.add.PTCONT.4603286",
      "street": "ESTR CASAIS DE ESPANHA",
      "house": "",
      "postcode": "2000-342",
      "city": "ACHETE",
      "lon": "-8.71019662211281",
      "lat": "39.33734373977681"
    },
    {
      "id": "pt.ine.add.PTCONT.4613760",
      "street": "R CIDADE DE SANTARÉM",
      "house": "",
      "postcode": "2000-324",
      "city": "ACHETE",
      "lon": "-8.695928422581783",
      "lat": "39.32703736953752"
    },
    {
      "id": "pt.ine.add.PTCONT.4641832",
      "street": "CASA DAS ROSAS",
      "house": "",
      "postcode": "2000-342",
      "city": "ACHETE",
      "lon": "-8.706790778064157",
      "lat": "39.32793009315951"
    }
  ]
}