{
  "data": {
    "distrito": "Viana do Castelo",
    "concelho": "Ponte de Lima",
    "freguesia": "Poiares",
    "OBJECTID": 1550,
    "BGRI2021": "16073400125",
    "DT21": "16",
    "DTMN21": "1607",
    "DTMNFR21": "160734",
    "DTMNFRSEC21": "160734001",
    "SECNUM21": "001",
    "SSNUM21": "25",
    "SECSSNUM21": "00125",
    "OBJECTID_1": 176578,
    "DT": "16",
    "CC": "07",
    "fr": "34",
    "SEC": "001",
    "SS": "25"
  },
  "addresses": [
    {
      "id": "pt.ine.add.PTCONT.5136226",
      "street": "R CAPELA DE S MIGUEL",
      "house": "290",
      "postcode": "4990-684",
      "city": "POIARES PTL",
      "lon": "-8.638061461794663",
      "lat": "41.68270693423315"
    },
    {
      "id": "pt.ine.add.PTCONT.5167132",
      "street": "TV CASA NOVA",
      "house": "",
      "postcode": "4990-684",
      "city": "POIARES PTL",
      "lon": "-8.638164722604968",
      "lat": "41.683624839776435"
    },
    {
      "id": "pt.ine.add.PTCONT.5189837",
      "street": "R AIRAO",
      "house": "63",
      "postcode": "4990-684",
      "city": "POIARES PTL",
      "lon": "-8.638702993007126",
      "lat": "41.68334336390183"
    },
    {
      "id": "pt.ine.add.PTCONT.5203047",
      "street": "R CAPELA DE S MIGUEL",
      "house": "218",
      "postcode": "4990-684",
      "city": "POIARES PTL",
      "lon": "-8.637527047346893",
      "lat": "41.68194398147939"
    },
    {
      "id": "pt.ine.add.PTCONT.5248928",
      "street": "R CASA NOVA",
      "house": "309",
      "postcode": "4990-684",
      "city": "POIARES PTL",
      "lon": "-8.639120858003606",
      "lat": "41.68455700019845"
    },
    {
      "id": "pt.ine.add.PTCONT.5278045",
      "street": "R AIRAO",
      "house": "38",
      "postcode": "4990-684",
      "city": "POIARES PTL",
      "lon": "-8.639018216714852",
      "lat": "41.68372012464551"
    }
  ]
}