{
  "data": {
    "ilha": "Ilha do Pico (Açores)",
    "concelho": "São Roque do Pico",
    "freguesia": "Prainha",
    "OBJECTID": 115,
    "BGRI2021": "46030100103",
    "DT21": "46",
    "DTMN21": "4603",
    "DTMNFR21": "460301",
    "DTMNFRSEC21": "460301001",
    "SECNUM21": "001",
    "SSNUM21": "03",
    "SECSSNUM21": "00103",
    "OBJECTID_1": 209645,
    "DT": "46",
    "CC": "03",
    "fr": "01",
    "SEC": "001",
    "SS": "03",
    "BGRI2021_1": "46030100103"
  },
  "addresses": [
    {
      "id": "pt.ine.add.AC26.42773",
      "street": "CAM ESTANQUE",
      "house": "",
      "postcode": "9940-015",
      "city": "PRAINHA",
      "lon": "-28.192857364970084",
      "lat": "38.4605870897573"
    },
    {
      "id": "pt.ine.add.AC26.42774",
      "street": "CAM ESTANQUE",
      "house": "",
      "postcode": "9940-015",
      "city": "PRAINHA",
      "lon": "-28.193720707537743",
      "lat": "38.46011869621591"
    },
    {
      "id": "pt.ine.add.AC26.42775",
      "street": "CAM ESTANQUE",
      "house": "",
      "postcode": "9940-015",
      "city": "PRAINHA",
      "lon": "-28.194061665662307",
      "lat": "38.45994399810315"
    },
    {
      "id": "pt.ine.add.AC26.42776",
      "street": "CAM POCINHO",
      "house": "",
      "postcode": "9940-015",
      "city": "PRAINHA",
      "lon": "-28.194459324204626",
      "lat": "38.45973267388688"
    },
    {
      "id": "pt.ine.add.AC26.42777",
      "street": "CAM ESTANQUE",
      "house": "",
      "postcode": "9940-015",
      "city": "PRAINHA",
      "lon": "-28.194719766564297",
      "lat": "38.459540771338375"
    },
    {
      "id": "pt.ine.add.AC26.42778",
      "street": "R ARRIFE",
      "house": "",
      "postcode": "9940-015",
      "city": "PRAINHA",
      "lon": "-28.19536697992339",
      "lat": "38.460561507468064"
    },
    {
      "id": "pt.ine.add.AC26.42779",
      "street": "R RIBEIRA DE N SENHORA",
      "house": "3",
      "postcode": "9940-063",
      "city": "PRAINHA",
      "lon": "-28.196151577948875",
      "lat": "38.461571825216716"
    },
    {
      "id": "pt.ine.add.AC26.62088",
      "street": "R CAMINHO NOVO",
      "house": "",
      "postcode": "9940-038",
      "city": "PRAINHA",
      "lon": "-28.195115744850508",
      "lat": "38.46200594956151"
    },
    {
      "id": "pt.ine.add.AC26.78850",
      "street": "CAM ESTANQUE",
      "house": "",
      "postcode": "9940-015",
      "city": "PRAINHA",
      "lon": "-28.194993450817016",
      "lat": "38.459456874064756"
    },
    {
      "id": "pt.ine.add.AC26.81313",
      "street": "R ROSSIO",
      "house": "",
      "postcode": "9940-038",
      "city": "PRAINHA",
      "lon": "-28.192989059026687",
      "lat": "38.46092819491346"
    }
  ]
}