{
  "data": {
    "distrito": "Guarda",
    "concelho": "Sabugal",
    "freguesia": "União das freguesias do Sabugal e Aldeia de Santo António",
    "OBJECTID": 533,
    "BGRI2021": "09114500426",
    "DT21": "09",
    "DTMN21": "0911",
    "DTMNFR21": "091145",
    "DTMNFRSEC21": "091145004",
    "SECNUM21": "004",
    "SSNUM21": "26",
    "SECSSNUM21": "00426",
    "OBJECTID_1": 81080,
    "DT": "09",
    "CC": "11",
    "fr": "45",
    "SEC": "004",
    "SS": "26"
  },
  "addresses": [
    {
      "id": "pt.ine.add.PTCONT.1912978",
      "street": "CSL ANDORINHAS",
      "house": "7",
      "postcode": "6320-461",
      "city": "SABUGAL",
      "lon": "-7.0374792801286725",
      "lat": "40.34744873205191"
    },
    {
      "id": "pt.ine.add.PTCONT.1928101",
      "street": "SIT RELVAS LIMPAS SABUGAL",
      "house": "SABUGAL",
      "postcode": "6320-461",
      "city": "SABUGAL",
      "lon": "-7.034205937255296",
      "lat": "40.34027640090815"
    },
    {
      "id": "pt.ine.add.PTCONT.1966060",
      "street": "COLONIA AGRICOLA MARTIM REI",
      "house": "",
      "postcode": "6320-461",
      "city": "SABUGAL",
      "lon": "-7.039790877073321",
      "lat": "40.33914061790656"
    },
    {
      "id": "pt.ine.add.PTCONT.1967131",
      "street": "COLONIA AGRICOLA MARTIM REI",
      "house": "",
      "postcode": "6320-461",
      "city": "SABUGAL",
      "lon": "-7.041421072179913",
      "lat": "40.3387597790052"
    },
    {
      "id": "pt.ine.add.PTCONT.1868488",
      "street": "COLONIA AGRICOLA MARTIM REI",
      "house": "3",
      "postcode": "6320-461",
      "city": "SABUGAL",
      "lon": "-7.035246484491571",
      "lat": "40.34795887595922"
    },
    {
      "id": "pt.ine.add.PTCONT.1871394",
      "street": "COLONIA AGRICOLA MARTIM REI",
      "house": "2",
      "postcode": "6320-461",
      "city": "SABUGAL",
      "lon": "-7.033700020436701",
      "lat": "40.34824136303685"
    },
    {
      "id": "pt.ine.add.PTCONT.1877226",
      "street": "COLONIA AGRICOLA MARTIM REI CASAL 16",
      "house": "16",
      "postcode": "6320-461",
      "city": "SABUGAL",
      "lon": "-7.039566436949973",
      "lat": "40.339192528455"
    },
    {
      "id": "pt.ine.add.PTCONT.1879131",
      "street": "CSL CASAL 6 COLONIA MARTIM REI",
      "house": "6",
      "postcode": "6320-461",
      "city": "SABUGAL",
      "lon": "-7.035209691177056",
      "lat": "40.34659871336715"
    },
    {
      "id": "pt.ine.add.PTCONT.1892935",
      "street": "COLONIA AGRICOLA MARTIM REI",
      "house": "12",
      "postcode": "6320-461",
      "city": "SABUGAL",
      "lon": "-7.038894132930415",
      "lat": "40.33928522929143"
    }
  ]
}