{
  "data": {
    "distrito": "Guarda",
    "concelho": "Vila Nova de Foz Côa",
    "freguesia": "Vila Nova de Foz Côa",
    "OBJECTID": 104,
    "BGRI2021": "09141900218",
    "DT21": "09",
    "DTMN21": "0914",
    "DTMNFR21": "091419",
    "DTMNFRSEC21": "091419002",
    "SECNUM21": "002",
    "SSNUM21": "18",
    "SECSSNUM21": "00218",
    "OBJECTID_1": 83790,
    "DT": "09",
    "CC": "14",
    "fr": "19",
    "SEC": "002",
    "SS": "18"
  },
  "addresses": [
    {
      "id": "pt.ine.add.PTCONT.1926491",
      "street": "LG BOMBEIROS VOLUNTARIOS",
      "house": "",
      "postcode": "5150-550",
      "city": "VILA NOVA DE FOZ CÔA",
      "lon": "-7.139384925954757",
      "lat": "41.083563307379265"
    },
    {
      "id": "pt.ine.add.PTCONT.1975624",
      "street": "AV DR ARTUR MÁXIMO SARAIVA AGUILAR",
      "house": "27",
      "postcode": "5150-540",
      "city": "VILA NOVA DE FOZ CÔA",
      "lon": "-7.140000279231702",
      "lat": "41.083793720927446"
    },
    {
      "id": "pt.ine.add.PTCONT.1977269",
      "street": "AV DR ARTUR MÁXIMO SARAIVA AGUILAR",
      "house": "3",
      "postcode": "5150-540",
      "city": "VILA NOVA DE FOZ CÔA",
      "lon": "-7.1395738164152345",
      "lat": "41.08366398384493"
    },
    {
      "id": "pt.ine.add.PTCONT.1860100",
      "street": "AV DR ARTUR MAXIMO SARAIVA AGUILAR",
      "house": "4",
      "postcode": "5150-540",
      "city": "VILA NOVA DE FOZ CÔA",
      "lon": "-7.1422951484062285",
      "lat": "41.084713910200435"
    },
    {
      "id": "pt.ine.add.PTCONT.1860101",
      "street": "R DR ARTUR SARAIVA AGUILAR",
      "house": "3",
      "postcode": "5150-541",
      "city": "VILA NOVA DE FOZ CÔA",
      "lon": "-7.1422951484062285",
      "lat": "41.084713910200435"
    },
    {
      "id": "pt.ine.add.PTCONT.1860102",
      "street": "AV DR ARTUR MAXIMO SARAIVA AGUILAR",
      "house": "3",
      "postcode": "5150-540",
      "city": "VILA NOVA DE FOZ CÔA",
      "lon": "-7.1422951484062285",
      "lat": "41.084713910200435"
    },
    {
      "id": "pt.ine.add.PTCONT.1860103",
      "street": "R DR ARTUR SARAIVA AGUILAR",
      "house": "3",
      "postcode": "5150-541",
      "city": "VILA NOVA DE FOZ CÔA",
      "lon": "-7.1422951484062285",
      "lat": "41.084713910200435"
    },
    {
      "id": "pt.ine.add.PTCONT.1860725",
      "street": "AV DR ARTUR MAXIMO SARAIVA AGUILAR",
      "house": "3",
      "postcode": "5150-540",
      "city": "VILA NOVA DE FOZ CÔA",
      "lon": "-7.1422951484062285",
      "lat": "41.084713910200435"
    },
    {
      "id": "pt.ine.add.PTCONT.1860755",
      "street": "AV DR ARTUR MAXIMO SARAIVA AGUILAR",
      "house": "3",
      "postcode": "5150-540",
      "city": "VILA NOVA DE FOZ CÔA",
      "lon": "-7.1422951484062285",
      "lat": "41.084713910200435"
    },
    {
      "id": "pt.ine.add.PTCONT.1874123",
      "street": "AV DR ARTUR MÁXIMO SARAIVA AGUILAR",
      "house": "29",
      "postcode": "5150-540",
      "city": "VILA NOVA DE FOZ CÔA",
      "lon": "-7.139787183188734",
      "lat": "41.08371984943299"
    }
  ]
}