{
  "data": {
    "distrito": "Vila Real",
    "concelho": "Vila Real",
    "freguesia": "União das freguesias de Adoufe e Vilarinho de Samardã",
    "OBJECTID": 680,
    "BGRI2021": "17143100101",
    "DT21": "17",
    "DTMN21": "1714",
    "DTMNFR21": "171431",
    "DTMNFRSEC21": "171431001",
    "SECNUM21": "001",
    "SSNUM21": "01",
    "SECSSNUM21": "00101",
    "OBJECTID_1": 188029,
    "DT": "17",
    "CC": "14",
    "fr": "31",
    "SEC": "001",
    "SS": "01"
  },
  "addresses": [
    {
      "id": "pt.ine.add.PTCONT.5307004",
      "street": "",
      "house": "",
      "postcode": "5000-021",
      "city": "ADOUFE",
      "lon": "-7.727355279636286",
      "lat": "41.32674695419754"
    },
    {
      "id": "pt.ine.add.PTCONT.5312488",
      "street": "TV DA ESTRADA VELHA",
      "house": "6",
      "postcode": "5000-021",
      "city": "ADOUFE",
      "lon": "-7.725153389098016",
      "lat": "41.3273964698272"
    },
    {
      "id": "pt.ine.add.PTCONT.5327097",
      "street": "R BOMBARRAL",
      "house": "S N",
      "postcode": "5000-022",
      "city": "ADOUFE",
      "lon": "-7.725152430629889",
      "lat": "41.32180492217397"
    },
    {
      "id": "pt.ine.add.PTCONT.5329065",
      "street": "CC ADOUFE",
      "house": "",
      "postcode": "5000-021",
      "city": "ADOUFE",
      "lon": "-7.72680969128869",
      "lat": "41.326123747080764"
    },
    {
      "id": "pt.ine.add.PTCONT.5335390",
      "street": "R ESTRADA VELHA",
      "house": "",
      "postcode": "5000-021",
      "city": "ADOUFE",
      "lon": "-7.726463650474651",
      "lat": "41.327332017080494"
    },
    {
      "id": "pt.ine.add.PTCONT.5354654",
      "street": "R ESTRADA VELHA",
      "house": "2",
      "postcode": "5000-021",
      "city": "ADOUFE",
      "lon": "-7.727101705986307",
      "lat": "41.327187260606976"
    },
    {
      "id": "pt.ine.add.PTCONT.5359098",
      "street": "R ESTRADA VELHA",
      "house": "",
      "postcode": "5000-021",
      "city": "ADOUFE",
      "lon": "-7.726777971214154",
      "lat": "41.32738420825319"
    },
    {
      "id": "pt.ine.add.PTCONT.5374975",
      "street": "R ESTRADA VELHA",
      "house": "",
      "postcode": "5000-021",
      "city": "ADOUFE",
      "lon": "-7.726680847472636",
      "lat": "41.32763597993909"
    },
    {
      "id": "pt.ine.add.PTCONT.5379252",
      "street": "MONA",
      "house": "",
      "postcode": "5000-021",
      "city": "ADOUFE",
      "lon": "-7.727375211451831",
      "lat": "41.32545943887356"
    },
    {
      "id": "pt.ine.add.PTCONT.5382457",
      "street": "R CALÇADA",
      "house": "",
      "postcode": "5000-021",
      "city": "ADOUFE",
      "lon": "-7.725135996365916",
      "lat": "41.32826980510214"
    },
    {
      "id": "pt.ine.add.PTCONT.5386706",
      "street": "R ESTRADA VELHA",
      "house": "1 B",
      "postcode": "5000-021",
      "city": "ADOUFE",
      "lon": "-7.727341491714383",
      "lat": "41.32704404068573"
    },
    {
      "id": "pt.ine.add.PTCONT.5386707",
      "street": "CC ADOUFE",
      "house": "",
      "postcode": "5000-021",
      "city": "ADOUFE",
      "lon": "-7.727341491714383",
      "lat": "41.32704404068573"
    },
    {
      "id": "pt.ine.add.PTCONT.5386708",
      "street": "R ESTRADA VELHA",
      "house": "1 B",
      "postcode": "5000-021",
      "city": "ADOUFE",
      "lon": "-7.727341491714383",
      "lat": "41.32704404068573"
    },
    {
      "id": "pt.ine.add.PTCONT.5386709",
      "street": "R ESTRADA VELHA",
      "house": "1 B",
      "postcode": "5000-021",
      "city": "ADOUFE",
      "lon": "-7.727341491714383",
      "lat": "41.32704404068573"
    },
    {
      "id": "pt.ine.add.PTCONT.5386710",
      "street": "SEM DESIGNACAO",
      "house": "1 B",
      "postcode": "5000-021",
      "city": "ADOUFE",
      "lon": "-7.727341491714383",
      "lat": "41.32704404068573"
    },
    {
      "id": "pt.ine.add.PTCONT.5386711",
      "street": "R ESTRADA VELHA",
      "house": "1 B",
      "postcode": "5000-021",
      "city": "ADOUFE",
      "lon": "-7.727341491714383",
      "lat": "41.32704404068573"
    },
    {
      "id": "pt.ine.add.PTCONT.5388890",
      "street": "R QUINTA DO CORGO",
      "house": "",
      "postcode": "5000-021",
      "city": "ADOUFE",
      "lon": "-7.7242600926095175",
      "lat": "41.321252505828795"
    },
    {
      "id": "pt.ine.add.PTCONT.5393448",
      "street": "",
      "house": "",
      "postcode": "5000-021",
      "city": "ADOUFE",
      "lon": "-7.726686778378133",
      "lat": "41.326681566996015"
    },
    {
      "id": "pt.ine.add.PTCONT.5395468",
      "street": "R DA MONA",
      "house": "7",
      "postcode": "5000-021",
      "city": "ADOUFE",
      "lon": "-7.727519994504074",
      "lat": "41.325225842642546"
    },
    {
      "id": "pt.ine.add.PTCONT.5400767",
      "street": "QTA CORGO",
      "house": "",
      "postcode": "5000-021",
      "city": "ADOUFE",
      "lon": "-7.725532432325862",
      "lat": "41.32407530149233"
    },
    {
      "id": "pt.ine.add.PTCONT.5407629",
      "street": "",
      "house": "",
      "postcode": "5000-026",
      "city": "ADOUFE",
      "lon": "-7.725447541983814",
      "lat": "41.32236422201062"
    },
    {
      "id": "pt.ine.add.PTCONT.5412653",
      "street": "R PROF MOURA GONÇALVES",
      "house": "2",
      "postcode": "5000-021",
      "city": "ADOUFE",
      "lon": "-7.727349312030069",
      "lat": "41.32578349502212"
    },
    {
      "id": "pt.ine.add.PTCONT.5421302",
      "street": "QTA CORGO",
      "house": "",
      "postcode": "5000-021",
      "city": "ADOUFE",
      "lon": "-7.727559176862981",
      "lat": "41.32468573489513"
    },
    {
      "id": "pt.ine.add.PTCONT.5421303",
      "street": "",
      "house": "",
      "postcode": "5000-021",
      "city": "ADOUFE",
      "lon": "-7.726756375578802",
      "lat": "41.32701496419226"
    },
    {
      "id": "pt.ine.add.PTCONT.5425994",
      "street": "",
      "house": "",
      "postcode": "5000-021",
      "city": "ADOUFE",
      "lon": "-7.727019826880608",
      "lat": "41.32690784485859"
    }
  ]
}