{
  "data": {
    "distrito": "Coimbra",
    "concelho": "Cantanhede",
    "freguesia": "União das freguesias de Cantanhede e Pocariça",
    "OBJECTID": 539,
    "BGRI2021": "06022000603",
    "DT21": "06",
    "DTMN21": "0602",
    "DTMNFR21": "060220",
    "DTMNFRSEC21": "060220006",
    "SECNUM21": "006",
    "SSNUM21": "03",
    "SECSSNUM21": "00603",
    "OBJECTID_1": 48306,
    "DT": "06",
    "CC": "02",
    "fr": "20",
    "SEC": "006",
    "SS": "03"
  },
  "addresses": [
    {
      "id": "pt.ine.add.PTCONT.1110067",
      "street": "AV BRASIL",
      "house": "",
      "postcode": "3060-125",
      "city": "CANTANHEDE",
      "lon": "-8.584519275800384",
      "lat": "40.341625980444846"
    },
    {
      "id": "pt.ine.add.PTCONT.1110068",
      "street": "AV BRASIL",
      "house": "",
      "postcode": "3060-125",
      "city": "CANTANHEDE",
      "lon": "-8.584519275800384",
      "lat": "40.341625980444846"
    },
    {
      "id": "pt.ine.add.PTCONT.1110069",
      "street": "AV BRASIL",
      "house": "",
      "postcode": "3060-125",
      "city": "CANTANHEDE",
      "lon": "-8.584519275800384",
      "lat": "40.341625980444846"
    },
    {
      "id": "pt.ine.add.PTCONT.1110070",
      "street": "AV BRASIL",
      "house": "",
      "postcode": "3060-125",
      "city": "CANTANHEDE",
      "lon": "-8.584519275800384",
      "lat": "40.341625980444846"
    },
    {
      "id": "pt.ine.add.PTCONT.1110071",
      "street": "AV BRASIL",
      "house": "",
      "postcode": "3060-125",
      "city": "CANTANHEDE",
      "lon": "-8.584519275800384",
      "lat": "40.341625980444846"
    },
    {
      "id": "pt.ine.add.PTCONT.1110082",
      "street": "AV BRASIL",
      "house": "",
      "postcode": "3060-125",
      "city": "CANTANHEDE",
      "lon": "-8.584519275800384",
      "lat": "40.341625980444846"
    },
    {
      "id": "pt.ine.add.PTCONT.1118543",
      "street": "AV BRASIL",
      "house": "31",
      "postcode": "3060-125",
      "city": "CANTANHEDE",
      "lon": "-8.584285156878407",
      "lat": "40.3418160119097"
    },
    {
      "id": "pt.ine.add.PTCONT.1118544",
      "street": "AV BRASIL",
      "house": "31",
      "postcode": "3060-125",
      "city": "CANTANHEDE",
      "lon": "-8.584285156878407",
      "lat": "40.3418160119097"
    },
    {
      "id": "pt.ine.add.PTCONT.1118545",
      "street": "AV BRASIL",
      "house": "31",
      "postcode": "3060-125",
      "city": "CANTANHEDE",
      "lon": "-8.584285156878407",
      "lat": "40.3418160119097"
    },
    {
      "id": "pt.ine.add.PTCONT.1118546",
      "street": "AV BRASIL",
      "house": "31",
      "postcode": "3060-125",
      "city": "CANTANHEDE",
      "lon": "-8.584285156878407",
      "lat": "40.3418160119097"
    },
    {
      "id": "pt.ine.add.PTCONT.1118547",
      "street": "AV BRASIL",
      "house": "31",
      "postcode": "3060-125",
      "city": "CANTANHEDE",
      "lon": "-8.584285156878407",
      "lat": "40.3418160119097"
    },
    {
      "id": "pt.ine.add.PTCONT.1118548",
      "street": "AV BRASIL",
      "house": "31",
      "postcode": "3060-125",
      "city": "CANTANHEDE",
      "lon": "-8.584285156878407",
      "lat": "40.3418160119097"
    },
    {
      "id": "pt.ine.add.PTCONT.1118549",
      "street": "AV BRASIL",
      "house": "31",
      "postcode": "3060-125",
      "city": "CANTANHEDE",
      "lon": "-8.584285156878407",
      "lat": "40.3418160119097"
    },
    {
      "id": "pt.ine.add.PTCONT.1118550",
      "street": "AV BRASIL",
      "house": "31",
      "postcode": "3060-125",
      "city": "CANTANHEDE",
      "lon": "-8.584285156878407",
      "lat": "40.3418160119097"
    },
    {
      "id": "pt.ine.add.PTCONT.1118551",
      "street": "AV BRASIL",
      "house": "31",
      "postcode": "3060-125",
      "city": "CANTANHEDE",
      "lon": "-8.584285156878407",
      "lat": "40.3418160119097"
    },
    {
      "id": "pt.ine.add.PTCONT.1118552",
      "street": "AV BRASIL",
      "house": "31",
      "postcode": "3060-125",
      "city": "CANTANHEDE",
      "lon": "-8.584285156878407",
      "lat": "40.3418160119097"
    },
    {
      "id": "pt.ine.add.PTCONT.1120327",
      "street": "AV BRASIL",
      "house": "31",
      "postcode": "3060-125",
      "city": "CANTANHEDE",
      "lon": "-8.584285156878407",
      "lat": "40.3418160119097"
    },
    {
      "id": "pt.ine.add.PTCONT.1180378",
      "street": "R D NUNO ÁLVARES PEREIRA",
      "house": "6",
      "postcode": "3060-162",
      "city": "CANTANHEDE",
      "lon": "-8.584651556135793",
      "lat": "40.34204872825499"
    },
    {
      "id": "pt.ine.add.PTCONT.1206883",
      "street": "AV BRASIL",
      "house": "",
      "postcode": "3060-125",
      "city": "CANTANHEDE",
      "lon": "-8.584718446996698",
      "lat": "40.34149011867748"
    },
    {
      "id": "pt.ine.add.PTCONT.1206884",
      "street": "AV BRASIL",
      "house": "",
      "postcode": "3060-125",
      "city": "CANTANHEDE",
      "lon": "-8.584718446996698",
      "lat": "40.34149011867748"
    },
    {
      "id": "pt.ine.add.PTCONT.1206885",
      "street": "AV BRASIL",
      "house": "",
      "postcode": "3060-125",
      "city": "CANTANHEDE",
      "lon": "-8.584718446996698",
      "lat": "40.34149011867748"
    },
    {
      "id": "pt.ine.add.PTCONT.1206886",
      "street": "AV BRASIL",
      "house": "",
      "postcode": "3060-125",
      "city": "CANTANHEDE",
      "lon": "-8.584718446996698",
      "lat": "40.34149011867748"
    },
    {
      "id": "pt.ine.add.PTCONT.1206887",
      "street": "AV BRASIL",
      "house": "",
      "postcode": "3060-125",
      "city": "CANTANHEDE",
      "lon": "-8.584718446996698",
      "lat": "40.34149011867748"
    },
    {
      "id": "pt.ine.add.PTCONT.1206888",
      "street": "AV BRASIL",
      "house": "",
      "postcode": "3060-125",
      "city": "CANTANHEDE",
      "lon": "-8.584718446996698",
      "lat": "40.34149011867748"
    },
    {
      "id": "pt.ine.add.PTCONT.1254397",
      "street": "AV BRASIL",
      "house": "",
      "postcode": "3060-125",
      "city": "CANTANHEDE",
      "lon": "-8.58405061690033",
      "lat": "40.341943005200356"
    },
    {
      "id": "pt.ine.add.PTCONT.1254398",
      "street": "AV BRASIL",
      "house": "",
      "postcode": "3060-125",
      "city": "CANTANHEDE",
      "lon": "-8.58405061690033",
      "lat": "40.341943005200356"
    },
    {
      "id": "pt.ine.add.PTCONT.1254399",
      "street": "AV BRASIL",
      "house": "",
      "postcode": "3060-125",
      "city": "CANTANHEDE",
      "lon": "-8.58405061690033",
      "lat": "40.341943005200356"
    },
    {
      "id": "pt.ine.add.PTCONT.1254400",
      "street": "AV BRASIL",
      "house": "",
      "postcode": "3060-125",
      "city": "CANTANHEDE",
      "lon": "-8.58405061690033",
      "lat": "40.341943005200356"
    },
    {
      "id": "pt.ine.add.PTCONT.1254401",
      "street": "AV BRASIL",
      "house": "",
      "postcode": "3060-125",
      "city": "CANTANHEDE",
      "lon": "-8.58405061690033",
      "lat": "40.341943005200356"
    },
    {
      "id": "pt.ine.add.PTCONT.1254402",
      "street": "AV BRASIL",
      "house": "",
      "postcode": "3060-125",
      "city": "CANTANHEDE",
      "lon": "-8.58405061690033",
      "lat": "40.341943005200356"
    },
    {
      "id": "pt.ine.add.PTCONT.1254403",
      "street": "AV BRASIL",
      "house": "",
      "postcode": "3060-125",
      "city": "CANTANHEDE",
      "lon": "-8.58405061690033",
      "lat": "40.341943005200356"
    },
    {
      "id": "pt.ine.add.PTCONT.1254404",
      "street": "AV BRASIL",
      "house": "",
      "postcode": "3060-125",
      "city": "CANTANHEDE",
      "lon": "-8.58405061690033",
      "lat": "40.341943005200356"
    },
    {
      "id": "pt.ine.add.PTCONT.1254405",
      "street": "AV BRASIL",
      "house": "",
      "postcode": "3060-125",
      "city": "CANTANHEDE",
      "lon": "-8.58405061690033",
      "lat": "40.341943005200356"
    },
    {
      "id": "pt.ine.add.PTCONT.1254406",
      "street": "AV BRASIL",
      "house": "",
      "postcode": "3060-125",
      "city": "CANTANHEDE",
      "lon": "-8.58405061690033",
      "lat": "40.341943005200356"
    },
    {
      "id": "pt.ine.add.PTCONT.1254407",
      "street": "AV BRASIL",
      "house": "",
      "postcode": "3060-125",
      "city": "CANTANHEDE",
      "lon": "-8.58405061690033",
      "lat": "40.341943005200356"
    },
    {
      "id": "pt.ine.add.PTCONT.1254412",
      "street": "AV BRASIL",
      "house": "",
      "postcode": "3060-125",
      "city": "CANTANHEDE",
      "lon": "-8.58405061690033",
      "lat": "40.341943005200356"
    },
    {
      "id": "pt.ine.add.PTCONT.1256195",
      "street": "R MARIA AMÉLIA DE MAGALHÃES CARNEIRO",
      "house": "33",
      "postcode": "3060-218",
      "city": "CANTANHEDE",
      "lon": "-8.586505332303494",
      "lat": "40.341185942769144"
    },
    {
      "id": "pt.ine.add.PTCONT.1274728",
      "street": "R D NUNO ÁLVARES PEREIRA",
      "house": "8",
      "postcode": "3060-162",
      "city": "CANTANHEDE",
      "lon": "-8.584886395711354",
      "lat": "40.34196676067671"
    },
    {
      "id": "pt.ine.add.PTCONT.1276641",
      "street": "AV 25 DE ABRIL",
      "house": "31",
      "postcode": "3060-123",
      "city": "CANTANHEDE",
      "lon": "-8.587033784154576",
      "lat": "40.3410127633482"
    },
    {
      "id": "pt.ine.add.PTCONT.1276642",
      "street": "R D NUNO ÁLVARES PEREIRA",
      "house": "1",
      "postcode": "3060-162",
      "city": "CANTANHEDE",
      "lon": "-8.585463076577494",
      "lat": "40.34196450682691"
    },
    {
      "id": "pt.ine.add.PTCONT.1287456",
      "street": "R MARIA AMELIA DE MAGALHÃES CARNEIRO",
      "house": "21",
      "postcode": "3060-218",
      "city": "CANTANHEDE",
      "lon": "-8.585757241293981",
      "lat": "40.34195435041217"
    },
    {
      "id": "pt.ine.add.PTCONT.1291212",
      "street": "R LUIS CAMOES",
      "house": "9",
      "postcode": "3060-183",
      "city": "CANTANHEDE",
      "lon": "-8.584123449873525",
      "lat": "40.34227592915028"
    },
    {
      "id": "pt.ine.add.PTCONT.1291213",
      "street": "AV BRASIL",
      "house": "9",
      "postcode": "3060-125",
      "city": "CANTANHEDE",
      "lon": "-8.584123449873525",
      "lat": "40.34227592915028"
    },
    {
      "id": "pt.ine.add.PTCONT.1291214",
      "street": "AV BRASIL",
      "house": "9",
      "postcode": "3060-125",
      "city": "CANTANHEDE",
      "lon": "-8.584123449873525",
      "lat": "40.34227592915028"
    },
    {
      "id": "pt.ine.add.PTCONT.1291215",
      "street": "AV BRASIL",
      "house": "9",
      "postcode": "3060-125",
      "city": "CANTANHEDE",
      "lon": "-8.584123449873525",
      "lat": "40.34227592915028"
    },
    {
      "id": "pt.ine.add.PTCONT.1291216",
      "street": "R LUIS CAMOES",
      "house": "N 32",
      "postcode": "3060-183",
      "city": "CANTANHEDE",
      "lon": "-8.584123449873525",
      "lat": "40.34227592915028"
    },
    {
      "id": "pt.ine.add.PTCONT.1291217",
      "street": "R LUIS CAMOES",
      "house": "32",
      "postcode": "3060-183",
      "city": "CANTANHEDE",
      "lon": "-8.584123449873525",
      "lat": "40.34227592915028"
    },
    {
      "id": "pt.ine.add.PTCONT.1295360",
      "street": "AV BRASIL",
      "house": "",
      "postcode": "3060-125",
      "city": "CANTANHEDE",
      "lon": "-8.583981561735998",
      "lat": "40.34217742050582"
    },
    {
      "id": "pt.ine.add.PTCONT.1295361",
      "street": "AV BRASIL",
      "house": "35",
      "postcode": "3060-125",
      "city": "CANTANHEDE",
      "lon": "-8.583981561735998",
      "lat": "40.34217742050582"
    },
    {
      "id": "pt.ine.add.PTCONT.1295362",
      "street": "AV BRASIL",
      "house": "35",
      "postcode": "3060-125",
      "city": "CANTANHEDE",
      "lon": "-8.583981561735998",
      "lat": "40.34217742050582"
    },
    {
      "id": "pt.ine.add.PTCONT.1295363",
      "street": "AV BRASIL",
      "house": "",
      "postcode": "3060-125",
      "city": "CANTANHEDE",
      "lon": "-8.583981561735998",
      "lat": "40.34217742050582"
    },
    {
      "id": "pt.ine.add.PTCONT.1295367",
      "street": "AV BRASIL",
      "house": "",
      "postcode": "3060-125",
      "city": "CANTANHEDE",
      "lon": "-8.583981561735998",
      "lat": "40.34217742050582"
    },
    {
      "id": "pt.ine.add.PTCONT.1295368",
      "street": "AV BRASIL",
      "house": "",
      "postcode": "3060-125",
      "city": "CANTANHEDE",
      "lon": "-8.583981561735998",
      "lat": "40.34217742050582"
    },
    {
      "id": "pt.ine.add.PTCONT.1295369",
      "street": "AV BRASIL",
      "house": "",
      "postcode": "3060-125",
      "city": "CANTANHEDE",
      "lon": "-8.583981561735998",
      "lat": "40.34217742050582"
    },
    {
      "id": "pt.ine.add.PTCONT.1295370",
      "street": "AV BRASIL",
      "house": "",
      "postcode": "3060-125",
      "city": "CANTANHEDE",
      "lon": "-8.583981561735998",
      "lat": "40.34217742050582"
    },
    {
      "id": "pt.ine.add.PTCONT.1295371",
      "street": "AV BRASIL",
      "house": "",
      "postcode": "3060-125",
      "city": "CANTANHEDE",
      "lon": "-8.583981561735998",
      "lat": "40.34217742050582"
    },
    {
      "id": "pt.ine.add.PTCONT.1296963",
      "street": "AV BRASIL",
      "house": "",
      "postcode": "3060-125",
      "city": "CANTANHEDE",
      "lon": "-8.583981561735998",
      "lat": "40.34217742050582"
    },
    {
      "id": "pt.ine.add.PTCONT.1297006",
      "street": "AV BRASIL",
      "house": "",
      "postcode": "3060-125",
      "city": "CANTANHEDE",
      "lon": "-8.583981561735998",
      "lat": "40.34217742050582"
    },
    {
      "id": "pt.ine.add.PTCONT.1360845",
      "street": "AV BRASIL",
      "house": "31",
      "postcode": "3060-125",
      "city": "CANTANHEDE",
      "lon": "-8.584285156878407",
      "lat": "40.3418160119097"
    },
    {
      "id": "pt.ine.add.PTCONT.1364338",
      "street": "AV BRASIL",
      "house": "",
      "postcode": "3060-125",
      "city": "CANTANHEDE",
      "lon": "-8.583981561735998",
      "lat": "40.34217742050582"
    }
  ]
}