{
  "data": {
    "distrito": "Braga",
    "concelho": "Fafe",
    "freguesia": "Fornelos",
    "OBJECTID": 879,
    "BGRI2021": "03071200107",
    "DT21": "03",
    "DTMN21": "0307",
    "DTMNFR21": "030712",
    "DTMNFRSEC21": "030712001",
    "SECNUM21": "001",
    "SSNUM21": "07",
    "SECSSNUM21": "00107",
    "OBJECTID_1": 25812,
    "DT": "03",
    "CC": "07",
    "fr": "12",
    "SEC": "001",
    "SS": "07"
  },
  "addresses": [
    {
      "id": "pt.ine.add.PTCONT.483009",
      "street": "R FIDALGO DA LUZ",
      "house": "340",
      "postcode": "4820-427",
      "city": "FORNELOS FAF",
      "lon": "-8.168755657278375",
      "lat": "41.46537108879341"
    },
    {
      "id": "pt.ine.add.PTCONT.483010",
      "street": "R FORNELO",
      "house": "80",
      "postcode": "4820-427",
      "city": "FORNELOS FAF",
      "lon": "-8.168515983458857",
      "lat": "41.46487594799265"
    },
    {
      "id": "pt.ine.add.PTCONT.594598",
      "street": "TV FIDALGO DA LUZ",
      "house": "84",
      "postcode": "4820-417",
      "city": "FORNELOS FAF",
      "lon": "-8.172106844230267",
      "lat": "41.46457765776414"
    },
    {
      "id": "pt.ine.add.PTCONT.594599",
      "street": "AV SANTA COMBA",
      "house": "690",
      "postcode": "4820-417",
      "city": "FORNELOS FAF",
      "lon": "-8.172872989493163",
      "lat": "41.46467643844966"
    },
    {
      "id": "pt.ine.add.PTCONT.597107",
      "street": "AV SANTA COMBA",
      "house": "690",
      "postcode": "4820-417",
      "city": "FORNELOS FAF",
      "lon": "-8.172872989493163",
      "lat": "41.46467643844966"
    },
    {
      "id": "pt.ine.add.PTCONT.613773",
      "street": "AV SANTA COMBA",
      "house": "692",
      "postcode": "4820-417",
      "city": "FORNELOS FAF",
      "lon": "-8.17284913727012",
      "lat": "41.464820509194645"
    },
    {
      "id": "pt.ine.add.PTCONT.613816",
      "street": "AV SANTA COMBA",
      "house": "692",
      "postcode": "4820-417",
      "city": "FORNELOS FAF",
      "lon": "-8.17284913727012",
      "lat": "41.464820509194645"
    },
    {
      "id": "pt.ine.add.PTCONT.677684",
      "street": "TV FIDALGO DA LUZ",
      "house": "83",
      "postcode": "4820-417",
      "city": "FORNELOS FAF",
      "lon": "-8.171783812728776",
      "lat": "41.464847884017466"
    },
    {
      "id": "pt.ine.add.PTCONT.707816",
      "street": "AV SANTA COMBA",
      "house": "730",
      "postcode": "4820-417",
      "city": "FORNELOS FAF",
      "lon": "-8.17277749765195",
      "lat": "41.46511766282129"
    }
  ]
}