{
  "data": {
    "distrito": "Leiria",
    "concelho": "Nazaré",
    "freguesia": "Nazaré",
    "OBJECTID": 361,
    "BGRI2021": "10110201415",
    "DT21": "10",
    "DTMN21": "1011",
    "DTMNFR21": "101102",
    "DTMNFRSEC21": "101102014",
    "SECNUM21": "014",
    "SSNUM21": "15",
    "SECSSNUM21": "01415",
    "OBJECTID_1": 93317,
    "DT": "10",
    "CC": "11",
    "fr": "02",
    "SEC": "014",
    "SS": "15"
  },
  "addresses": [
    {
      "id": "pt.ine.add.PTCONT.2006022",
      "street": "R PROF LINEU SOARES DE MIRANDA",
      "house": "10",
      "postcode": "2450-204",
      "city": "NAZARÉ",
      "lon": "-9.059362573991274",
      "lat": "39.611939494078264"
    },
    {
      "id": "pt.ine.add.PTCONT.2035006",
      "street": "R PROF LINEU SOARES DE MIRANDA",
      "house": "4",
      "postcode": "2450-204",
      "city": "NAZARÉ",
      "lon": "-9.059236418110107",
      "lat": "39.61208460513758"
    },
    {
      "id": "pt.ine.add.PTCONT.2046772",
      "street": "R FRANCISCO TEIXEIRA FREIRE",
      "house": "21",
      "postcode": "2450-284",
      "city": "NAZARÉ",
      "lon": "-9.059608763378353",
      "lat": "39.61206362306969"
    },
    {
      "id": "pt.ine.add.PTCONT.2088427",
      "street": "R FRANCISCO TEIXEIRA FREIRE",
      "house": "23",
      "postcode": "2450-284",
      "city": "NAZARÉ",
      "lon": "-9.059804657943792",
      "lat": "39.61190894875659"
    },
    {
      "id": "pt.ine.add.PTCONT.2141177",
      "street": "R PROF LINEU SOARES DEMIRANDA",
      "house": "4",
      "postcode": "2450-284",
      "city": "NAZARÉ",
      "lon": "-9.05899598807162",
      "lat": "39.61239274530493"
    },
    {
      "id": "pt.ine.add.PTCONT.2189052",
      "street": "R FRANCISCO TEIXEIRA FREIRE",
      "house": "15",
      "postcode": "2450-284",
      "city": "NAZARÉ",
      "lon": "-9.05925394181651",
      "lat": "39.612525787853855"
    },
    {
      "id": "pt.ine.add.PTCONT.2211655",
      "street": "R RLA FRANCISCO TEIXEIRA FREIRE",
      "house": "13",
      "postcode": "2450-284",
      "city": "NAZARÉ",
      "lon": "-9.059104617871835",
      "lat": "39.612680090036044"
    }
  ]
}