{
  "data": {
    "distrito": "Lisboa",
    "concelho": "Torres Vedras",
    "freguesia": "Santa Maria, São Pedro e Matacães",
    "OBJECTID": 1346,
    "BGRI2021": "11132601409",
    "DT21": "11",
    "DTMN21": "1113",
    "DTMNFR21": "111326",
    "DTMNFRSEC21": "111326014",
    "SECNUM21": "014",
    "SSNUM21": "09",
    "SECSSNUM21": "01409",
    "OBJECTID_1": 115654,
    "DT": "11",
    "CC": "13",
    "fr": "26",
    "SEC": "014",
    "SS": "09"
  },
  "addresses": [
    {
      "id": "pt.ine.add.PTCONT.2495955",
      "street": "LG POLOMES",
      "house": "1",
      "postcode": "2560-635",
      "city": "TORRES VEDRAS",
      "lon": "-9.259664924122712",
      "lat": "39.09442788881157"
    },
    {
      "id": "pt.ine.add.PTCONT.2502303",
      "street": "R MOUZINHO DE ALBUQUERQUE",
      "house": "2 G",
      "postcode": "2560-354",
      "city": "TORRES VEDRAS",
      "lon": "-9.25926864512148",
      "lat": "39.09349496379614"
    },
    {
      "id": "pt.ine.add.PTCONT.2519056",
      "street": "R DIAS NEIVA",
      "house": "",
      "postcode": "2560-319",
      "city": "TORRES VEDRAS",
      "lon": "-9.259379103694544",
      "lat": "39.09389922286496"
    },
    {
      "id": "pt.ine.add.PTCONT.2519057",
      "street": "R DIAS NEIVA",
      "house": "",
      "postcode": "2560-319",
      "city": "TORRES VEDRAS",
      "lon": "-9.259379103694544",
      "lat": "39.09389922286496"
    },
    {
      "id": "pt.ine.add.PTCONT.2519058",
      "street": "R DIAS NEIVA",
      "house": "",
      "postcode": "2560-319",
      "city": "TORRES VEDRAS",
      "lon": "-9.259379103694544",
      "lat": "39.09389922286496"
    },
    {
      "id": "pt.ine.add.PTCONT.2519059",
      "street": "R DIAS NEIVA",
      "house": "",
      "postcode": "2560-319",
      "city": "TORRES VEDRAS",
      "lon": "-9.259379103694544",
      "lat": "39.09389922286496"
    },
    {
      "id": "pt.ine.add.PTCONT.2519060",
      "street": "R DIAS NEIVA",
      "house": "",
      "postcode": "2560-319",
      "city": "TORRES VEDRAS",
      "lon": "-9.259379103694544",
      "lat": "39.09389922286496"
    },
    {
      "id": "pt.ine.add.PTCONT.2519061",
      "street": "R DIAS NEIVA",
      "house": "",
      "postcode": "2560-319",
      "city": "TORRES VEDRAS",
      "lon": "-9.259379103694544",
      "lat": "39.09389922286496"
    },
    {
      "id": "pt.ine.add.PTCONT.2519062",
      "street": "R DIAS NEIVA",
      "house": "",
      "postcode": "2560-319",
      "city": "TORRES VEDRAS",
      "lon": "-9.259379103694544",
      "lat": "39.09389922286496"
    },
    {
      "id": "pt.ine.add.PTCONT.2519063",
      "street": "R DIAS NEIVA",
      "house": "",
      "postcode": "2560-319",
      "city": "TORRES VEDRAS",
      "lon": "-9.259379103694544",
      "lat": "39.09389922286496"
    },
    {
      "id": "pt.ine.add.PTCONT.2519064",
      "street": "R DIAS NEIVA",
      "house": "",
      "postcode": "2560-319",
      "city": "TORRES VEDRAS",
      "lon": "-9.259379103694544",
      "lat": "39.09389922286496"
    },
    {
      "id": "pt.ine.add.PTCONT.2519065",
      "street": "R DIAS NEIVA",
      "house": "",
      "postcode": "2560-319",
      "city": "TORRES VEDRAS",
      "lon": "-9.259379103694544",
      "lat": "39.09389922286496"
    },
    {
      "id": "pt.ine.add.PTCONT.2519066",
      "street": "R DIAS NEIVA",
      "house": "",
      "postcode": "2560-319",
      "city": "TORRES VEDRAS",
      "lon": "-9.259379103694544",
      "lat": "39.09389922286496"
    },
    {
      "id": "pt.ine.add.PTCONT.2519067",
      "street": "R DIAS NEIVA",
      "house": "",
      "postcode": "2560-319",
      "city": "TORRES VEDRAS",
      "lon": "-9.259379103694544",
      "lat": "39.09389922286496"
    },
    {
      "id": "pt.ine.add.PTCONT.2519076",
      "street": "R DIAS NEIVA",
      "house": "",
      "postcode": "2560-319",
      "city": "TORRES VEDRAS",
      "lon": "-9.259379103694544",
      "lat": "39.09389922286496"
    },
    {
      "id": "pt.ine.add.PTCONT.2519077",
      "street": "R DIAS NEIVA",
      "house": "",
      "postcode": "2560-319",
      "city": "TORRES VEDRAS",
      "lon": "-9.259379103694544",
      "lat": "39.09389922286496"
    },
    {
      "id": "pt.ine.add.PTCONT.2520523",
      "street": "R DIAS NEIVA",
      "house": "",
      "postcode": "2560-319",
      "city": "TORRES VEDRAS",
      "lon": "-9.259379103694544",
      "lat": "39.09389922286496"
    },
    {
      "id": "pt.ine.add.PTCONT.2520525",
      "street": "R DIAS NEIVA",
      "house": "",
      "postcode": "2560-319",
      "city": "TORRES VEDRAS",
      "lon": "-9.259379103694544",
      "lat": "39.09389922286496"
    },
    {
      "id": "pt.ine.add.PTCONT.2893067",
      "street": "TV MADEIRA TORRES",
      "house": "6",
      "postcode": "2560-372",
      "city": "TORRES VEDRAS",
      "lon": "-9.259689562974541",
      "lat": "39.093797143469246"
    },
    {
      "id": "pt.ine.add.PTCONT.2893068",
      "street": "TV MADEIRA TORRES",
      "house": "6",
      "postcode": "2560-372",
      "city": "TORRES VEDRAS",
      "lon": "-9.259689562974541",
      "lat": "39.093797143469246"
    },
    {
      "id": "pt.ine.add.PTCONT.2893210",
      "street": "TV MADEIRA TORRES",
      "house": "6",
      "postcode": "2560-372",
      "city": "TORRES VEDRAS",
      "lon": "-9.259689562974541",
      "lat": "39.093797143469246"
    },
    {
      "id": "pt.ine.add.PTCONT.2893211",
      "street": "TV MADEIRA TORRES",
      "house": "6",
      "postcode": "2560-372",
      "city": "TORRES VEDRAS",
      "lon": "-9.259689562974541",
      "lat": "39.093797143469246"
    },
    {
      "id": "pt.ine.add.PTCONT.2893212",
      "street": "TV MADEIRA TORRES",
      "house": "6",
      "postcode": "2560-372",
      "city": "TORRES VEDRAS",
      "lon": "-9.259689562974541",
      "lat": "39.093797143469246"
    },
    {
      "id": "pt.ine.add.PTCONT.2893213",
      "street": "TV MADEIRA TORRES",
      "house": "6",
      "postcode": "2560-372",
      "city": "TORRES VEDRAS",
      "lon": "-9.259689562974541",
      "lat": "39.093797143469246"
    },
    {
      "id": "pt.ine.add.PTCONT.3050168",
      "street": "R DIAS NEIVA",
      "house": "",
      "postcode": "2560-319",
      "city": "TORRES VEDRAS",
      "lon": "-9.259319170308672",
      "lat": "39.093764693144635"
    },
    {
      "id": "pt.ine.add.PTCONT.3115970",
      "street": "TV MADEIRA TORRES",
      "house": "",
      "postcode": "2560-372",
      "city": "TORRES VEDRAS",
      "lon": "-9.25973851348377",
      "lat": "39.09396780811836"
    },
    {
      "id": "pt.ine.add.PTCONT.3115971",
      "street": "TV MADEIRA TORRES",
      "house": "",
      "postcode": "2560-372",
      "city": "TORRES VEDRAS",
      "lon": "-9.25973851348377",
      "lat": "39.09396780811836"
    },
    {
      "id": "pt.ine.add.PTCONT.3115972",
      "street": "TV MADEIRA TORRES",
      "house": "",
      "postcode": "2560-372",
      "city": "TORRES VEDRAS",
      "lon": "-9.25973851348377",
      "lat": "39.09396780811836"
    },
    {
      "id": "pt.ine.add.PTCONT.3227541",
      "street": "TV MADEIRA TORRES",
      "house": "4",
      "postcode": "2560-372",
      "city": "TORRES VEDRAS",
      "lon": "-9.25960651541375",
      "lat": "39.09366283725597"
    },
    {
      "id": "pt.ine.add.PTCONT.3227542",
      "street": "TV MADEIRA TORRES",
      "house": "4",
      "postcode": "2560-372",
      "city": "TORRES VEDRAS",
      "lon": "-9.25960651541375",
      "lat": "39.09366283725597"
    },
    {
      "id": "pt.ine.add.PTCONT.3227543",
      "street": "TV MADEIRA TORRES",
      "house": "4",
      "postcode": "2560-372",
      "city": "TORRES VEDRAS",
      "lon": "-9.25960651541375",
      "lat": "39.09366283725597"
    },
    {
      "id": "pt.ine.add.PTCONT.3227544",
      "street": "TV MADEIRA TORRES",
      "house": "4",
      "postcode": "2560-372",
      "city": "TORRES VEDRAS",
      "lon": "-9.25960651541375",
      "lat": "39.09366283725597"
    },
    {
      "id": "pt.ine.add.PTCONT.3227545",
      "street": "TV MADEIRA TORRES",
      "house": "4",
      "postcode": "2560-372",
      "city": "TORRES VEDRAS",
      "lon": "-9.25960651541375",
      "lat": "39.09366283725597"
    },
    {
      "id": "pt.ine.add.PTCONT.3229330",
      "street": "TV MADEIRA TORRES",
      "house": "4",
      "postcode": "2560-372",
      "city": "TORRES VEDRAS",
      "lon": "-9.25960651541375",
      "lat": "39.09366283725597"
    },
    {
      "id": "pt.ine.add.PTCONT.3319956",
      "street": "R MOUZINHO DE ALBUQUERQUE",
      "house": "",
      "postcode": "2560-354",
      "city": "TORRES VEDRAS",
      "lon": "-9.259546725102634",
      "lat": "39.093537313513444"
    },
    {
      "id": "pt.ine.add.PTCONT.3457922",
      "street": "R DIAS NEIVA",
      "house": "",
      "postcode": "2560-319",
      "city": "TORRES VEDRAS",
      "lon": "-9.259379103694544",
      "lat": "39.09389922286496"
    }
  ]
}