{
  "data": {
    "distrito": "Beja",
    "concelho": "Beja",
    "freguesia": "Beringel",
    "OBJECTID": 112,
    "BGRI2021": "02050300163",
    "DT21": "02",
    "DTMN21": "0205",
    "DTMNFR21": "020503",
    "DTMNFRSEC21": "020503001",
    "SECNUM21": "001",
    "SSNUM21": "63",
    "SECSSNUM21": "00163",
    "OBJECTID_1": 13880,
    "DT": "02",
    "CC": "05",
    "fr": "03",
    "SEC": "001",
    "SS": "63"
  },
  "addresses": [
    {
      "id": "pt.ine.add.PTCONT.353976",
      "street": "HORTA PENEDO",
      "house": "",
      "postcode": "7800-827",
      "city": "BERINGEL",
      "lon": "-8.002660217979749",
      "lat": "38.06795872836935"
    },
    {
      "id": "pt.ine.add.PTCONT.357365",
      "street": "MTE MARQUES",
      "house": "",
      "postcode": "7800-827",
      "city": "BERINGEL",
      "lon": "-7.998596453302438",
      "lat": "38.0592512692824"
    },
    {
      "id": "pt.ine.add.PTCONT.408998",
      "street": "MTE LAGOS",
      "house": "",
      "postcode": "7800-827",
      "city": "BERINGEL",
      "lon": "-8.014615669047863",
      "lat": "38.060133391883745"
    },
    {
      "id": "pt.ine.add.PTCONT.409846",
      "street": "HORTA JACINTO",
      "house": "",
      "postcode": "7800-827",
      "city": "BERINGEL",
      "lon": "-7.995197149808346",
      "lat": "38.06731956577641"
    },
    {
      "id": "pt.ine.add.PTCONT.409847",
      "street": "MTE MARQUES",
      "house": "",
      "postcode": "7800-827",
      "city": "BERINGEL",
      "lon": "-7.996528748919819",
      "lat": "38.0621047999792"
    },
    {
      "id": "pt.ine.add.PTCONT.420281",
      "street": "HORTA JACINTO",
      "house": "",
      "postcode": "7800-827",
      "city": "BERINGEL",
      "lon": "-7.99488910983003",
      "lat": "38.067508396830604"
    },
    {
      "id": "pt.ine.add.PTCONT.421056",
      "street": "MTE MARQUES",
      "house": "",
      "postcode": "7800-827",
      "city": "BERINGEL",
      "lon": "-8.001939717181473",
      "lat": "38.063011881953614"
    },
    {
      "id": "pt.ine.add.PTCONT.437420",
      "street": "HORTA JACINTO",
      "house": "",
      "postcode": "7800-825",
      "city": "BERINGEL",
      "lon": "-7.996495975355619",
      "lat": "38.06747423868355"
    },
    {
      "id": "pt.ine.add.PTCONT.447927",
      "street": "HORTA S PEDRO",
      "house": "",
      "postcode": "7800-827",
      "city": "BERINGEL",
      "lon": "-7.996083822503717",
      "lat": "38.05627533117941"
    }
  ]
}