{
  "data": {
    "distrito": "Viseu",
    "concelho": "Tondela",
    "freguesia": "Canas de Santa Maria",
    "OBJECTID": 967,
    "BGRI2021": "18210300204",
    "DT21": "18",
    "DTMN21": "1821",
    "DTMNFR21": "182103",
    "DTMNFRSEC21": "182103002",
    "SECNUM21": "002",
    "SSNUM21": "04",
    "SECSSNUM21": "00204",
    "OBJECTID_1": 199988,
    "DT": "18",
    "CC": "21",
    "fr": "03",
    "SEC": "002",
    "SS": "04"
  },
  "addresses": [
    {
      "id": "pt.ine.add.PTCONT.5455675",
      "street": "R PONTE DA LAGE",
      "house": "142",
      "postcode": "3460-012",
      "city": "TONDELA",
      "lon": "-8.040847788545477",
      "lat": "40.54923633494711"
    },
    {
      "id": "pt.ine.add.PTCONT.5471116",
      "street": "R FONTEJAO",
      "house": "140",
      "postcode": "3460-012",
      "city": "TONDELA",
      "lon": "-8.038803810261587",
      "lat": "40.55038736805814"
    },
    {
      "id": "pt.ine.add.PTCONT.5519548",
      "street": "R FONTEJAO",
      "house": "",
      "postcode": "3460-012",
      "city": "TONDELA",
      "lon": "-8.040185557092952",
      "lat": "40.55004628475547"
    },
    {
      "id": "pt.ine.add.PTCONT.5519549",
      "street": "R PONTE DA LAGE",
      "house": "142",
      "postcode": "3460-012",
      "city": "TONDELA",
      "lon": "-8.04043471817643",
      "lat": "40.54914595096462"
    },
    {
      "id": "pt.ine.add.PTCONT.5536846",
      "street": "TV FONTEJAO",
      "house": "66",
      "postcode": "3460-012",
      "city": "TONDELA",
      "lon": "-8.039842717062783",
      "lat": "40.5503882113635"
    },
    {
      "id": "pt.ine.add.PTCONT.5538237",
      "street": "CANTO DO CHÃO DO LAGAR",
      "house": "18",
      "postcode": "3460-012",
      "city": "TONDELA",
      "lon": "-8.038697027256868",
      "lat": "40.55076550502626"
    },
    {
      "id": "pt.ine.add.PTCONT.5557905",
      "street": "R CHÃO DO LAGAR",
      "house": "",
      "postcode": "3460-012",
      "city": "TONDELA",
      "lon": "-8.038826878704924",
      "lat": "40.550774616398044"
    },
    {
      "id": "pt.ine.add.PTCONT.5581338",
      "street": "CANTO DA FONTEJAO",
      "house": "141",
      "postcode": "3460-012",
      "city": "TONDELA",
      "lon": "-8.039582652092164",
      "lat": "40.55063114525595"
    },
    {
      "id": "pt.ine.add.PTCONT.5585631",
      "street": "CANTO DO CHÃO DO LAGAR",
      "house": "37",
      "postcode": "3460-012",
      "city": "TONDELA",
      "lon": "-8.038874404973209",
      "lat": "40.550558527073456"
    },
    {
      "id": "pt.ine.add.PTCONT.5591127",
      "street": "R FONTEJAO",
      "house": "190",
      "postcode": "3460-012",
      "city": "TONDELA",
      "lon": "-8.039323464665461",
      "lat": "40.55024370563446"
    },
    {
      "id": "pt.ine.add.PTCONT.5605729",
      "street": "R CANTO DO CHÃO DO LAGAR",
      "house": "65",
      "postcode": "3460-012",
      "city": "TONDELA",
      "lon": "-8.03863839043485",
      "lat": "40.5504862916359"
    },
    {
      "id": "pt.ine.add.PTCONT.5631631",
      "street": "TV FONTESAO",
      "house": "11",
      "postcode": "3460-012",
      "city": "TONDELA",
      "lon": "-8.03925183818454",
      "lat": "40.55081098374151"
    },
    {
      "id": "pt.ine.add.PTCONT.5635899",
      "street": "TV FONTEJAO",
      "house": "165",
      "postcode": "3460-012",
      "city": "TONDELA",
      "lon": "-8.039630000520926",
      "lat": "40.55054113019842"
    },
    {
      "id": "pt.ine.add.PTCONT.5645484",
      "street": "R CHÃO DO LAGAR",
      "house": "",
      "postcode": "3460-012",
      "city": "TONDELA",
      "lon": "-8.03853173303499",
      "lat": "40.55077437517578"
    },
    {
      "id": "pt.ine.add.PTCONT.5652877",
      "street": "CANTO DO CHÃO DO LAGAR",
      "house": "97",
      "postcode": "3460-012",
      "city": "TONDELA",
      "lon": "-8.038827093410008",
      "lat": "40.550621525838544"
    },
    {
      "id": "pt.ine.add.PTCONT.5656595",
      "street": "R CHÃO DO LAGAR",
      "house": "21",
      "postcode": "3460-012",
      "city": "TONDELA",
      "lon": "-8.03831932973677",
      "lat": "40.550702158414204"
    },
    {
      "id": "pt.ine.add.PTCONT.5656596",
      "street": "R CHÃO DO LAGAR",
      "house": "21",
      "postcode": "3460-012",
      "city": "TONDELA",
      "lon": "-8.03831932973677",
      "lat": "40.550702158414204"
    },
    {
      "id": "pt.ine.add.PTCONT.5663920",
      "street": "TV FONTEJAO",
      "house": "63",
      "postcode": "3460-012",
      "city": "TONDELA",
      "lon": "-8.039559541748476",
      "lat": "40.55027091303625"
    },
    {
      "id": "pt.ine.add.PTCONT.5664125",
      "street": "CANTO DA FONTEJAO",
      "house": "",
      "postcode": "3460-012",
      "city": "TONDELA",
      "lon": "-8.039441020111699",
      "lat": "40.55060401450847"
    },
    {
      "id": "pt.ine.add.PTCONT.5666313",
      "street": "R LADAINHAS",
      "house": "295",
      "postcode": "3460-012",
      "city": "TONDELA",
      "lon": "-8.040503541875035",
      "lat": "40.550604871015075"
    },
    {
      "id": "pt.ine.add.PTCONT.5668334",
      "street": "TV FONTEJAO",
      "house": "63",
      "postcode": "3460-012",
      "city": "TONDELA",
      "lon": "-8.0396775365574",
      "lat": "40.550316035203835"
    }
  ]
}