{
  "data": {
    "distrito": "Bragança",
    "concelho": "Vimioso",
    "freguesia": "União das freguesias de Vale de Frades e Avelanoso",
    "OBJECTID": 157,
    "BGRI2021": "04111700119",
    "DT21": "04",
    "DTMN21": "0411",
    "DTMNFR21": "041117",
    "DTMNFRSEC21": "041117001",
    "SECNUM21": "001",
    "SSNUM21": "19",
    "SECSSNUM21": "00119",
    "OBJECTID_1": 39363,
    "DT": "04",
    "CC": "11",
    "fr": "17",
    "SEC": "001",
    "SS": "19"
  },
  "addresses": [
    {
      "id": "pt.ine.add.PTCONT.862209",
      "street": "EM 542",
      "house": "2",
      "postcode": "5230-253",
      "city": "VALE DE FRADES",
      "lon": "-6.495329927629133",
      "lat": "41.64498312448537"
    },
    {
      "id": "pt.ine.add.PTCONT.880402",
      "street": "LG DA FIGUEIRA",
      "house": "16",
      "postcode": "5230-253",
      "city": "VALE DE FRADES",
      "lon": "-6.49458145970118",
      "lat": "41.64515251879927"
    },
    {
      "id": "pt.ine.add.PTCONT.899258",
      "street": "LG DA PRACINHA",
      "house": "6",
      "postcode": "5230-253",
      "city": "VALE DE FRADES",
      "lon": "-6.495112501043411",
      "lat": "41.64551121355596"
    },
    {
      "id": "pt.ine.add.PTCONT.914182",
      "street": "LG DA PRACINHA",
      "house": "2",
      "postcode": "5230-253",
      "city": "VALE DE FRADES",
      "lon": "-6.495328019729069",
      "lat": "41.64553229165631"
    },
    {
      "id": "pt.ine.add.PTCONT.926539",
      "street": "LG DA FIGUEIRA",
      "house": "12",
      "postcode": "5230-253",
      "city": "VALE DE FRADES",
      "lon": "-6.494863267166378",
      "lat": "41.64539962256104"
    },
    {
      "id": "pt.ine.add.PTCONT.927141",
      "street": "LG DA PRACINHA",
      "house": "",
      "postcode": "5230-253",
      "city": "VALE DE FRADES",
      "lon": "-6.495243801575731",
      "lat": "41.645540094551976"
    },
    {
      "id": "pt.ine.add.PTCONT.931127",
      "street": "R DA COSTA",
      "house": "1",
      "postcode": "5230-253",
      "city": "VALE DE FRADES",
      "lon": "-6.496056743976278",
      "lat": "41.64566871957427"
    },
    {
      "id": "pt.ine.add.PTCONT.936500",
      "street": "LG DA PRACINHA",
      "house": "4",
      "postcode": "5230-253",
      "city": "VALE DE FRADES",
      "lon": "-6.495233170919316",
      "lat": "41.64548592392276"
    },
    {
      "id": "pt.ine.add.PTCONT.941402",
      "street": "LG DO BARREIRO",
      "house": "2",
      "postcode": "5230-253",
      "city": "VALE DE FRADES",
      "lon": "-6.495694506001704",
      "lat": "41.645753590617794"
    },
    {
      "id": "pt.ine.add.PTCONT.943526",
      "street": "LG DA PRACINHA",
      "house": "4",
      "postcode": "5230-253",
      "city": "VALE DE FRADES",
      "lon": "-6.495468127599795",
      "lat": "41.64568734251753"
    }
  ]
}