{
  "data": {
    "distrito": "Viana do Castelo",
    "concelho": "Viana do Castelo",
    "freguesia": "Mujães",
    "OBJECTID": 891,
    "BGRI2021": "16092200210",
    "DT21": "16",
    "DTMN21": "1609",
    "DTMNFR21": "160922",
    "DTMNFRSEC21": "160922002",
    "SECNUM21": "002",
    "SSNUM21": "10",
    "SECSSNUM21": "00210",
    "OBJECTID_1": 178134,
    "DT": "16",
    "CC": "09",
    "fr": "22",
    "SEC": "002",
    "SS": "10"
  },
  "addresses": [
    {
      "id": "pt.ine.add.PTCONT.5141360",
      "street": "R JOSÉ MARIA TORRES",
      "house": "15",
      "postcode": "4905-516",
      "city": "MUJÃES",
      "lon": "-8.712789303211496",
      "lat": "41.66792166863676"
    },
    {
      "id": "pt.ine.add.PTCONT.5165447",
      "street": "R ROQUES",
      "house": "44",
      "postcode": "4905-516",
      "city": "MUJÃES",
      "lon": "-8.710622624255812",
      "lat": "41.66867086568041"
    },
    {
      "id": "pt.ine.add.PTCONT.5188312",
      "street": "R MANUEL DE AMORIM",
      "house": "147",
      "postcode": "4905-516",
      "city": "MUJÃES",
      "lon": "-8.709951346462313",
      "lat": "41.66880028615662"
    },
    {
      "id": "pt.ine.add.PTCONT.5217414",
      "street": "R NSA SRA DA CONCEIÇÃO",
      "house": "431",
      "postcode": "4905-516",
      "city": "MUJÃES",
      "lon": "-8.710377895862669",
      "lat": "41.66815889374983"
    },
    {
      "id": "pt.ine.add.PTCONT.5224492",
      "street": "R MANUEL DE AMORIM",
      "house": "101",
      "postcode": "4905-516",
      "city": "MUJÃES",
      "lon": "-8.709683170942801",
      "lat": "41.6683514551581"
    },
    {
      "id": "pt.ine.add.PTCONT.5242995",
      "street": "R MANUEL DE AMORIM",
      "house": "",
      "postcode": "4905-516",
      "city": "MUJÃES",
      "lon": "-8.710105108955595",
      "lat": "41.66853841189991"
    }
  ]
}