{
  "data": {
    "distrito": "Viana do Castelo",
    "concelho": "Viana do Castelo",
    "freguesia": "Freixieiro de Soutelo",
    "OBJECTID": 83,
    "BGRI2021": "16091400110",
    "DT21": "16",
    "DTMN21": "1609",
    "DTMNFR21": "160914",
    "DTMNFRSEC21": "160914001",
    "SECNUM21": "001",
    "SSNUM21": "10",
    "SECSSNUM21": "00110",
    "OBJECTID_1": 178120,
    "DT": "16",
    "CC": "09",
    "fr": "14",
    "SEC": "001",
    "SS": "10"
  },
  "addresses": [
    {
      "id": "pt.ine.add.PTCONT.5137896",
      "street": "R ERMELO",
      "house": "551",
      "postcode": "4925-363",
      "city": "FREIXIEIRO DE SOUTELO",
      "lon": "-8.8065963883273",
      "lat": "41.78796607376725"
    },
    {
      "id": "pt.ine.add.PTCONT.5148877",
      "street": "R PENEDINHO",
      "house": "179",
      "postcode": "4925-365",
      "city": "FREIXIEIRO DE SOUTELO",
      "lon": "-8.806012388152341",
      "lat": "41.796540657863474"
    },
    {
      "id": "pt.ine.add.PTCONT.5161970",
      "street": "R VEIGA",
      "house": "Z8",
      "postcode": "4925-365",
      "city": "FREIXIEIRO DE SOUTELO",
      "lon": "-8.805593066096032",
      "lat": "41.7944093273609"
    },
    {
      "id": "pt.ine.add.PTCONT.5162580",
      "street": "R RIO",
      "house": "44",
      "postcode": "4925-365",
      "city": "FREIXIEIRO DE SOUTELO",
      "lon": "-8.80577999875115",
      "lat": "41.79387703712855"
    },
    {
      "id": "pt.ine.add.PTCONT.5167559",
      "street": "R CAMPO DE CIMA",
      "house": "11",
      "postcode": "4925-365",
      "city": "FREIXIEIRO DE SOUTELO",
      "lon": "-8.806020440004607",
      "lat": "41.79501004700989"
    },
    {
      "id": "pt.ine.add.PTCONT.5171742",
      "street": "R GROVAS",
      "house": "778",
      "postcode": "4925-365",
      "city": "FREIXIEIRO DE SOUTELO",
      "lon": "-8.806692842986962",
      "lat": "41.798328329289106"
    },
    {
      "id": "pt.ine.add.PTCONT.5182542",
      "street": "R PENEDINHO",
      "house": "203",
      "postcode": "4925-365",
      "city": "FREIXIEIRO DE SOUTELO",
      "lon": "-8.806239277865313",
      "lat": "41.79637726893411"
    },
    {
      "id": "pt.ine.add.PTCONT.5199016",
      "street": "ESTR SENHORA DA CABECA",
      "house": "1457",
      "postcode": "4925-362",
      "city": "FREIXIEIRO DE SOUTELO",
      "lon": "-8.80769438211239",
      "lat": "41.79516228908316"
    },
    {
      "id": "pt.ine.add.PTCONT.5202318",
      "street": "R RIO",
      "house": "44",
      "postcode": "4925-365",
      "city": "FREIXIEIRO DE SOUTELO",
      "lon": "-8.805947293274523",
      "lat": "41.79376801757604"
    },
    {
      "id": "pt.ine.add.PTCONT.5212127",
      "street": "R PENEDINHO",
      "house": "327",
      "postcode": "4925-365",
      "city": "FREIXIEIRO DE SOUTELO",
      "lon": "-8.80649776736103",
      "lat": "41.79693395948225"
    },
    {
      "id": "pt.ine.add.PTCONT.5212887",
      "street": "R PENEDINHO",
      "house": "35",
      "postcode": "4925-365",
      "city": "FREIXIEIRO DE SOUTELO",
      "lon": "-8.806568195626445",
      "lat": "41.79791490775073"
    },
    {
      "id": "pt.ine.add.PTCONT.5212888",
      "street": "R CAMPO DE CIMA MEOLE",
      "house": "55",
      "postcode": "4925-365",
      "city": "FREIXIEIRO DE SOUTELO",
      "lon": "-8.806041581658018",
      "lat": "41.794730820333186"
    },
    {
      "id": "pt.ine.add.PTCONT.5238361",
      "street": "R RIO",
      "house": "14",
      "postcode": "4925-365",
      "city": "FREIXIEIRO DE SOUTELO",
      "lon": "-8.806359903445948",
      "lat": "41.794107726274895"
    },
    {
      "id": "pt.ine.add.PTCONT.5270849",
      "street": "R MARTINHANAS",
      "house": "23",
      "postcode": "4925-365",
      "city": "FREIXIEIRO DE SOUTELO",
      "lon": "-8.806312999186469",
      "lat": "41.79767331412061"
    },
    {
      "id": "pt.ine.add.PTCONT.5275448",
      "street": "R RIO",
      "house": "51",
      "postcode": "4925-365",
      "city": "FREIXIEIRO DE SOUTELO",
      "lon": "-8.805114475669104",
      "lat": "41.79351179612767"
    },
    {
      "id": "pt.ine.add.PTCONT.5278489",
      "street": "R PORTULADO",
      "house": "166",
      "postcode": "4925-365",
      "city": "FREIXIEIRO DE SOUTELO",
      "lon": "-8.805539625498936",
      "lat": "41.79735372443735"
    },
    {
      "id": "pt.ine.add.PTCONT.5279096",
      "street": "R ERMELO",
      "house": "537",
      "postcode": "4925-363",
      "city": "FREIXIEIRO DE SOUTELO",
      "lon": "-8.806394058395954",
      "lat": "41.788174336293764"
    }
  ]
}