{
  "data": {
    "distrito": "Aveiro",
    "concelho": "Sever do Vouga",
    "freguesia": "União das freguesias de Cedrim e Paradela",
    "OBJECTID": 84,
    "BGRI2021": "01171000150",
    "DT21": "01",
    "DTMN21": "0117",
    "DTMNFR21": "011710",
    "DTMNFRSEC21": "011710001",
    "SECNUM21": "001",
    "SSNUM21": "50",
    "SECSSNUM21": "00150",
    "OBJECTID_1": 11320,
    "DT": "01",
    "CC": "17",
    "fr": "10",
    "SEC": "001",
    "SS": "50"
  },
  "addresses": [
    {
      "id": "pt.ine.add.PTCONT.303446",
      "street": "R ESCOLA PROF EMA PATO",
      "house": "",
      "postcode": "3740-016",
      "city": "CEDRIM",
      "lon": "-8.33380353776835",
      "lat": "40.72310628809228"
    },
    {
      "id": "pt.ine.add.PTCONT.318056",
      "street": "R ESCOLA",
      "house": "",
      "postcode": "3740-016",
      "city": "CEDRIM",
      "lon": "-8.333710632827351",
      "lat": "40.72370078359034"
    },
    {
      "id": "pt.ine.add.PTCONT.329589",
      "street": "",
      "house": "",
      "postcode": "3740-016",
      "city": "CEDRIM",
      "lon": "-8.336127874748776",
      "lat": "40.72067085655409"
    },
    {
      "id": "pt.ine.add.PTCONT.22094",
      "street": "R ESCOLA PROF EMA PATO",
      "house": "",
      "postcode": "3740-016",
      "city": "CEDRIM",
      "lon": "-8.333305825190227",
      "lat": "40.72290904100481"
    },
    {
      "id": "pt.ine.add.PTCONT.71881",
      "street": "R ESCOLA PROF EMA PATO",
      "house": "",
      "postcode": "3740-016",
      "city": "CEDRIM",
      "lon": "-8.33453843880284",
      "lat": "40.72345620540829"
    },
    {
      "id": "pt.ine.add.PTCONT.74643",
      "street": "R CASTANHEIROS",
      "house": "",
      "postcode": "3740-016",
      "city": "CEDRIM",
      "lon": "-8.335370905703426",
      "lat": "40.72084328161375"
    },
    {
      "id": "pt.ine.add.PTCONT.80254",
      "street": "R CALVÁRIO",
      "house": "",
      "postcode": "3740-016",
      "city": "CEDRIM",
      "lon": "-8.334449208410591",
      "lat": "40.721340171452944"
    },
    {
      "id": "pt.ine.add.PTCONT.96887",
      "street": "R CALVÁRIO",
      "house": "",
      "postcode": "3740-016",
      "city": "CEDRIM",
      "lon": "-8.334720454889252",
      "lat": "40.72101551571645"
    },
    {
      "id": "pt.ine.add.PTCONT.274608",
      "street": "R CASTANHEIROS",
      "house": "",
      "postcode": "3740-016",
      "city": "CEDRIM",
      "lon": "-8.334441035527194",
      "lat": "40.72255586920596"
    },
    {
      "id": "pt.ine.add.PTCONT.281047",
      "street": "",
      "house": "",
      "postcode": "3740-016",
      "city": "CEDRIM",
      "lon": "-8.334874537751507",
      "lat": "40.721087287014605"
    }
  ]
}