{
  "data": {
    "distrito": "Santarém",
    "concelho": "Tomar",
    "freguesia": "União das freguesias de Serra e Junceira",
    "OBJECTID": 367,
    "BGRI2021": "14182000208",
    "DT21": "14",
    "DTMN21": "1418",
    "DTMNFR21": "141820",
    "DTMNFRSEC21": "141820002",
    "SECNUM21": "002",
    "SSNUM21": "08",
    "SECSSNUM21": "00208",
    "OBJECTID_1": 156382,
    "DT": "14",
    "CC": "18",
    "fr": "20",
    "SEC": "002",
    "SS": "08"
  },
  "addresses": [
    {
      "id": "pt.ine.add.PTCONT.4464334",
      "street": "CARAMOUCHEL",
      "house": "1",
      "postcode": "2300-222",
      "city": "SERRA",
      "lon": "-8.291467050425737",
      "lat": "39.59201619709207"
    },
    {
      "id": "pt.ine.add.PTCONT.4479115",
      "street": "",
      "house": "",
      "postcode": "2300-222",
      "city": "SERRA",
      "lon": "-8.290624483375359",
      "lat": "39.590080874031806"
    },
    {
      "id": "pt.ine.add.PTCONT.4490798",
      "street": "R PRINCIPAL",
      "house": "17",
      "postcode": "2300-222",
      "city": "SERRA",
      "lon": "-8.29094189921714",
      "lat": "39.59144948142421"
    },
    {
      "id": "pt.ine.add.PTCONT.4529613",
      "street": "SIT CARAMOUCHEL",
      "house": "12",
      "postcode": "2300-222",
      "city": "SERRA",
      "lon": "-8.291230495695403",
      "lat": "39.59037727637078"
    },
    {
      "id": "pt.ine.add.PTCONT.4543835",
      "street": "R PRINCIPAL",
      "house": "",
      "postcode": "2300-222",
      "city": "SERRA",
      "lon": "-8.29033296753285",
      "lat": "39.58986510489126"
    },
    {
      "id": "pt.ine.add.PTCONT.4595005",
      "street": "",
      "house": "7",
      "postcode": "2300-247",
      "city": "SERRA",
      "lon": "-8.290157172303479",
      "lat": "39.589342946391525"
    },
    {
      "id": "pt.ine.add.PTCONT.4638506",
      "street": "PORTELA",
      "house": "3",
      "postcode": "2300-247",
      "city": "SERRA",
      "lon": "-8.290227791165298",
      "lat": "39.58968511052804"
    },
    {
      "id": "pt.ine.add.PTCONT.4644729",
      "street": "R PORTELA",
      "house": "15",
      "postcode": "2300-247",
      "city": "SERRA",
      "lon": "-8.29057773550959",
      "lat": "39.589999875914906"
    },
    {
      "id": "pt.ine.add.PTCONT.4648779",
      "street": "",
      "house": "",
      "postcode": "2300-222",
      "city": "SERRA",
      "lon": "-8.290682770438385",
      "lat": "39.5901168223284"
    }
  ]
}