{
  "data": {
    "distrito": "Porto",
    "concelho": "Marco de Canaveses",
    "freguesia": "Banho e Carvalhosa",
    "OBJECTID": 683,
    "BGRI2021": "13070400101",
    "DT21": "13",
    "DTMN21": "1307",
    "DTMNFR21": "130704",
    "DTMNFRSEC21": "130704001",
    "SECNUM21": "001",
    "SSNUM21": "01",
    "SECSSNUM21": "00101",
    "OBJECTID_1": 131115,
    "DT": "13",
    "CC": "07",
    "fr": "04",
    "SEC": "001",
    "SS": "01"
  },
  "addresses": [
    {
      "id": "pt.ine.add.PTCONT.3605632",
      "street": "R MOINHO DA LAMEIRA",
      "house": "35",
      "postcode": "4635-041",
      "city": "BANHO E CARVALHOSA",
      "lon": "-8.168004607131635",
      "lat": "41.224943995318014"
    },
    {
      "id": "pt.ine.add.PTCONT.3644172",
      "street": "R NOVA DO OUTEIRO",
      "house": "121",
      "postcode": "4635-041",
      "city": "BANHO E CARVALHOSA",
      "lon": "-8.165856773317145",
      "lat": "41.22272957213908"
    },
    {
      "id": "pt.ine.add.PTCONT.3644173",
      "street": "R NOVA DO OUTEIRO",
      "house": "121",
      "postcode": "4635-041",
      "city": "BANHO E CARVALHOSA",
      "lon": "-8.165856773317145",
      "lat": "41.22272957213908"
    },
    {
      "id": "pt.ine.add.PTCONT.3662350",
      "street": "R NOVA DO OUTEIRO",
      "house": "109",
      "postcode": "4635-041",
      "city": "BANHO E CARVALHOSA",
      "lon": "-8.166178889705401",
      "lat": "41.22296359152517"
    },
    {
      "id": "pt.ine.add.PTCONT.3740362",
      "street": "R NOVA DO OUTEIRO",
      "house": "141",
      "postcode": "4635-041",
      "city": "BANHO E CARVALHOSA",
      "lon": "-8.165689887132364",
      "lat": "41.22288269234447"
    },
    {
      "id": "pt.ine.add.PTCONT.4071486",
      "street": "R PACO D ALEM",
      "house": "830",
      "postcode": "4635-041",
      "city": "BANHO E CARVALHOSA",
      "lon": "-8.166466058727728",
      "lat": "41.224827395600016"
    },
    {
      "id": "pt.ine.add.PTCONT.4352818",
      "street": "R MOINHO DA LAMEIRA",
      "house": "13",
      "postcode": "4635-041",
      "city": "BANHO E CARVALHOSA",
      "lon": "-8.167515587559013",
      "lat": "41.2248631039247"
    },
    {
      "id": "pt.ine.add.PTCONT.4364305",
      "street": "R PAÃ‡O D ALEM",
      "house": "774",
      "postcode": "4635-041",
      "city": "BANHO E CARVALHOSA",
      "lon": "-8.167694414976204",
      "lat": "41.22473699039007"
    }
  ]
}