{
  "data": {
    "distrito": "Setúbal",
    "concelho": "Barreiro",
    "freguesia": "União das freguesias de Alto do Seixalinho, Santo André e Verderena",
    "OBJECTID": 547,
    "BGRI2021": "15040903005",
    "DT21": "15",
    "DTMN21": "1504",
    "DTMNFR21": "150409",
    "DTMNFRSEC21": "150409030",
    "SECNUM21": "030",
    "SSNUM21": "05",
    "SECSSNUM21": "03005",
    "OBJECTID_1": 162542,
    "DT": "15",
    "CC": "04",
    "fr": "09",
    "SEC": "030",
    "SS": "05"
  },
  "addresses": [
    {
      "id": "pt.ine.add.PTCONT.4667568",
      "street": "R NUNO MIGUEL DUARTE GREGORIO",
      "house": "6",
      "postcode": "2830-211",
      "city": "BARREIRO",
      "lon": "-9.053545152389724",
      "lat": "38.641222167705855"
    },
    {
      "id": "pt.ine.add.PTCONT.4789055",
      "street": "R JAIME CORTESAO",
      "house": "11 11A",
      "postcode": "2830-194",
      "city": "BARREIRO",
      "lon": "-9.053365776845508",
      "lat": "38.641565884770124"
    },
    {
      "id": "pt.ine.add.PTCONT.4871404",
      "street": "R JAIME CORTESÃO",
      "house": "13",
      "postcode": "2830-194",
      "city": "BARREIRO",
      "lon": "-9.053480853400611",
      "lat": "38.64158299554237"
    },
    {
      "id": "pt.ine.add.PTCONT.4874237",
      "street": "R DR ROCHA MARTINS",
      "house": "14",
      "postcode": "2830-191",
      "city": "BARREIRO",
      "lon": "-9.053213827806742",
      "lat": "38.641359894885895"
    },
    {
      "id": "pt.ine.add.PTCONT.4950826",
      "street": "R DR ROCHA MARTINS",
      "house": "16",
      "postcode": "2830-191",
      "city": "BARREIRO",
      "lon": "-9.053235645185893",
      "lat": "38.641269642795244"
    },
    {
      "id": "pt.ine.add.PTCONT.4994722",
      "street": "R DR ROCHA MARTINS",
      "house": "12",
      "postcode": "2830-191",
      "city": "BARREIRO",
      "lon": "-9.053123102799008",
      "lat": "38.64145068892077"
    },
    {
      "id": "pt.ine.add.PTCONT.5014532",
      "street": "R LAURA AYRES",
      "house": "15",
      "postcode": "2830-196",
      "city": "BARREIRO",
      "lon": "-9.053880279217593",
      "lat": "38.641381675262885"
    },
    {
      "id": "pt.ine.add.PTCONT.5037008",
      "street": "R DR ROCHA MARTINS",
      "house": "12",
      "postcode": "2830-001",
      "city": "BARREIRO",
      "lon": "-9.05316904118324",
      "lat": "38.64145032762596"
    },
    {
      "id": "pt.ine.add.PTCONT.5053407",
      "street": "R NUNO MIGUEL DUARTE GREGORIO",
      "house": "8",
      "postcode": "2830-211",
      "city": "BARREIRO",
      "lon": "-9.05343215004671",
      "lat": "38.64136718555129"
    },
    {
      "id": "pt.ine.add.PTCONT.5064201",
      "street": "R NUNO MIGUEL DUARTE GREGORIO",
      "house": "4",
      "postcode": "2830-211",
      "city": "BARREIRO",
      "lon": "-9.053660343663697",
      "lat": "38.641248285450736"
    },
    {
      "id": "pt.ine.add.PTCONT.5127216",
      "street": "R JAIME CORTESÃO",
      "house": "9",
      "postcode": "2830-194",
      "city": "BARREIRO",
      "lon": "-9.053124369614391",
      "lat": "38.64154976749162"
    }
  ]
}