{
  "data": {
    "distrito": "Setúbal",
    "concelho": "Alcácer do Sal",
    "freguesia": "Torrão",
    "OBJECTID": 220,
    "BGRI2021": "15010400151",
    "DT21": "15",
    "DTMN21": "1501",
    "DTMNFR21": "150104",
    "DTMNFRSEC21": "150104001",
    "SECNUM21": "001",
    "SSNUM21": "51",
    "SECSSNUM21": "00151",
    "OBJECTID_1": 160116,
    "DT": "15",
    "CC": "01",
    "fr": "04",
    "SEC": "001",
    "SS": "51"
  },
  "addresses": [
    {
      "id": "pt.ine.add.PTCONT.4717569",
      "street": "MTE SOBERANAS",
      "house": "",
      "postcode": "7595-168",
      "city": "TORRÃO",
      "lon": "-8.138443724838154",
      "lat": "38.253941699485836"
    },
    {
      "id": "pt.ine.add.PTCONT.4717570",
      "street": "MTE SOBERANAS",
      "house": "",
      "postcode": "7595-168",
      "city": "TORRÃO",
      "lon": "-8.138443724838154",
      "lat": "38.253941699485836"
    },
    {
      "id": "pt.ine.add.PTCONT.4794906",
      "street": "MTE SOBERANAS DE CIMA",
      "house": "",
      "postcode": "7595-168",
      "city": "TORRÃO",
      "lon": "-8.140180271458611",
      "lat": "38.25367134054716"
    },
    {
      "id": "pt.ine.add.PTCONT.4932679",
      "street": "MTE SERRINHA",
      "house": "",
      "postcode": "7595-168",
      "city": "TORRÃO",
      "lon": "-8.140033197822737",
      "lat": "38.268932414365835"
    },
    {
      "id": "pt.ine.add.PTCONT.4935097",
      "street": "HRD CORTES PEQUENAS",
      "house": "",
      "postcode": "7595-168",
      "city": "TORRÃO",
      "lon": "-8.151072033682205",
      "lat": "38.26970600742217"
    },
    {
      "id": "pt.ine.add.PTCONT.5067147",
      "street": "MTE PULGA",
      "house": "",
      "postcode": "7595-168",
      "city": "TORRÃO",
      "lon": "-8.14055749608551",
      "lat": "38.25569832046611"
    }
  ]
}