{
  "data": {
    "distrito": "Évora",
    "concelho": "Évora",
    "freguesia": "União das freguesias de Bacelo e Senhora da Saúde",
    "OBJECTID": 524,
    "BGRI2021": "07052200617",
    "DT21": "07",
    "DTMN21": "0705",
    "DTMNFR21": "070522",
    "DTMNFRSEC21": "070522006",
    "SECNUM21": "006",
    "SSNUM21": "17",
    "SECSSNUM21": "00617",
    "OBJECTID_1": 60395,
    "DT": "07",
    "CC": "05",
    "fr": "22",
    "SEC": "006",
    "SS": "17"
  },
  "addresses": [
    {
      "id": "pt.ine.add.PTCONT.1371824",
      "street": "QTA MONTINHO DO FERRO",
      "house": "",
      "postcode": "7005-837",
      "city": "ÉVORA",
      "lon": "-7.870936406950666",
      "lat": "38.57935237433309"
    },
    {
      "id": "pt.ine.add.PTCONT.1373613",
      "street": "QTA MONTINHO DO FERRO",
      "house": "",
      "postcode": "7005-837",
      "city": "ÉVORA",
      "lon": "-7.8720344829788615",
      "lat": "38.58316907728742"
    },
    {
      "id": "pt.ine.add.PTCONT.1389045",
      "street": "QTA MONTE REI",
      "house": "",
      "postcode": "7005-837",
      "city": "ÉVORA",
      "lon": "-7.870655441946861",
      "lat": "38.5773645962205"
    },
    {
      "id": "pt.ine.add.PTCONT.1405681",
      "street": "QTA ESTRADA REDONDO",
      "house": "",
      "postcode": "7005-837",
      "city": "ÉVORA",
      "lon": "-7.870183795903601",
      "lat": "38.57877159133275"
    },
    {
      "id": "pt.ine.add.PTCONT.1416155",
      "street": "QTA MONTINHO DO FERRO",
      "house": "",
      "postcode": "7005-837",
      "city": "ÉVORA",
      "lon": "-7.868976990483586",
      "lat": "38.5807594381769"
    },
    {
      "id": "pt.ine.add.PTCONT.1418745",
      "street": "HRD DO MONTINHO DE FERRO ARTGO",
      "house": "2314",
      "postcode": "7000-749",
      "city": "ÉVORA",
      "lon": "-7.8706833466904955",
      "lat": "38.57915732708438"
    },
    {
      "id": "pt.ine.add.PTCONT.1428802",
      "street": "QTA MONTINHO DO FERRO",
      "house": "",
      "postcode": "7005-837",
      "city": "ÉVORA",
      "lon": "-7.869417294344851",
      "lat": "38.58016342039742"
    },
    {
      "id": "pt.ine.add.PTCONT.1430385",
      "street": "QTA S JUSTA",
      "house": "",
      "postcode": "7005-837",
      "city": "ÉVORA",
      "lon": "-7.8689964030717485",
      "lat": "38.57914452438108"
    },
    {
      "id": "pt.ine.add.PTCONT.1430386",
      "street": "QTA TILIAS",
      "house": "",
      "postcode": "7005-837",
      "city": "ÉVORA",
      "lon": "-7.870940534722043",
      "lat": "38.57786069626127"
    },
    {
      "id": "pt.ine.add.PTCONT.1434108",
      "street": "QTA MONTINHO DO FERRO",
      "house": "",
      "postcode": "7005-837",
      "city": "ÉVORA",
      "lon": "-7.871983917071075",
      "lat": "38.58128621358723"
    },
    {
      "id": "pt.ine.add.PTCONT.1437533",
      "street": "QTA NOSSA SENHORA DE FÁTIMA",
      "house": "",
      "postcode": "7005-837",
      "city": "ÉVORA",
      "lon": "-7.87062249123673",
      "lat": "38.58011207904535"
    },
    {
      "id": "pt.ine.add.PTCONT.1455620",
      "street": "QTA MOINHO",
      "house": "9",
      "postcode": "7005-837",
      "city": "ÉVORA",
      "lon": "-7.868224564589719",
      "lat": "38.579944526145255"
    }
  ]
}