{
  "data": {
    "distrito": "Leiria",
    "concelho": "Batalha",
    "freguesia": "São Mamede",
    "OBJECTID": 224,
    "BGRI2021": "10040300305",
    "DT21": "10",
    "DTMN21": "1004",
    "DTMNFR21": "100403",
    "DTMNFRSEC21": "100403003",
    "SECNUM21": "003",
    "SSNUM21": "05",
    "SECSSNUM21": "00305",
    "OBJECTID_1": 86896,
    "DT": "10",
    "CC": "04",
    "fr": "03",
    "SEC": "003",
    "SS": "05"
  },
  "addresses": [
    {
      "id": "pt.ine.add.PTCONT.1986600",
      "street": "ESTR VALE DE OURÉM",
      "house": "18",
      "postcode": "2495-012",
      "city": "SÃO MAMEDE",
      "lon": "-8.718603708005089",
      "lat": "39.624027918036376"
    },
    {
      "id": "pt.ine.add.PTCONT.1986601",
      "street": "ESTR VALE DE OURÉM",
      "house": "18",
      "postcode": "2495-012",
      "city": "SÃO MAMEDE",
      "lon": "-8.718603708005089",
      "lat": "39.624027918036376"
    },
    {
      "id": "pt.ine.add.PTCONT.1986604",
      "street": "ESTR VALE DE OURÉM",
      "house": "18",
      "postcode": "2495-012",
      "city": "SÃO MAMEDE",
      "lon": "-8.718603708005089",
      "lat": "39.624027918036376"
    },
    {
      "id": "pt.ine.add.PTCONT.1986605",
      "street": "ESTR VALE DE OURÉM",
      "house": "18",
      "postcode": "2495-012",
      "city": "SÃO MAMEDE",
      "lon": "-8.718603708005089",
      "lat": "39.624027918036376"
    },
    {
      "id": "pt.ine.add.PTCONT.2041369",
      "street": "R PADRE JOSE CUNHA GOMES",
      "house": "",
      "postcode": "2495-032",
      "city": "SÃO MAMEDE",
      "lon": "-8.71916221668284",
      "lat": "39.62258403039362"
    },
    {
      "id": "pt.ine.add.PTCONT.2054840",
      "street": "ESTR LAPA FURADA",
      "house": "2",
      "postcode": "2495-032",
      "city": "SÃO MAMEDE",
      "lon": "-8.720058956078722",
      "lat": "39.622579503134546"
    },
    {
      "id": "pt.ine.add.PTCONT.2060926",
      "street": "ESTR VALE DE OURÉM",
      "house": "16",
      "postcode": "2495-032",
      "city": "SÃO MAMEDE",
      "lon": "-8.718710345866779",
      "lat": "39.62424354122568"
    },
    {
      "id": "pt.ine.add.PTCONT.2091931",
      "street": "R JOÃO VIEIRA",
      "house": "6",
      "postcode": "2495-032",
      "city": "SÃO MAMEDE",
      "lon": "-8.72043482460898",
      "lat": "39.62295588474545"
    },
    {
      "id": "pt.ine.add.PTCONT.2109707",
      "street": "R ESTRADA VALE OUREM",
      "house": "14",
      "postcode": "2495-032",
      "city": "SÃO MAMEDE",
      "lon": "-8.718980260203448",
      "lat": "39.624485361068416"
    },
    {
      "id": "pt.ine.add.PTCONT.2115712",
      "street": "R OUTEIRO",
      "house": "5",
      "postcode": "2495-032",
      "city": "SÃO MAMEDE",
      "lon": "-8.719403420227609",
      "lat": "39.62356454328833"
    },
    {
      "id": "pt.ine.add.PTCONT.2115713",
      "street": "R JOÃO VIEIRA",
      "house": "4",
      "postcode": "2495-032",
      "city": "SÃO MAMEDE",
      "lon": "-8.720130505967449",
      "lat": "39.622777288948825"
    },
    {
      "id": "pt.ine.add.PTCONT.2122725",
      "street": "R PADRE JOSE CUNHA GOMES",
      "house": "8",
      "postcode": "2495-032",
      "city": "SÃO MAMEDE",
      "lon": "-8.719095987032299",
      "lat": "39.623016685954845"
    },
    {
      "id": "pt.ine.add.PTCONT.2199408",
      "street": "ESTR LAPA FURADA",
      "house": "4",
      "postcode": "2495-032",
      "city": "SÃO MAMEDE",
      "lon": "-8.720396917435007",
      "lat": "39.62260481520577"
    },
    {
      "id": "pt.ine.add.PTCONT.2230624",
      "street": "R JOÃO VIEIRA",
      "house": "2",
      "postcode": "2495-032",
      "city": "SÃO MAMEDE",
      "lon": "-8.719735150377394",
      "lat": "39.622851339608424"
    }
  ]
}