{
  "data": {
    "distrito": "Leiria",
    "concelho": "Batalha",
    "freguesia": "São Mamede",
    "OBJECTID": 304,
    "BGRI2021": "10040300316",
    "DT21": "10",
    "DTMN21": "1004",
    "DTMNFR21": "100403",
    "DTMNFRSEC21": "100403003",
    "SECNUM21": "003",
    "SSNUM21": "16",
    "SECSSNUM21": "00316",
    "OBJECTID_1": 86587,
    "DT": "10",
    "CC": "04",
    "fr": "03",
    "SEC": "003",
    "SS": "16"
  },
  "addresses": [
    {
      "id": "pt.ine.add.PTCONT.2017324",
      "street": "ESTR MILHEIRICES",
      "house": "",
      "postcode": "2495-026",
      "city": "SÃO MAMEDE",
      "lon": "-8.717279987633438",
      "lat": "39.63142907469011"
    },
    {
      "id": "pt.ine.add.PTCONT.2045824",
      "street": "ESTR MIL HEIRICES",
      "house": "4",
      "postcode": "2495-026",
      "city": "SÃO MAMEDE",
      "lon": "-8.717242924422273",
      "lat": "39.63117707389427"
    },
    {
      "id": "pt.ine.add.PTCONT.2054862",
      "street": "ESTR S MAMEDE",
      "house": "",
      "postcode": "2495-036",
      "city": "SÃO MAMEDE",
      "lon": "-8.717244077993199",
      "lat": "39.63269919765476"
    },
    {
      "id": "pt.ine.add.PTCONT.2061539",
      "street": "ESTR CAVADINHA",
      "house": "1",
      "postcode": "2495-026",
      "city": "SÃO MAMEDE",
      "lon": "-8.718200212287021",
      "lat": "39.631433450099145"
    },
    {
      "id": "pt.ine.add.PTCONT.2107765",
      "street": "ESTR S MAMEDE",
      "house": "36",
      "postcode": "2495-036",
      "city": "SÃO MAMEDE",
      "lon": "-8.717242335790454",
      "lat": "39.63249205271148"
    },
    {
      "id": "pt.ine.add.PTCONT.2138260",
      "street": "ESTR S MAMEDE",
      "house": "40",
      "postcode": "2495-036",
      "city": "SÃO MAMEDE",
      "lon": "-8.717332334975872",
      "lat": "39.63211331941964"
    },
    {
      "id": "pt.ine.add.PTCONT.2181431",
      "street": "R BARREIRO",
      "house": "3",
      "postcode": "2495-036",
      "city": "SÃO MAMEDE",
      "lon": "-8.718827526209648",
      "lat": "39.63399719320064"
    },
    {
      "id": "pt.ine.add.PTCONT.2201644",
      "street": "R 13 DE NOVEMBRO",
      "house": "2",
      "postcode": "2495-036",
      "city": "SÃO MAMEDE",
      "lon": "-8.718395264243856",
      "lat": "39.633846258386114"
    },
    {
      "id": "pt.ine.add.PTCONT.2201645",
      "street": "R 13 DE NOVEMBRO",
      "house": "2",
      "postcode": "2495-036",
      "city": "SÃO MAMEDE",
      "lon": "-8.718395264243856",
      "lat": "39.633846258386114"
    },
    {
      "id": "pt.ine.add.PTCONT.2201646",
      "street": "R 13 DE NOVEMBRO",
      "house": "2",
      "postcode": "2495-036",
      "city": "SÃO MAMEDE",
      "lon": "-8.718395264243856",
      "lat": "39.633846258386114"
    },
    {
      "id": "pt.ine.add.PTCONT.2201647",
      "street": "R 13 DE NOVEMBRO",
      "house": "2",
      "postcode": "2495-036",
      "city": "SÃO MAMEDE",
      "lon": "-8.718395264243856",
      "lat": "39.633846258386114"
    },
    {
      "id": "pt.ine.add.PTCONT.2201648",
      "street": "R 13 DE NOVEMBRO",
      "house": "2",
      "postcode": "2495-036",
      "city": "SÃO MAMEDE",
      "lon": "-8.718395264243856",
      "lat": "39.633846258386114"
    },
    {
      "id": "pt.ine.add.PTCONT.2203292",
      "street": "R 13 DE NOVEMBRO",
      "house": "2",
      "postcode": "2495-036",
      "city": "SÃO MAMEDE",
      "lon": "-8.718395264243856",
      "lat": "39.633846258386114"
    },
    {
      "id": "pt.ine.add.PTCONT.2204393",
      "street": "ESTR S MAMEDE",
      "house": "38",
      "postcode": "2495-036",
      "city": "SÃO MAMEDE",
      "lon": "-8.717240517858952",
      "lat": "39.63227590145833"
    },
    {
      "id": "pt.ine.add.PTCONT.2215064",
      "street": "ESTR S MAMEDE",
      "house": "38",
      "postcode": "2495-036",
      "city": "SÃO MAMEDE",
      "lon": "-8.717287790020684",
      "lat": "39.632356723889814"
    },
    {
      "id": "pt.ine.add.PTCONT.2235851",
      "street": "ESTR S MAMEDE",
      "house": "",
      "postcode": "2495-036",
      "city": "SÃO MAMEDE",
      "lon": "-8.717270403409401",
      "lat": "39.63305933256694"
    },
    {
      "id": "pt.ine.add.PTCONT.2241091",
      "street": "ESTR CAVADINHA",
      "house": "13",
      "postcode": "2495-026",
      "city": "SÃO MAMEDE",
      "lon": "-8.719277250484474",
      "lat": "39.63207650156774"
    }
  ]
}