{
  "data": {
    "distrito": "Viseu",
    "concelho": "Santa Comba Dão",
    "freguesia": "União das freguesias de Santa Comba Dão e Couto do Mosteiro",
    "OBJECTID": 284,
    "BGRI2021": "18141100430",
    "DT21": "18",
    "DTMN21": "1814",
    "DTMNFR21": "181411",
    "DTMNFRSEC21": "181411004",
    "SECNUM21": "004",
    "SSNUM21": "30",
    "SECSSNUM21": "00430",
    "OBJECTID_1": 195651,
    "DT": "18",
    "CC": "14",
    "fr": "11",
    "SEC": "004",
    "SS": "30"
  },
  "addresses": [
    {
      "id": "pt.ine.add.PTCONT.5433706",
      "street": "R CARREGAL",
      "house": "8 A",
      "postcode": "3440-123",
      "city": "COUTO DO MOSTEIRO",
      "lon": "-8.126580319376764",
      "lat": "40.422674505155534"
    },
    {
      "id": "pt.ine.add.PTCONT.5455802",
      "street": "R FARINHEIRO",
      "house": "12",
      "postcode": "3440-123",
      "city": "COUTO DO MOSTEIRO",
      "lon": "-8.125743497279535",
      "lat": "40.424502579078066"
    },
    {
      "id": "pt.ine.add.PTCONT.5504116",
      "street": "R CARREGAL",
      "house": "4",
      "postcode": "3440-123",
      "city": "COUTO DO MOSTEIRO",
      "lon": "-8.126368265478586",
      "lat": "40.42219719938241"
    },
    {
      "id": "pt.ine.add.PTCONT.5517722",
      "street": "R FARINHEIRO",
      "house": "10 A",
      "postcode": "3440-123",
      "city": "COUTO DO MOSTEIRO",
      "lon": "-8.125920268681364",
      "lat": "40.42435850161749"
    },
    {
      "id": "pt.ine.add.PTCONT.5520371",
      "street": "BARRACA GESTOSA",
      "house": "17",
      "postcode": "3440-121",
      "city": "COUTO DO MOSTEIRO",
      "lon": "-8.125944011905613",
      "lat": "40.422701484095555"
    },
    {
      "id": "pt.ine.add.PTCONT.5523014",
      "street": "R CARREGAL",
      "house": "2",
      "postcode": "3440-123",
      "city": "COUTO DO MOSTEIRO",
      "lon": "-8.126132620167095",
      "lat": "40.421990057979095"
    },
    {
      "id": "pt.ine.add.PTCONT.5552588",
      "street": "R FARINHEIRO",
      "house": "4",
      "postcode": "3440-123",
      "city": "COUTO DO MOSTEIRO",
      "lon": "-8.12607361642856",
      "lat": "40.422827569602944"
    },
    {
      "id": "pt.ine.add.PTCONT.5575886",
      "street": "R FARINHEIRO",
      "house": "8",
      "postcode": "3440-123",
      "city": "COUTO DO MOSTEIRO",
      "lon": "-8.126273810133494",
      "lat": "40.42406134033741"
    },
    {
      "id": "pt.ine.add.PTCONT.5595665",
      "street": "AV NSA SRA GRACA",
      "house": "21",
      "postcode": "3440-123",
      "city": "COUTO DO MOSTEIRO",
      "lon": "-8.125649380567356",
      "lat": "40.42311572025677"
    },
    {
      "id": "pt.ine.add.PTCONT.5596672",
      "street": "R DO FARINHEIRO",
      "house": "",
      "postcode": "3440-123",
      "city": "COUTO DO MOSTEIRO",
      "lon": "-8.126898454289305",
      "lat": "40.42286363900374"
    },
    {
      "id": "pt.ine.add.PTCONT.5607061",
      "street": "R CARREGAL",
      "house": "6",
      "postcode": "3440-123",
      "city": "COUTO DO MOSTEIRO",
      "lon": "-8.126509574866308",
      "lat": "40.42312477808984"
    },
    {
      "id": "pt.ine.add.PTCONT.5616171",
      "street": "R FARINHEIRO",
      "house": "6",
      "postcode": "3440-123",
      "city": "COUTO DO MOSTEIRO",
      "lon": "-8.12635635518692",
      "lat": "40.42346697970223"
    }
  ]
}