{
  "data": {
    "distrito": "Évora",
    "concelho": "Alandroal",
    "freguesia": "União das freguesias de Alandroal (Nossa Senhora da Conceição), São Brás dos Matos (Mina do Bugalho) e Juromenha (Nossa Senhora do Loreto)",
    "OBJECTID": 63,
    "BGRI2021": "07010700102",
    "DT21": "07",
    "DTMN21": "0701",
    "DTMNFR21": "070107",
    "DTMNFRSEC21": "070107001",
    "SECNUM21": "001",
    "SSNUM21": "02",
    "SECSSNUM21": "00102",
    "OBJECTID_1": 58633,
    "DT": "07",
    "CC": "01",
    "fr": "07",
    "SEC": "001",
    "SS": "02"
  },
  "addresses": [
    {
      "id": "pt.ine.add.PTCONT.1397737",
      "street": "MTE ORDEM",
      "house": "",
      "postcode": "7250-203",
      "city": "ALANDROAL",
      "lon": "-7.306539979868677",
      "lat": "38.590594713911166"
    },
    {
      "id": "pt.ine.add.PTCONT.1404609",
      "street": "POSANTO MOCHICHOS",
      "house": "",
      "postcode": "7250-203",
      "city": "ALANDROAL",
      "lon": "-7.272291444523908",
      "lat": "38.59051896494851"
    },
    {
      "id": "pt.ine.add.PTCONT.1407112",
      "street": "MTE FONTE",
      "house": "",
      "postcode": "7250-203",
      "city": "ALANDROAL",
      "lon": "-7.319766438239205",
      "lat": "38.60243404041769"
    },
    {
      "id": "pt.ine.add.PTCONT.1419915",
      "street": "MTE STA LUZIA",
      "house": "",
      "postcode": "7250-203",
      "city": "ALANDROAL",
      "lon": "-7.313718603907652",
      "lat": "38.602265734654566"
    },
    {
      "id": "pt.ine.add.PTCONT.1434820",
      "street": "MTE ORDEM",
      "house": "",
      "postcode": "7250-203",
      "city": "ALANDROAL",
      "lon": "-7.313767984912529",
      "lat": "38.599941974340005"
    },
    {
      "id": "pt.ine.add.PTCONT.1432406",
      "street": "MTE MELREU",
      "house": "",
      "postcode": "7250-203",
      "city": "ALANDROAL",
      "lon": "-7.280697959079553",
      "lat": "38.584283788816805"
    },
    {
      "id": "pt.ine.add.PTCONT.1457334",
      "street": "MTE STA LUZIA",
      "house": "",
      "postcode": "7250-203",
      "city": "ALANDROAL",
      "lon": "-7.314697481759392",
      "lat": "38.60300224585649"
    }
  ]
}