{
  "data": {
    "distrito": "Lisboa",
    "concelho": "Sintra",
    "freguesia": "União das freguesias de Almargem do Bispo, Pêro Pinheiro e Montelavar",
    "OBJECTID": 1939,
    "BGRI2021": "11112301010",
    "DT21": "11",
    "DTMN21": "1111",
    "DTMNFR21": "111123",
    "DTMNFRSEC21": "111123010",
    "SECNUM21": "010",
    "SSNUM21": "10",
    "SECSSNUM21": "01010",
    "OBJECTID_1": 111919,
    "DT": "11",
    "CC": "11",
    "fr": "23",
    "SEC": "010",
    "SS": "10"
  },
  "addresses": [
    {
      "id": "pt.ine.add.PTCONT.2503280",
      "street": "R NOVA DE SANTO ANTÓNIO",
      "house": "",
      "postcode": "2715-359",
      "city": "ALMARGEM DO BISPO",
      "lon": "-9.270870590466457",
      "lat": "38.83004991854792"
    },
    {
      "id": "pt.ine.add.PTCONT.2661341",
      "street": "ESTR PARQUE",
      "house": "1",
      "postcode": "2715-463",
      "city": "ALMARGEM DO BISPO",
      "lon": "-9.270028098244339",
      "lat": "38.83138224355959"
    },
    {
      "id": "pt.ine.add.PTCONT.2661342",
      "street": "ESTR PARQUE",
      "house": "18",
      "postcode": "2715-463",
      "city": "ALMARGEM DO BISPO",
      "lon": "-9.270028098244339",
      "lat": "38.83138224355959"
    },
    {
      "id": "pt.ine.add.PTCONT.2663981",
      "street": "ESTR PARQUE",
      "house": "18",
      "postcode": "2715-463",
      "city": "ALMARGEM DO BISPO",
      "lon": "-9.270028098244339",
      "lat": "38.83138224355959"
    },
    {
      "id": "pt.ine.add.PTCONT.2922119",
      "street": "R PORTELA",
      "house": "7",
      "postcode": "2715-359",
      "city": "ALMARGEM DO BISPO",
      "lon": "-9.270226756715987",
      "lat": "38.830839851943914"
    },
    {
      "id": "pt.ine.add.PTCONT.3202148",
      "street": "R NOVA DE SANTO ANTÓNIO",
      "house": "",
      "postcode": "2715-359",
      "city": "ALMARGEM DO BISPO",
      "lon": "-9.27067728867884",
      "lat": "38.83020493097081"
    },
    {
      "id": "pt.ine.add.PTCONT.3337386",
      "street": "ESTR PARQUE",
      "house": "20",
      "postcode": "2715-463",
      "city": "ALMARGEM DO BISPO",
      "lon": "-9.26988519935546",
      "lat": "38.83108638253543"
    },
    {
      "id": "pt.ine.add.PTCONT.3337387",
      "street": "R NOVA SANTO ANTONIO V MATOS",
      "house": "V MATOS",
      "postcode": "2715-359",
      "city": "ALMARGEM DO BISPO",
      "lon": "-9.27040496390641",
      "lat": "38.83045979645294"
    },
    {
      "id": "pt.ine.add.PTCONT.3388701",
      "street": "ESTR PARQUE",
      "house": "20",
      "postcode": "2715-463",
      "city": "ALMARGEM DO BISPO",
      "lon": "-9.270048834239345",
      "lat": "38.831237919639285"
    }
  ]
}