{
  "data": {
    "distrito": "Setúbal",
    "concelho": "Barreiro",
    "freguesia": "Santo António da Charneca",
    "OBJECTID": 308,
    "BGRI2021": "15040700605",
    "DT21": "15",
    "DTMN21": "1504",
    "DTMNFR21": "150407",
    "DTMNFRSEC21": "150407006",
    "SECNUM21": "006",
    "SSNUM21": "05",
    "SECSSNUM21": "00605",
    "OBJECTID_1": 162817,
    "DT": "15",
    "CC": "04",
    "fr": "07",
    "SEC": "006",
    "SS": "05"
  },
  "addresses": [
    {
      "id": "pt.ine.add.PTCONT.4768509",
      "street": "R DO PARAÍSO",
      "house": "16",
      "postcode": "2835-471",
      "city": "SANTO ANTÓNIO DA CHARNECA",
      "lon": "-9.036533389709058",
      "lat": "38.63653546906711"
    },
    {
      "id": "pt.ine.add.PTCONT.4722631",
      "street": "R FLORES",
      "house": "190",
      "postcode": "2835-737",
      "city": "SANTO ANTÓNIO DA CHARNECA",
      "lon": "-9.035711408847945",
      "lat": "38.63692916068936"
    },
    {
      "id": "pt.ine.add.PTCONT.4737309",
      "street": "R SEBASTIAO GAMA",
      "house": "136",
      "postcode": "2835-740",
      "city": "SANTO ANTÓNIO DA CHARNECA",
      "lon": "-9.036725788099272",
      "lat": "38.63630878149108"
    },
    {
      "id": "pt.ine.add.PTCONT.4776731",
      "street": "R SEBASTIÃO DA GAMA",
      "house": "24",
      "postcode": "2835-740",
      "city": "SANTO ANTÓNIO DA CHARNECA",
      "lon": "-9.035884304906675",
      "lat": "38.63606305228973"
    },
    {
      "id": "pt.ine.add.PTCONT.4792706",
      "street": "PCT PARAISO",
      "house": "34",
      "postcode": "2835-733",
      "city": "SANTO ANTÓNIO DA CHARNECA",
      "lon": "-9.036097228835397",
      "lat": "38.63655685261132"
    },
    {
      "id": "pt.ine.add.PTCONT.4816303",
      "street": "PCT PARAISO",
      "house": "1",
      "postcode": "2835-733",
      "city": "SANTO ANTÓNIO DA CHARNECA",
      "lon": "-9.036550640202046",
      "lat": "38.63699474715906"
    },
    {
      "id": "pt.ine.add.PTCONT.4976614",
      "street": "R SEBASTIÃO DA GAMA",
      "house": "180",
      "postcode": "2835-740",
      "city": "SANTO ANTÓNIO DA CHARNECA",
      "lon": "-9.036437109607048",
      "lat": "38.63618489798814"
    },
    {
      "id": "pt.ine.add.PTCONT.4994977",
      "street": "R SEBASTIÃO DA GAMA",
      "house": "179",
      "postcode": "2835-740",
      "city": "SANTO ANTÓNIO DA CHARNECA",
      "lon": "-9.03609090013521",
      "lat": "38.63605244977399"
    },
    {
      "id": "pt.ine.add.PTCONT.5049727",
      "street": "PCT PARAISO",
      "house": "33",
      "postcode": "2835-733",
      "city": "SANTO ANTÓNIO DA CHARNECA",
      "lon": "-9.03609444707648",
      "lat": "38.63725049508236"
    },
    {
      "id": "pt.ine.add.PTCONT.5063109",
      "street": "PCT PARAISO",
      "house": "35",
      "postcode": "2835-733",
      "city": "SANTO ANTÓNIO DA CHARNECA",
      "lon": "-9.036272764924469",
      "lat": "38.63681673145649"
    },
    {
      "id": "pt.ine.add.PTCONT.5064352",
      "street": "PCT PARAISO",
      "house": "35",
      "postcode": "2835-733",
      "city": "SANTO ANTÓNIO DA CHARNECA",
      "lon": "-9.03628820520896",
      "lat": "38.637131894517964"
    },
    {
      "id": "pt.ine.add.PTCONT.5089355",
      "street": "R FLORES",
      "house": "188",
      "postcode": "2835-737",
      "city": "SANTO ANTÓNIO DA CHARNECA",
      "lon": "-9.035830993416031",
      "lat": "38.63730657670063"
    },
    {
      "id": "pt.ine.add.PTCONT.5117892",
      "street": "R SEBASTIÃO DA GAMA",
      "house": "178",
      "postcode": "2835-740",
      "city": "SANTO ANTÓNIO DA CHARNECA",
      "lon": "-9.03560903274764",
      "lat": "38.63609220040271"
    },
    {
      "id": "pt.ine.add.PTCONT.5117893",
      "street": "R PARAISO",
      "house": "33",
      "postcode": "2835-738",
      "city": "SANTO ANTÓNIO DA CHARNECA",
      "lon": "-9.036603423670226",
      "lat": "38.636625008864385"
    },
    {
      "id": "pt.ine.add.PTCONT.5128571",
      "street": "PCT PARAISO",
      "house": "35",
      "postcode": "2835-733",
      "city": "SANTO ANTÓNIO DA CHARNECA",
      "lon": "-9.036272764924469",
      "lat": "38.63681673145649"
    }
  ]
}