{
  "data": {
    "distrito": "Viseu",
    "concelho": "Nelas",
    "freguesia": "Canas de Senhorim",
    "OBJECTID": 411,
    "BGRI2021": "18090100305",
    "DT21": "18",
    "DTMN21": "1809",
    "DTMNFR21": "180901",
    "DTMNFRSEC21": "180901003",
    "SECNUM21": "003",
    "SSNUM21": "05",
    "SECSSNUM21": "00305",
    "OBJECTID_1": 193742,
    "DT": "18",
    "CC": "09",
    "fr": "01",
    "SEC": "003",
    "SS": "05"
  },
  "addresses": [
    {
      "id": "pt.ine.add.PTCONT.5445789",
      "street": "R DR ABILIO MONTEIRO",
      "house": "4",
      "postcode": "3525-070",
      "city": "CANAS DE SENHORIM",
      "lon": "-7.898666338070611",
      "lat": "40.50383738708769"
    },
    {
      "id": "pt.ine.add.PTCONT.5445790",
      "street": "R DR ABILIO MONTEIRO",
      "house": "4",
      "postcode": "3525-070",
      "city": "CANAS DE SENHORIM",
      "lon": "-7.898666338070611",
      "lat": "40.50383738708769"
    },
    {
      "id": "pt.ine.add.PTCONT.5445791",
      "street": "R DR ABILIO MONTEIRO",
      "house": "4",
      "postcode": "3525-070",
      "city": "CANAS DE SENHORIM",
      "lon": "-7.898666338070611",
      "lat": "40.50383738708769"
    },
    {
      "id": "pt.ine.add.PTCONT.5445792",
      "street": "R DR ABILIO MONTEIRO",
      "house": "4",
      "postcode": "3525-070",
      "city": "CANAS DE SENHORIM",
      "lon": "-7.898666338070611",
      "lat": "40.50383738708769"
    },
    {
      "id": "pt.ine.add.PTCONT.5445793",
      "street": "R DR ABILIO MONTEIRO",
      "house": "4",
      "postcode": "3525-070",
      "city": "CANAS DE SENHORIM",
      "lon": "-7.898666338070611",
      "lat": "40.50383738708769"
    },
    {
      "id": "pt.ine.add.PTCONT.5446909",
      "street": "R DR ABILIO MONTEIRO",
      "house": "4",
      "postcode": "3525-070",
      "city": "CANAS DE SENHORIM",
      "lon": "-7.898666338070611",
      "lat": "40.50383738708769"
    },
    {
      "id": "pt.ine.add.PTCONT.5455003",
      "street": "R MARIA OLIVIA BARBOSA REIS",
      "house": "2",
      "postcode": "3525-080",
      "city": "CANAS DE SENHORIM",
      "lon": "-7.899197601452258",
      "lat": "40.503730398796094"
    },
    {
      "id": "pt.ine.add.PTCONT.5472544",
      "street": "R DR ABILIO MONTEIRO URB DO FOJO",
      "house": "2",
      "postcode": "3525-070",
      "city": "CANAS DE SENHORIM",
      "lon": "-7.898408299450308",
      "lat": "40.503404604092275"
    },
    {
      "id": "pt.ine.add.PTCONT.5472545",
      "street": "R DR ABILIO MONTEIRO URB DO FOJO",
      "house": "2",
      "postcode": "3525-070",
      "city": "CANAS DE SENHORIM",
      "lon": "-7.898408299450308",
      "lat": "40.503404604092275"
    },
    {
      "id": "pt.ine.add.PTCONT.5472546",
      "street": "R DR ABILIO MONTEIRO URB DO FOJO",
      "house": "2",
      "postcode": "3525-070",
      "city": "CANAS DE SENHORIM",
      "lon": "-7.898408299450308",
      "lat": "40.503404604092275"
    },
    {
      "id": "pt.ine.add.PTCONT.5472547",
      "street": "R DR ABILIO MONTEIRO URB DO FOJO",
      "house": "2",
      "postcode": "3525-070",
      "city": "CANAS DE SENHORIM",
      "lon": "-7.898408299450308",
      "lat": "40.503404604092275"
    },
    {
      "id": "pt.ine.add.PTCONT.5472548",
      "street": "R DR ABILIO MONTEIRO URB DO FOJO",
      "house": "2",
      "postcode": "3525-070",
      "city": "CANAS DE SENHORIM",
      "lon": "-7.898408299450308",
      "lat": "40.503404604092275"
    },
    {
      "id": "pt.ine.add.PTCONT.5472549",
      "street": "R DR ABILIO MONTEIRO URB DO FOJO",
      "house": "2",
      "postcode": "3525-070",
      "city": "CANAS DE SENHORIM",
      "lon": "-7.898408299450308",
      "lat": "40.503404604092275"
    },
    {
      "id": "pt.ine.add.PTCONT.5478437",
      "street": "R MARIA OLIVIA BARBOSA REIS",
      "house": "12",
      "postcode": "3525-080",
      "city": "CANAS DE SENHORIM",
      "lon": "-7.8993351695489435",
      "lat": "40.504883368343535"
    },
    {
      "id": "pt.ine.add.PTCONT.5513943",
      "street": "R DR ABILIO MONTEIRO",
      "house": "134",
      "postcode": "3525-070",
      "city": "CANAS DE SENHORIM",
      "lon": "-7.897579707197549",
      "lat": "40.50419539361181"
    },
    {
      "id": "pt.ine.add.PTCONT.5524463",
      "street": "R FOJO",
      "house": "10",
      "postcode": "3525-055",
      "city": "CANAS DE SENHORIM",
      "lon": "-7.899033031339212",
      "lat": "40.50355896296634"
    },
    {
      "id": "pt.ine.add.PTCONT.5534708",
      "street": "R MARIA OLIVIA BARBOSA REIS",
      "house": "4",
      "postcode": "3525-080",
      "city": "CANAS DE SENHORIM",
      "lon": "-7.899303059716611",
      "lat": "40.5039377364136"
    },
    {
      "id": "pt.ine.add.PTCONT.5617723",
      "street": "R DR ABILIO MONTEIRO URB DO FOJO",
      "house": "1",
      "postcode": "3525-070",
      "city": "CANAS DE SENHORIM",
      "lon": "-7.898538290821934",
      "lat": "40.503341830204526"
    },
    {
      "id": "pt.ine.add.PTCONT.5617724",
      "street": "R DR ABILIO MONTEIRO URB DO FOJO",
      "house": "1",
      "postcode": "3525-070",
      "city": "CANAS DE SENHORIM",
      "lon": "-7.898538290821934",
      "lat": "40.503341830204526"
    },
    {
      "id": "pt.ine.add.PTCONT.5617725",
      "street": "R DR ABILIO MONTEIRO URB DO FOJO",
      "house": "1",
      "postcode": "3525-070",
      "city": "CANAS DE SENHORIM",
      "lon": "-7.898538290821934",
      "lat": "40.503341830204526"
    },
    {
      "id": "pt.ine.add.PTCONT.5617726",
      "street": "R DR ABILIO MONTEIRO URB DO FOJO",
      "house": "1",
      "postcode": "3525-070",
      "city": "CANAS DE SENHORIM",
      "lon": "-7.898538290821934",
      "lat": "40.503341830204526"
    },
    {
      "id": "pt.ine.add.PTCONT.5617727",
      "street": "R DR ABILIO MONTEIRO URB DO FOJO",
      "house": "1",
      "postcode": "3525-070",
      "city": "CANAS DE SENHORIM",
      "lon": "-7.898538290821934",
      "lat": "40.503341830204526"
    },
    {
      "id": "pt.ine.add.PTCONT.5618896",
      "street": "R DR ABILIO MONTEIRO URB DO FOJO",
      "house": "1",
      "postcode": "3525-070",
      "city": "CANAS DE SENHORIM",
      "lon": "-7.898538290821934",
      "lat": "40.503341830204526"
    },
    {
      "id": "pt.ine.add.PTCONT.5640975",
      "street": "R DR ABILIO MONTEIRO",
      "house": "",
      "postcode": "3525-070",
      "city": "CANAS DE SENHORIM",
      "lon": "-7.898537318347171",
      "lat": "40.50362099566491"
    },
    {
      "id": "pt.ine.add.PTCONT.5640976",
      "street": "R DR ABILIO MONTEIRO",
      "house": "",
      "postcode": "3525-070",
      "city": "CANAS DE SENHORIM",
      "lon": "-7.898537318347171",
      "lat": "40.50362099566491"
    },
    {
      "id": "pt.ine.add.PTCONT.5640977",
      "street": "R DR ABILIO MONTEIRO",
      "house": "",
      "postcode": "3525-070",
      "city": "CANAS DE SENHORIM",
      "lon": "-7.898537318347171",
      "lat": "40.50362099566491"
    },
    {
      "id": "pt.ine.add.PTCONT.5640978",
      "street": "R DR ABILIO MONTEIRO",
      "house": "",
      "postcode": "3525-070",
      "city": "CANAS DE SENHORIM",
      "lon": "-7.898537318347171",
      "lat": "40.50362099566491"
    },
    {
      "id": "pt.ine.add.PTCONT.5640979",
      "street": "R DR ABILIO MONTEIRO",
      "house": "",
      "postcode": "3525-070",
      "city": "CANAS DE SENHORIM",
      "lon": "-7.898537318347171",
      "lat": "40.50362099566491"
    },
    {
      "id": "pt.ine.add.PTCONT.5641623",
      "street": "R DR ABILIO MONTEIRO",
      "house": "",
      "postcode": "3525-070",
      "city": "CANAS DE SENHORIM",
      "lon": "-7.898537318347171",
      "lat": "40.50362099566491"
    }
  ]
}