{
  "data": {
    "distrito": "Guarda",
    "concelho": "Gouveia",
    "freguesia": "Vila Nova de Tazem",
    "OBJECTID": 347,
    "BGRI2021": "09062100213",
    "DT21": "09",
    "DTMN21": "0906",
    "DTMNFR21": "090621",
    "DTMNFRSEC21": "090621002",
    "SECNUM21": "002",
    "SSNUM21": "13",
    "SECSSNUM21": "00213",
    "OBJECTID_1": 77590,
    "DT": "09",
    "CC": "06",
    "fr": "21",
    "SEC": "002",
    "SS": "13"
  },
  "addresses": [
    {
      "id": "pt.ine.add.PTCONT.1902234",
      "street": "R PORTO",
      "house": "",
      "postcode": "6290-631",
      "city": "VILA NOVA DE TAZEM",
      "lon": "-7.716114915995843",
      "lat": "40.49361507099579"
    },
    {
      "id": "pt.ine.add.PTCONT.1923227",
      "street": "R DR JOAQUIM BORGES MARVAO",
      "house": "",
      "postcode": "6290-632",
      "city": "VILA NOVA DE TAZEM",
      "lon": "-7.708236089810988",
      "lat": "40.499106675799375"
    },
    {
      "id": "pt.ine.add.PTCONT.1923977",
      "street": "R PORTO",
      "house": "",
      "postcode": "6290-631",
      "city": "VILA NOVA DE TAZEM",
      "lon": "-7.717282226491351",
      "lat": "40.493691319996984"
    },
    {
      "id": "pt.ine.add.PTCONT.1942203",
      "street": "R PORTO",
      "house": "16",
      "postcode": "6290-631",
      "city": "VILA NOVA DE TAZEM",
      "lon": "-7.7180569577903055",
      "lat": "40.49430647142626"
    },
    {
      "id": "pt.ine.add.PTCONT.1950779",
      "street": "QTA RAPOSEIRA",
      "house": "11",
      "postcode": "6290-632",
      "city": "VILA NOVA DE TAZEM",
      "lon": "-7.714347844545235",
      "lat": "40.49699317746246"
    },
    {
      "id": "pt.ine.add.PTCONT.1852161",
      "street": "R PORTO",
      "house": "",
      "postcode": "6290-631",
      "city": "VILA NOVA DE TAZEM",
      "lon": "-7.7170089825517305",
      "lat": "40.49400552520657"
    },
    {
      "id": "pt.ine.add.PTCONT.1865843",
      "street": "SIT RAPOSEIRA",
      "house": "",
      "postcode": "6290-632",
      "city": "VILA NOVA DE TAZEM",
      "lon": "-7.712681284328197",
      "lat": "40.49756500134929"
    }
  ]
}