{
  "data": {
    "distrito": "Porto",
    "concelho": "Matosinhos",
    "freguesia": "União das freguesias de Matosinhos e Leça da Palmeira",
    "OBJECTID": 1115,
    "BGRI2021": "13081200811",
    "DT21": "13",
    "DTMN21": "1308",
    "DTMNFR21": "130812",
    "DTMNFRSEC21": "130812008",
    "SECNUM21": "008",
    "SSNUM21": "11",
    "SECSSNUM21": "00811",
    "OBJECTID_1": 133269,
    "DT": "13",
    "CC": "08",
    "fr": "12",
    "SEC": "008",
    "SS": "11"
  },
  "addresses": [
    {
      "id": "pt.ine.add.PTCONT.3594485",
      "street": "R LUCIO DE AZEVEDO",
      "house": "23",
      "postcode": "4450-605",
      "city": "MATOSINHOS",
      "lon": "-8.670581389546918",
      "lat": "41.18249345460037"
    },
    {
      "id": "pt.ine.add.PTCONT.3596464",
      "street": "R LUCIO DE AZEVEDO",
      "house": "23",
      "postcode": "4450-605",
      "city": "MATOSINHOS",
      "lon": "-8.670581389546918",
      "lat": "41.18249345460037"
    },
    {
      "id": "pt.ine.add.PTCONT.3638218",
      "street": "R DR ANTÓNIO TEIXEIRA DE MELO",
      "house": "64",
      "postcode": "4450-049",
      "city": "MATOSINHOS",
      "lon": "-8.67114172482091",
      "lat": "41.182513724573944"
    },
    {
      "id": "pt.ine.add.PTCONT.3851665",
      "street": "R LUCIO DE AZEVEDO",
      "house": "18",
      "postcode": "4450-605",
      "city": "MATOSINHOS",
      "lon": "-8.670809776781825",
      "lat": "41.18240634711982"
    },
    {
      "id": "pt.ine.add.PTCONT.3907123",
      "street": "R AFONSO DE FARIA",
      "house": "19",
      "postcode": "4450-594",
      "city": "MATOSINHOS",
      "lon": "-8.670565152420568",
      "lat": "41.18273464561048"
    },
    {
      "id": "pt.ine.add.PTCONT.3993182",
      "street": "TV CRUZ DE PAU",
      "house": "15",
      "postcode": "4450-103",
      "city": "MATOSINHOS",
      "lon": "-8.67039616615881",
      "lat": "41.18279846413233"
    },
    {
      "id": "pt.ine.add.PTCONT.3993183",
      "street": "TV CRUZ DE PAU",
      "house": "15",
      "postcode": "4450-103",
      "city": "MATOSINHOS",
      "lon": "-8.67039616615881",
      "lat": "41.18279846413233"
    },
    {
      "id": "pt.ine.add.PTCONT.4050503",
      "street": "R LUCIO DE AZEVEDO",
      "house": "16",
      "postcode": "4450-605",
      "city": "MATOSINHOS",
      "lon": "-8.671007728759704",
      "lat": "41.182382787786985"
    },
    {
      "id": "pt.ine.add.PTCONT.4058475",
      "street": "R LUCIO AZEVEDO",
      "house": "11",
      "postcode": "4450-605",
      "city": "MATOSINHOS",
      "lon": "-8.670892740477127",
      "lat": "41.18232917382589"
    },
    {
      "id": "pt.ine.add.PTCONT.4115888",
      "street": "R DR JOSÉ LÚCIO",
      "house": "75",
      "postcode": "4450-049",
      "city": "MATOSINHOS",
      "lon": "-8.670290227065827",
      "lat": "41.18263688096669"
    },
    {
      "id": "pt.ine.add.PTCONT.4203582",
      "street": "R LUCIO DE AZEVEDO",
      "house": "58",
      "postcode": "4450-605",
      "city": "MATOSINHOS",
      "lon": "-8.671082412133893",
      "lat": "41.1824468448963"
    },
    {
      "id": "pt.ine.add.PTCONT.4321358",
      "street": "R LUCIO DE AZEVEDO",
      "house": "51",
      "postcode": "4450-605",
      "city": "MATOSINHOS",
      "lon": "-8.670492024576118",
      "lat": "41.182536892326205"
    },
    {
      "id": "pt.ine.add.PTCONT.4347589",
      "street": "R AFONSO DE FARIA",
      "house": "50",
      "postcode": "4450-049",
      "city": "MATOSINHOS",
      "lon": "-8.670636071933854",
      "lat": "41.18266228027535"
    }
  ]
}