{
  "data": {
    "distrito": "Santarém",
    "concelho": "Santarém",
    "freguesia": "Alcanede",
    "OBJECTID": 1027,
    "BGRI2021": "14160400418",
    "DT21": "14",
    "DTMN21": "1416",
    "DTMNFR21": "141604",
    "DTMNFRSEC21": "141604004",
    "SECNUM21": "004",
    "SSNUM21": "18",
    "SECSSNUM21": "00418",
    "OBJECTID_1": 154949,
    "DT": "14",
    "CC": "16",
    "fr": "04",
    "SEC": "004",
    "SS": "18"
  },
  "addresses": [
    {
      "id": "pt.ine.add.PTCONT.4408368",
      "street": "R ESCOLA PRIMARIA",
      "house": "17",
      "postcode": "2025-175",
      "city": "ALCANEDE",
      "lon": "-8.837830169241393",
      "lat": "39.40415774203477"
    },
    {
      "id": "pt.ine.add.PTCONT.4425147",
      "street": "R MONTE DO VENTO",
      "house": "",
      "postcode": "2025-250",
      "city": "ALCANEDE",
      "lon": "-8.838390248631082",
      "lat": "39.41135093021252"
    },
    {
      "id": "pt.ine.add.PTCONT.4442764",
      "street": "R ROSÁRIO DA PIEDADE",
      "house": "",
      "postcode": "2025-250",
      "city": "ALCANEDE",
      "lon": "-8.841929672302074",
      "lat": "39.401980165933345"
    },
    {
      "id": "pt.ine.add.PTCONT.4467660",
      "street": "BC ROSA",
      "house": "",
      "postcode": "2025-250",
      "city": "ALCANEDE",
      "lon": "-8.839624928427034",
      "lat": "39.405984282437466"
    },
    {
      "id": "pt.ine.add.PTCONT.4472247",
      "street": "R PORTO DOS AMORES",
      "house": "",
      "postcode": "2025-250",
      "city": "ALCANEDE",
      "lon": "-8.842253114508743",
      "lat": "39.40869740844113"
    },
    {
      "id": "pt.ine.add.PTCONT.4508956",
      "street": "R ESCOLA PRIMARIA",
      "house": "39",
      "postcode": "2025-175",
      "city": "ALCANEDE",
      "lon": "-8.838751123487079",
      "lat": "39.405683348133316"
    },
    {
      "id": "pt.ine.add.PTCONT.4547688",
      "street": "R ESCOLA",
      "house": "25",
      "postcode": "2025-175",
      "city": "ALCANEDE",
      "lon": "-8.83809155838169",
      "lat": "39.40475061982723"
    },
    {
      "id": "pt.ine.add.PTCONT.4576085",
      "street": "R MONTE DO VENTO",
      "house": "11",
      "postcode": "2025-250",
      "city": "ALCANEDE",
      "lon": "-8.839905677793263",
      "lat": "39.407342632233174"
    },
    {
      "id": "pt.ine.add.PTCONT.4578250",
      "street": "R ROSÁRIO DA PIEDADE",
      "house": "2",
      "postcode": "2025-250",
      "city": "ALCANEDE",
      "lon": "-8.838722623802015",
      "lat": "39.402855325604406"
    },
    {
      "id": "pt.ine.add.PTCONT.4642209",
      "street": "R ROSÁRIO DA PIEDADE",
      "house": "",
      "postcode": "2025-250",
      "city": "ALCANEDE",
      "lon": "-8.841436957415207",
      "lat": "39.402622663375254"
    },
    {
      "id": "pt.ine.add.PTCONT.4660471",
      "street": "R MONTE DO VENTO",
      "house": "23",
      "postcode": "2025-250",
      "city": "ALCANEDE",
      "lon": "-8.839674688062226",
      "lat": "39.408614020350555"
    }
  ]
}