{
  "data": {
    "distrito": "Porto",
    "concelho": "Vila do Conde",
    "freguesia": "União das freguesias de Bagunte, Ferreiró, Outeiro Maior e Parada",
    "OBJECTID": 7,
    "BGRI2021": "13163100205",
    "DT21": "13",
    "DTMN21": "1316",
    "DTMNFR21": "131631",
    "DTMNFRSEC21": "131631002",
    "SECNUM21": "002",
    "SSNUM21": "05",
    "SECSSNUM21": "00205",
    "OBJECTID_1": 143143,
    "DT": "13",
    "CC": "16",
    "fr": "31",
    "SEC": "002",
    "SS": "05"
  },
  "addresses": [
    {
      "id": "pt.ine.add.PTCONT.3646532",
      "street": "TV FIAL",
      "house": "165",
      "postcode": "4480-250",
      "city": "FERREIRÓ",
      "lon": "-8.625213507625402",
      "lat": "41.35576338087605"
    },
    {
      "id": "pt.ine.add.PTCONT.3648169",
      "street": "TV CIMO DE CHEIRA",
      "house": "",
      "postcode": "4480-250",
      "city": "FERREIRÓ",
      "lon": "-8.625801621932235",
      "lat": "41.35451830764579"
    },
    {
      "id": "pt.ine.add.PTCONT.3784082",
      "street": "R CIMO DE CHERIA C",
      "house": "364",
      "postcode": "4480-250",
      "city": "FERREIRÓ",
      "lon": "-8.62566528755906",
      "lat": "41.35545531097954"
    },
    {
      "id": "pt.ine.add.PTCONT.3796915",
      "street": "R CIMO DE CHEIRA C",
      "house": "388",
      "postcode": "4480-250",
      "city": "FERREIRÓ",
      "lon": "-8.62541570235363",
      "lat": "41.3556364596214"
    },
    {
      "id": "pt.ine.add.PTCONT.3802428",
      "street": "R CORACAO DE JESUS",
      "house": "623",
      "postcode": "4480-250",
      "city": "FERREIRÓ",
      "lon": "-8.626812562797705",
      "lat": "41.35388369267084"
    },
    {
      "id": "pt.ine.add.PTCONT.3802429",
      "street": "R CORACAO DE JESUS",
      "house": "623",
      "postcode": "4480-250",
      "city": "FERREIRÓ",
      "lon": "-8.626812562797705",
      "lat": "41.35388369267084"
    },
    {
      "id": "pt.ine.add.PTCONT.3809004",
      "street": "TV FIAL",
      "house": "181",
      "postcode": "4480-250",
      "city": "FERREIRÓ",
      "lon": "-8.625130741326606",
      "lat": "41.35588078720932"
    },
    {
      "id": "pt.ine.add.PTCONT.3816394",
      "street": "TV CIMO CHEIRA",
      "house": "38",
      "postcode": "4480-250",
      "city": "FERREIRÓ",
      "lon": "-8.626517161037983",
      "lat": "41.354326157355494"
    },
    {
      "id": "pt.ine.add.PTCONT.3827910",
      "street": "TV CORACAO DE JESUS",
      "house": "1",
      "postcode": "4480-250",
      "city": "FERREIRÓ",
      "lon": "-8.627583477673436",
      "lat": "41.353115039727314"
    },
    {
      "id": "pt.ine.add.PTCONT.3853968",
      "street": "TV CORACAO DE JESUS",
      "house": "99",
      "postcode": "4480-250",
      "city": "FERREIRÓ",
      "lon": "-8.627775891629588",
      "lat": "41.35327628554272"
    },
    {
      "id": "pt.ine.add.PTCONT.3860012",
      "street": "TV CORACAO DE JESUS",
      "house": "56",
      "postcode": "4480-250",
      "city": "FERREIRÓ",
      "lon": "-8.628158880564605",
      "lat": "41.35335567507542"
    },
    {
      "id": "pt.ine.add.PTCONT.3860013",
      "street": "TV CORACAO DE JESUS",
      "house": "56",
      "postcode": "4480-250",
      "city": "FERREIRÓ",
      "lon": "-8.628158880564605",
      "lat": "41.35335567507542"
    },
    {
      "id": "pt.ine.add.PTCONT.3925922",
      "street": "R FIAL",
      "house": "64",
      "postcode": "4480-250",
      "city": "FERREIRÓ",
      "lon": "-8.624965682315556",
      "lat": "41.35617862590804"
    },
    {
      "id": "pt.ine.add.PTCONT.4003248",
      "street": "R SAGRADO CORACAO DE JESUS",
      "house": "637",
      "postcode": "4480-250",
      "city": "FERREIRÓ",
      "lon": "-8.626646088247155",
      "lat": "41.35399245515529"
    },
    {
      "id": "pt.ine.add.PTCONT.4018926",
      "street": "TV CORACAO DE JESUS",
      "house": "14",
      "postcode": "4480-250",
      "city": "FERREIRÓ",
      "lon": "-8.628329581787227",
      "lat": "41.35380514255849"
    },
    {
      "id": "pt.ine.add.PTCONT.4021988",
      "street": "TV CORACAO DE JESUS",
      "house": "14",
      "postcode": "4480-250",
      "city": "FERREIRÓ",
      "lon": "-8.628329581787227",
      "lat": "41.35380514255849"
    },
    {
      "id": "pt.ine.add.PTCONT.4067573",
      "street": "R CORACAO DE JESUS",
      "house": "183",
      "postcode": "4480-250",
      "city": "FERREIRÓ",
      "lon": "-8.628302074921216",
      "lat": "41.35175234000971"
    },
    {
      "id": "pt.ine.add.PTCONT.4147734",
      "street": "R CORACAO DE JESUS",
      "house": "99",
      "postcode": "4480-250",
      "city": "FERREIRÓ",
      "lon": "-8.628458844447001",
      "lat": "41.35194075020969"
    },
    {
      "id": "pt.ine.add.PTCONT.4191578",
      "street": "R CIMO CHEIRA C",
      "house": "276",
      "postcode": "4480-250",
      "city": "FERREIRÓ",
      "lon": "-8.62643705014667",
      "lat": "41.35479471069241"
    },
    {
      "id": "pt.ine.add.PTCONT.4191579",
      "street": "R CIMO CHEIRA C",
      "house": "276",
      "postcode": "4480-250",
      "city": "FERREIRÓ",
      "lon": "-8.62643705014667",
      "lat": "41.35479471069241"
    },
    {
      "id": "pt.ine.add.PTCONT.4201375",
      "street": "R CORACAO DE JESUS",
      "house": "61",
      "postcode": "4480-250",
      "city": "FERREIRÓ",
      "lon": "-8.62848431230632",
      "lat": "41.35214773351396"
    },
    {
      "id": "pt.ine.add.PTCONT.4230773",
      "street": "R CIMO CHEIRA C",
      "house": "248",
      "postcode": "4480-250",
      "city": "FERREIRÓ",
      "lon": "-8.626699531016143",
      "lat": "41.354739561018725"
    },
    {
      "id": "pt.ine.add.PTCONT.4263500",
      "street": "R CORACAO DE JESUS",
      "house": "25",
      "postcode": "4480-250",
      "city": "FERREIRÓ",
      "lon": "-8.62855853228525",
      "lat": "41.35248056349109"
    },
    {
      "id": "pt.ine.add.PTCONT.4270292",
      "street": "R CIMO DE CHEIRA",
      "house": "50",
      "postcode": "4480-250",
      "city": "FERREIRÓ",
      "lon": "-8.628363996593707",
      "lat": "41.35361590967485"
    },
    {
      "id": "pt.ine.add.PTCONT.4349714",
      "street": "R CIMO DE CHEIRA",
      "house": "416",
      "postcode": "4480-250",
      "city": "FERREIRÓ",
      "lon": "-8.625584965646718",
      "lat": "41.35589685244035"
    },
    {
      "id": "pt.ine.add.PTCONT.4355816",
      "street": "TV CORACAO DE JESUS",
      "house": "32",
      "postcode": "4480-250",
      "city": "FERREIRÓ",
      "lon": "-8.628053451701096",
      "lat": "41.35363525371365"
    }
  ]
}