{
  "data": {
    "distrito": "Porto",
    "concelho": "Felgueiras",
    "freguesia": "Friande",
    "OBJECTID": 515,
    "BGRI2021": "13030500125",
    "DT21": "13",
    "DTMN21": "1303",
    "DTMNFR21": "130305",
    "DTMNFRSEC21": "130305001",
    "SECNUM21": "001",
    "SSNUM21": "25",
    "SECSSNUM21": "00125",
    "OBJECTID_1": 127123,
    "DT": "13",
    "CC": "03",
    "fr": "05",
    "SEC": "001",
    "SS": "25"
  },
  "addresses": [
    {
      "id": "pt.ine.add.PTCONT.3543086",
      "street": "R NICOLAU COELHO",
      "house": "858",
      "postcode": "4610-300",
      "city": "FRIANDE FLG",
      "lon": "-8.189731312208382",
      "lat": "41.37336903948643"
    },
    {
      "id": "pt.ine.add.PTCONT.3543087",
      "street": "R NICOLAU COELHO",
      "house": "858",
      "postcode": "4610-300",
      "city": "FRIANDE FLG",
      "lon": "-8.189731312208382",
      "lat": "41.37336903948643"
    },
    {
      "id": "pt.ine.add.PTCONT.3543088",
      "street": "R NICOLAU COELHO",
      "house": "858",
      "postcode": "4610-300",
      "city": "FRIANDE FLG",
      "lon": "-8.189731312208382",
      "lat": "41.37336903948643"
    },
    {
      "id": "pt.ine.add.PTCONT.3543089",
      "street": "R NICOLAU COELHO",
      "house": "858",
      "postcode": "4610-300",
      "city": "FRIANDE FLG",
      "lon": "-8.189731312208382",
      "lat": "41.37336903948643"
    },
    {
      "id": "pt.ine.add.PTCONT.3544813",
      "street": "R NICOLAU COELHO",
      "house": "858",
      "postcode": "4610-300",
      "city": "FRIANDE FLG",
      "lon": "-8.189731312208382",
      "lat": "41.37336903948643"
    },
    {
      "id": "pt.ine.add.PTCONT.3545020",
      "street": "R NICOLAU COELHO",
      "house": "858",
      "postcode": "4610-300",
      "city": "FRIANDE FLG",
      "lon": "-8.189731312208382",
      "lat": "41.37336903948643"
    },
    {
      "id": "pt.ine.add.PTCONT.3546335",
      "street": "R 25 DE ABRIL",
      "house": "20",
      "postcode": "4610-336",
      "city": "FRIANDE FLG",
      "lon": "-8.186989837644234",
      "lat": "41.368328085714325"
    },
    {
      "id": "pt.ine.add.PTCONT.3585048",
      "street": "R CASAL DAMA",
      "house": "",
      "postcode": "4610-308",
      "city": "FRIANDE FLG",
      "lon": "-8.182509173840263",
      "lat": "41.370301984629506"
    },
    {
      "id": "pt.ine.add.PTCONT.3591264",
      "street": "R ENG EDUARDO MENEZES LEITE",
      "house": "",
      "postcode": "4610-308",
      "city": "FRIANDE FLG",
      "lon": "-8.18763971899071",
      "lat": "41.373658179197044"
    },
    {
      "id": "pt.ine.add.PTCONT.3630241",
      "street": "R CASAL DAMA",
      "house": "",
      "postcode": "4610-308",
      "city": "FRIANDE FLG",
      "lon": "-8.182807856187537",
      "lat": "41.37012177493246"
    },
    {
      "id": "pt.ine.add.PTCONT.3687887",
      "street": "R S TOME",
      "house": "1886",
      "postcode": "4610-312",
      "city": "FRIANDE FLG",
      "lon": "-8.184420224233802",
      "lat": "41.368527349389254"
    },
    {
      "id": "pt.ine.add.PTCONT.3693352",
      "street": "R S TOME",
      "house": "1886",
      "postcode": "4610-312",
      "city": "FRIANDE FLG",
      "lon": "-8.184420224233802",
      "lat": "41.368527349389254"
    },
    {
      "id": "pt.ine.add.PTCONT.3727672",
      "street": "R ENG EDUARDO MENEZES LEITE",
      "house": "",
      "postcode": "4610-308",
      "city": "FRIANDE FLG",
      "lon": "-8.189444618587016",
      "lat": "41.373585277379"
    },
    {
      "id": "pt.ine.add.PTCONT.3750461",
      "street": "R S TOMÉ",
      "house": "",
      "postcode": "4610-312",
      "city": "FRIANDE FLG",
      "lon": "-8.184109516765004",
      "lat": "41.36859951996419"
    },
    {
      "id": "pt.ine.add.PTCONT.3755374",
      "street": "R CASAL DAMA",
      "house": "",
      "postcode": "4610-308",
      "city": "FRIANDE FLG",
      "lon": "-8.185222949695856",
      "lat": "41.37092206741272"
    },
    {
      "id": "pt.ine.add.PTCONT.3817709",
      "street": "R S TOMÉ",
      "house": "373",
      "postcode": "4610-312",
      "city": "FRIANDE FLG",
      "lon": "-8.18608151261195",
      "lat": "41.36840053986973"
    },
    {
      "id": "pt.ine.add.PTCONT.3856194",
      "street": "R S TOMÉ",
      "house": "",
      "postcode": "4610-312",
      "city": "FRIANDE FLG",
      "lon": "-8.184754850131107",
      "lat": "41.36847317535774"
    },
    {
      "id": "pt.ine.add.PTCONT.3867920",
      "street": "R NICOLAU COELHO",
      "house": "804",
      "postcode": "4610-300",
      "city": "FRIANDE FLG",
      "lon": "-8.189730960854572",
      "lat": "41.37296385741314"
    },
    {
      "id": "pt.ine.add.PTCONT.3870032",
      "street": "TV TANQUE",
      "house": "30",
      "postcode": "4610-308",
      "city": "FRIANDE FLG",
      "lon": "-8.189157644825324",
      "lat": "41.37347736891527"
    },
    {
      "id": "pt.ine.add.PTCONT.3870105",
      "street": "TV TANQUE",
      "house": "30",
      "postcode": "4610-308",
      "city": "FRIANDE FLG",
      "lon": "-8.189157644825324",
      "lat": "41.37347736891527"
    },
    {
      "id": "pt.ine.add.PTCONT.3895429",
      "street": "R S TOME",
      "house": "349",
      "postcode": "4610-312",
      "city": "FRIANDE FLG",
      "lon": "-8.186404220798538",
      "lat": "41.36839138681413"
    },
    {
      "id": "pt.ine.add.PTCONT.4063870",
      "street": "R ANTONIO JOAQUIM SOUSA",
      "house": "",
      "postcode": "4610-335",
      "city": "FRIANDE FLG",
      "lon": "-8.186929964270185",
      "lat": "41.368193052866566"
    },
    {
      "id": "pt.ine.add.PTCONT.4102958",
      "street": "TV TANQUE",
      "house": "1",
      "postcode": "4610-308",
      "city": "FRIANDE FLG",
      "lon": "-8.18939636266351",
      "lat": "41.37307207016129"
    },
    {
      "id": "pt.ine.add.PTCONT.4128779",
      "street": "R CASAL DAMA",
      "house": "",
      "postcode": "4610-308",
      "city": "FRIANDE FLG",
      "lon": "-8.183203070287432",
      "lat": "41.37113005762505"
    },
    {
      "id": "pt.ine.add.PTCONT.4142512",
      "street": "R S TOMÉ",
      "house": "",
      "postcode": "4610-312",
      "city": "FRIANDE FLG",
      "lon": "-8.184276985299677",
      "lat": "41.36877052270861"
    },
    {
      "id": "pt.ine.add.PTCONT.4155443",
      "street": "R BOAVISTA",
      "house": "",
      "postcode": "4610-304",
      "city": "FRIANDE FLG",
      "lon": "-8.18799660258205",
      "lat": "41.371614090003305"
    },
    {
      "id": "pt.ine.add.PTCONT.4181389",
      "street": "R S TOMÉ",
      "house": "327",
      "postcode": "4610-312",
      "city": "FRIANDE FLG",
      "lon": "-8.18675071541115",
      "lat": "41.3682381568471"
    },
    {
      "id": "pt.ine.add.PTCONT.4194480",
      "street": "R 25 DE ABRIL",
      "house": "64",
      "postcode": "4610-336",
      "city": "FRIANDE FLG",
      "lon": "-8.186990119933284",
      "lat": "41.36867023975937"
    },
    {
      "id": "pt.ine.add.PTCONT.4252120",
      "street": "R 25 ABRIL",
      "house": "N 40",
      "postcode": "4610-336",
      "city": "FRIANDE FLG",
      "lon": "-8.186989971359493",
      "lat": "41.36849015868559"
    },
    {
      "id": "pt.ine.add.PTCONT.4346095",
      "street": "R NICOLAU COELHO",
      "house": "838",
      "postcode": "4610-300",
      "city": "FRIANDE FLG",
      "lon": "-8.189767031584795",
      "lat": "41.37320694901067"
    },
    {
      "id": "pt.ine.add.PTCONT.4346096",
      "street": "R NICOLAU COELHO",
      "house": "838",
      "postcode": "4610-300",
      "city": "FRIANDE FLG",
      "lon": "-8.189767031584795",
      "lat": "41.37320694901067"
    },
    {
      "id": "pt.ine.add.PTCONT.4346097",
      "street": "R NICOLAU COELHO",
      "house": "838",
      "postcode": "4610-300",
      "city": "FRIANDE FLG",
      "lon": "-8.189767031584795",
      "lat": "41.37320694901067"
    },
    {
      "id": "pt.ine.add.PTCONT.4346098",
      "street": "R NICOLAU COELHO",
      "house": "838",
      "postcode": "4610-300",
      "city": "FRIANDE FLG",
      "lon": "-8.189767031584795",
      "lat": "41.37320694901067"
    },
    {
      "id": "pt.ine.add.PTCONT.4346099",
      "street": "R NICOLAU COELHO",
      "house": "838",
      "postcode": "4610-300",
      "city": "FRIANDE FLG",
      "lon": "-8.189767031584795",
      "lat": "41.37320694901067"
    },
    {
      "id": "pt.ine.add.PTCONT.4346100",
      "street": "R NICOLAU COELHO",
      "house": "838",
      "postcode": "4610-300",
      "city": "FRIANDE FLG",
      "lon": "-8.189767031584795",
      "lat": "41.37320694901067"
    },
    {
      "id": "pt.ine.add.PTCONT.4390241",
      "street": "R STO ANDRE",
      "house": "",
      "postcode": "4610-312",
      "city": "FRIANDE FLG",
      "lon": "-8.183870516473869",
      "lat": "41.36866265403483"
    }
  ]
}