{
  "data": {
    "distrito": "Santarém",
    "concelho": "Santarém",
    "freguesia": "União das freguesias de Achete, Azoia de Baixo e Póvoa de Santarém",
    "OBJECTID": 905,
    "BGRI2021": "14162900321",
    "DT21": "14",
    "DTMN21": "1416",
    "DTMNFR21": "141629",
    "DTMNFRSEC21": "141629003",
    "SECNUM21": "003",
    "SSNUM21": "21",
    "SECSSNUM21": "00321",
    "OBJECTID_1": 153765,
    "DT": "14",
    "CC": "16",
    "fr": "29",
    "SEC": "003",
    "SS": "21"
  },
  "addresses": [
    {
      "id": "pt.ine.add.PTCONT.4404608",
      "street": "SIT OLIVAL",
      "house": "",
      "postcode": "2000-344",
      "city": "ACHETE",
      "lon": "-8.667396002848864",
      "lat": "39.352535959184344"
    },
    {
      "id": "pt.ine.add.PTCONT.4426068",
      "street": "SIT OLIVAL",
      "house": "",
      "postcode": "2000-344",
      "city": "ACHETE",
      "lon": "-8.667487302302247",
      "lat": "39.352337383180625"
    },
    {
      "id": "pt.ine.add.PTCONT.4427343",
      "street": "R CERCA",
      "house": "",
      "postcode": "2000-344",
      "city": "ACHETE",
      "lon": "-8.669392356056603",
      "lat": "39.34961747415293"
    },
    {
      "id": "pt.ine.add.PTCONT.4471824",
      "street": "R S SIMÃO",
      "house": "",
      "postcode": "2000-344",
      "city": "ACHETE",
      "lon": "-8.666660909824648",
      "lat": "39.35045868441072"
    },
    {
      "id": "pt.ine.add.PTCONT.4480938",
      "street": "",
      "house": "",
      "postcode": "2000-344",
      "city": "ACHETE",
      "lon": "-8.667340809564896",
      "lat": "39.352905504811794"
    },
    {
      "id": "pt.ine.add.PTCONT.4522675",
      "street": "R CARRASCAL",
      "house": "",
      "postcode": "2000-344",
      "city": "ACHETE",
      "lon": "-8.669584656707205",
      "lat": "39.35352568205864"
    },
    {
      "id": "pt.ine.add.PTCONT.4532394",
      "street": "R CERCA",
      "house": "",
      "postcode": "2000-344",
      "city": "ACHETE",
      "lon": "-8.670130692275729",
      "lat": "39.35210904476475"
    },
    {
      "id": "pt.ine.add.PTCONT.4540411",
      "street": "R CERCA",
      "house": "",
      "postcode": "2000-344",
      "city": "ACHETE",
      "lon": "-8.669475695042454",
      "lat": "39.34989631120785"
    },
    {
      "id": "pt.ine.add.PTCONT.4601297",
      "street": "R S SIMAO",
      "house": "",
      "postcode": "2000-344",
      "city": "ACHETE",
      "lon": "-8.66677890442487",
      "lat": "39.350719350235046"
    },
    {
      "id": "pt.ine.add.PTCONT.4648834",
      "street": "URB NABAIS",
      "house": "",
      "postcode": "2000-344",
      "city": "ACHETE",
      "lon": "-8.66747240805614",
      "lat": "39.3519051093677"
    }
  ]
}