{
  "data": {
    "distrito": "Santarém",
    "concelho": "Santarém",
    "freguesia": "União das freguesias de Achete, Azoia de Baixo e Póvoa de Santarém",
    "OBJECTID": 440,
    "BGRI2021": "14162900331",
    "DT21": "14",
    "DTMN21": "1416",
    "DTMNFR21": "141629",
    "DTMNFRSEC21": "141629003",
    "SECNUM21": "003",
    "SSNUM21": "31",
    "SECSSNUM21": "00331",
    "OBJECTID_1": 154129,
    "DT": "14",
    "CC": "16",
    "fr": "29",
    "SEC": "003",
    "SS": "31"
  },
  "addresses": [
    {
      "id": "pt.ine.add.PTCONT.4395270",
      "street": "R ARTUR",
      "house": "",
      "postcode": "2000-347",
      "city": "ACHETE",
      "lon": "-8.682302625129925",
      "lat": "39.36422085663116"
    },
    {
      "id": "pt.ine.add.PTCONT.4474772",
      "street": "R VALE DO BURRINHO",
      "house": "",
      "postcode": "2000-343",
      "city": "ACHETE",
      "lon": "-8.688210728202787",
      "lat": "39.36153572834068"
    },
    {
      "id": "pt.ine.add.PTCONT.4499030",
      "street": "R OUTEIRO",
      "house": "",
      "postcode": "2000-343",
      "city": "ACHETE",
      "lon": "-8.68905485997188",
      "lat": "39.36409872411695"
    },
    {
      "id": "pt.ine.add.PTCONT.4502081",
      "street": "R OUTEIRO",
      "house": "",
      "postcode": "2000-343",
      "city": "ACHETE",
      "lon": "-8.688535793524403",
      "lat": "39.364488508168435"
    },
    {
      "id": "pt.ine.add.PTCONT.4563917",
      "street": "R VALE DO BURRINHO",
      "house": "",
      "postcode": "2000-343",
      "city": "ACHETE",
      "lon": "-8.689952112857096",
      "lat": "39.36165350850951"
    },
    {
      "id": "pt.ine.add.PTCONT.4590958",
      "street": "R OUTEIRO",
      "house": "",
      "postcode": "2000-343",
      "city": "ACHETE",
      "lon": "-8.68914482701557",
      "lat": "39.36373801009997"
    },
    {
      "id": "pt.ine.add.PTCONT.4649968",
      "street": "BC HORTAS",
      "house": "",
      "postcode": "2000-347",
      "city": "ACHETE",
      "lon": "-8.681975625729299",
      "lat": "39.36395218617323"
    }
  ]
}