{
  "data": {
    "distrito": "Santarém",
    "concelho": "Torres Novas",
    "freguesia": "Chancelaria",
    "OBJECTID": 659,
    "BGRI2021": "14190400233",
    "DT21": "14",
    "DTMN21": "1419",
    "DTMNFR21": "141904",
    "DTMNFRSEC21": "141904002",
    "SECNUM21": "002",
    "SSNUM21": "33",
    "SECSSNUM21": "00233",
    "OBJECTID_1": 157192,
    "DT": "14",
    "CC": "19",
    "fr": "04",
    "SEC": "002",
    "SS": "33"
  },
  "addresses": [
    {
      "id": "pt.ine.add.PTCONT.4394158",
      "street": "R CANCELA",
      "house": "",
      "postcode": "2350-075",
      "city": "CHANCELARIA TNV",
      "lon": "-8.561994683570278",
      "lat": "39.5530266048574"
    },
    {
      "id": "pt.ine.add.PTCONT.4445629",
      "street": "R NSA SRA DE FÁTIMA",
      "house": "11",
      "postcode": "2350-073",
      "city": "CHANCELARIA TNV",
      "lon": "-8.560511477276858",
      "lat": "39.554013814770755"
    },
    {
      "id": "pt.ine.add.PTCONT.4466781",
      "street": "R NSA SRA DE FÁTIMA",
      "house": "9",
      "postcode": "2350-073",
      "city": "CHANCELARIA TNV",
      "lon": "-8.559754720023168",
      "lat": "39.55393553355664"
    },
    {
      "id": "pt.ine.add.PTCONT.4466782",
      "street": "R NSA SRA FATIMA",
      "house": "7",
      "postcode": "2350-073",
      "city": "CHANCELARIA TNV",
      "lon": "-8.558283186057634",
      "lat": "39.55303123449052"
    },
    {
      "id": "pt.ine.add.PTCONT.4476948",
      "street": "R NSA SRA DE FÁTIMA",
      "house": "5",
      "postcode": "2350-073",
      "city": "CHANCELARIA TNV",
      "lon": "-8.557490714888335",
      "lat": "39.55281796642426"
    },
    {
      "id": "pt.ine.add.PTCONT.4519316",
      "street": "R NSA SRA DE FÁTIMA",
      "house": "1",
      "postcode": "2350-075",
      "city": "CHANCELARIA TNV",
      "lon": "-8.561104684948965",
      "lat": "39.55398461129062"
    },
    {
      "id": "pt.ine.add.PTCONT.4588718",
      "street": "R MOINHO",
      "house": "3",
      "postcode": "2350-075",
      "city": "CHANCELARIA TNV",
      "lon": "-8.561190622095506",
      "lat": "39.552822411654496"
    }
  ]
}