{
  "data": {
    "distrito": "Porto",
    "concelho": "Felgueiras",
    "freguesia": "União das freguesias de Vila Verde e Santão",
    "OBJECTID": 590,
    "BGRI2021": "13034100135",
    "DT21": "13",
    "DTMN21": "1303",
    "DTMNFR21": "130341",
    "DTMNFRSEC21": "130341001",
    "SECNUM21": "001",
    "SSNUM21": "35",
    "SECSSNUM21": "00135",
    "OBJECTID_1": 127964,
    "DT": "13",
    "CC": "03",
    "fr": "41",
    "SEC": "001",
    "SS": "35"
  },
  "addresses": [
    {
      "id": "pt.ine.add.PTCONT.3604697",
      "street": "R REBELO DE CARVALHO",
      "house": "192",
      "postcode": "4615-469",
      "city": "SANTÃO",
      "lon": "-8.170106102967651",
      "lat": "41.313886956123476"
    },
    {
      "id": "pt.ine.add.PTCONT.3623851",
      "street": "R REBELO DE CARVALHO",
      "house": "",
      "postcode": "4615-469",
      "city": "SANTÃO",
      "lon": "-8.16964009541179",
      "lat": "41.313436897779475"
    },
    {
      "id": "pt.ine.add.PTCONT.3714623",
      "street": "AV SENHORA DO ALIVIO",
      "house": "",
      "postcode": "4615-463",
      "city": "SANTÃO",
      "lon": "-8.168254353181712",
      "lat": "41.31264496449718"
    },
    {
      "id": "pt.ine.add.PTCONT.3741520",
      "street": "R REBELO DE CARVALHO",
      "house": "",
      "postcode": "4615-469",
      "city": "SANTÃO",
      "lon": "-8.168935287651811",
      "lat": "41.3130589452427"
    },
    {
      "id": "pt.ine.add.PTCONT.3854682",
      "street": "R REBELO DE CARVALHO",
      "house": "46",
      "postcode": "4615-469",
      "city": "SANTÃO",
      "lon": "-8.1687322339684",
      "lat": "41.312995979249926"
    },
    {
      "id": "pt.ine.add.PTCONT.3882441",
      "street": "R REBELO DE CARVALHO",
      "house": "100",
      "postcode": "4615-469",
      "city": "SANTÃO",
      "lon": "-8.169341421119107",
      "lat": "41.31322989686512"
    },
    {
      "id": "pt.ine.add.PTCONT.4122640",
      "street": "R REBELO DE CARVALHO",
      "house": "124",
      "postcode": "4615-469",
      "city": "SANTÃO",
      "lon": "-8.16948477933805",
      "lat": "41.31331989309346"
    },
    {
      "id": "pt.ine.add.PTCONT.4155608",
      "street": "R REBELO DE CARVALHO",
      "house": "",
      "postcode": "4615-469",
      "city": "SANTÃO",
      "lon": "-8.169126414266932",
      "lat": "41.313148927042654"
    },
    {
      "id": "pt.ine.add.PTCONT.4300558",
      "street": "R REBELO CARVALHO",
      "house": "252",
      "postcode": "4615-469",
      "city": "SANTÃO",
      "lon": "-8.170225691078175",
      "lat": "41.31417505020202"
    },
    {
      "id": "pt.ine.add.PTCONT.4343099",
      "street": "R PODER LOCAL",
      "house": "9",
      "postcode": "4615-463",
      "city": "SANTÃO",
      "lon": "-8.168541113217316",
      "lat": "41.31291500093606"
    }
  ]
}