{
  "data": {
    "distrito": "Viseu",
    "concelho": "Penedono",
    "freguesia": "Póvoa de Penela",
    "OBJECTID": 111,
    "BGRI2021": "18120800112",
    "DT21": "18",
    "DTMN21": "1812",
    "DTMNFR21": "181208",
    "DTMNFRSEC21": "181208001",
    "SECNUM21": "001",
    "SSNUM21": "12",
    "SECSSNUM21": "00112",
    "OBJECTID_1": 195051,
    "DT": "18",
    "CC": "12",
    "fr": "08",
    "SEC": "001",
    "SS": "12"
  },
  "addresses": [
    {
      "id": "pt.ine.add.PTCONT.5446493",
      "street": "BR SANTO ALEIXO",
      "house": "",
      "postcode": "3630-350",
      "city": "PÓVOA DE PENELA",
      "lon": "-7.396159526431877",
      "lat": "41.0443325075763"
    },
    {
      "id": "pt.ine.add.PTCONT.5588983",
      "street": "ESTR SANTO ALEIXO",
      "house": "",
      "postcode": "3630-350",
      "city": "PÓVOA DE PENELA",
      "lon": "-7.396591381773363",
      "lat": "41.04186804512393"
    },
    {
      "id": "pt.ine.add.PTCONT.5588984",
      "street": "R SANTO ALEIXO",
      "house": "",
      "postcode": "3630-368",
      "city": "PÓVOA DE PENELA",
      "lon": "-7.395469151256087",
      "lat": "41.04438211756837"
    },
    {
      "id": "pt.ine.add.PTCONT.5647594",
      "street": "ESTR PONTE DA VEIGA",
      "house": "",
      "postcode": "3630-342",
      "city": "PÓVOA DE PENELA",
      "lon": "-7.3973659180695295",
      "lat": "41.04066639383409"
    },
    {
      "id": "pt.ine.add.PTCONT.5664858",
      "street": "BR SANTO ALEIXO",
      "house": "",
      "postcode": "3630-350",
      "city": "PÓVOA DE PENELA",
      "lon": "-7.396178008274026",
      "lat": "41.04267580447007"
    }
  ]
}