{
  "data": {
    "distrito": "Coimbra",
    "concelho": "Figueira da Foz",
    "freguesia": "Lavos",
    "OBJECTID": 1103,
    "BGRI2021": "06052200428",
    "DT21": "06",
    "DTMN21": "0605",
    "DTMNFR21": "060522",
    "DTMNFRSEC21": "060522004",
    "SECNUM21": "004",
    "SSNUM21": "28",
    "SECSSNUM21": "00428",
    "OBJECTID_1": 51606,
    "DT": "06",
    "CC": "05",
    "fr": "22",
    "SEC": "004",
    "SS": "28"
  },
  "addresses": [
    {
      "id": "pt.ine.add.PTCONT.1106828",
      "street": "R CAPELA VELHA",
      "house": "4",
      "postcode": "3090-458",
      "city": "LAVOS",
      "lon": "-8.87470668463828",
      "lat": "40.09219256948666"
    },
    {
      "id": "pt.ine.add.PTCONT.1119192",
      "street": "R DIREITA DO NORTE",
      "house": "14",
      "postcode": "3090-458",
      "city": "LAVOS",
      "lon": "-8.874917543496009",
      "lat": "40.0921732074331"
    },
    {
      "id": "pt.ine.add.PTCONT.1165946",
      "street": "R CACHOPAS",
      "house": "",
      "postcode": "3090-458",
      "city": "LAVOS",
      "lon": "-8.87495399031919",
      "lat": "40.092290051035064"
    },
    {
      "id": "pt.ine.add.PTCONT.1237936",
      "street": "R DR MANUEL LEITE",
      "house": "15",
      "postcode": "3090-458",
      "city": "LAVOS",
      "lon": "-8.874353950292972",
      "lat": "40.092104768059414"
    },
    {
      "id": "pt.ine.add.PTCONT.1289901",
      "street": "R CAPELA VELHA",
      "house": "2",
      "postcode": "3090-458",
      "city": "LAVOS",
      "lon": "-8.874542042592003",
      "lat": "40.092148593855626"
    },
    {
      "id": "pt.ine.add.PTCONT.1360620",
      "street": "R DR MANUEL LEITE",
      "house": "17",
      "postcode": "3090-458",
      "city": "LAVOS",
      "lon": "-8.874461724742506",
      "lat": "40.09231121459388"
    }
  ]
}