{
  "data": {
    "distrito": "Guarda",
    "concelho": "Pinhel",
    "freguesia": "Lamegal",
    "OBJECTID": 663,
    "BGRI2021": "09101200104",
    "DT21": "09",
    "DTMN21": "0910",
    "DTMNFR21": "091012",
    "DTMNFRSEC21": "091012001",
    "SECNUM21": "001",
    "SSNUM21": "04",
    "SECSSNUM21": "00104",
    "OBJECTID_1": 80401,
    "DT": "09",
    "CC": "10",
    "fr": "12",
    "SEC": "001",
    "SS": "04"
  },
  "addresses": [
    {
      "id": "pt.ine.add.PTCONT.1898827",
      "street": "R DA ESCOLA",
      "house": "",
      "postcode": "6400-234",
      "city": "LAMEGAL",
      "lon": "-7.080484629869221",
      "lat": "40.64268689236048"
    },
    {
      "id": "pt.ine.add.PTCONT.1923299",
      "street": "LG DA CAPELA",
      "house": "",
      "postcode": "6400-234",
      "city": "LAMEGAL",
      "lon": "-7.0801098602144625",
      "lat": "40.64321476803294"
    },
    {
      "id": "pt.ine.add.PTCONT.1929166",
      "street": "ESTR PRINCIPAL",
      "house": "",
      "postcode": "6400-234",
      "city": "LAMEGAL",
      "lon": "-7.078309746880764",
      "lat": "40.64266704544322"
    },
    {
      "id": "pt.ine.add.PTCONT.1936251",
      "street": "ESTR PRINCIPAL",
      "house": "",
      "postcode": "6400-234",
      "city": "LAMEGAL",
      "lon": "-7.078556833380977",
      "lat": "40.64274134198422"
    },
    {
      "id": "pt.ine.add.PTCONT.1969337",
      "street": "LG DA CAPELA",
      "house": "",
      "postcode": "6400-234",
      "city": "LAMEGAL",
      "lon": "-7.080754934761858",
      "lat": "40.6427884107487"
    },
    {
      "id": "pt.ine.add.PTCONT.1852544",
      "street": "R DO OUTEIRO",
      "house": "",
      "postcode": "6400-234",
      "city": "LAMEGAL",
      "lon": "-7.07882203492112",
      "lat": "40.64316699686282"
    },
    {
      "id": "pt.ine.add.PTCONT.1858464",
      "street": "R DO OUTEIRO",
      "house": "",
      "postcode": "6400-234",
      "city": "LAMEGAL",
      "lon": "-7.079859514675678",
      "lat": "40.64334755917965"
    },
    {
      "id": "pt.ine.add.PTCONT.1867374",
      "street": "R DA ESCOLA",
      "house": "",
      "postcode": "6400-234",
      "city": "LAMEGAL",
      "lon": "-7.0807961929197685",
      "lat": "40.64241958331204"
    },
    {
      "id": "pt.ine.add.PTCONT.1875416",
      "street": "ESTR PRINCIPAL",
      "house": "",
      "postcode": "6400-234",
      "city": "LAMEGAL",
      "lon": "-7.079583335219598",
      "lat": "40.6428677767456"
    },
    {
      "id": "pt.ine.add.PTCONT.1881268",
      "street": "R DA ESCOLA",
      "house": "",
      "postcode": "6400-234",
      "city": "LAMEGAL",
      "lon": "-7.080787342660349",
      "lat": "40.64223039844306"
    }
  ]
}