{
  "data": {
    "distrito": "Lisboa",
    "concelho": "Sintra",
    "freguesia": "União das freguesias de São João das Lampas e Terrugem",
    "OBJECTID": 3000,
    "BGRI2021": "11112701416",
    "DT21": "11",
    "DTMN21": "1111",
    "DTMNFR21": "111127",
    "DTMNFRSEC21": "111127014",
    "SECNUM21": "014",
    "SSNUM21": "16",
    "SECSSNUM21": "01416",
    "OBJECTID_1": 111305,
    "DT": "11",
    "CC": "11",
    "fr": "27",
    "SEC": "014",
    "SS": "16"
  },
  "addresses": [
    {
      "id": "pt.ine.add.PTCONT.2271102",
      "street": "R FONTE",
      "house": "2",
      "postcode": "2705-832",
      "city": "TERRUGEM SNT",
      "lon": "-9.356240300372686",
      "lat": "38.845031480128824"
    },
    {
      "id": "pt.ine.add.PTCONT.2391293",
      "street": "R SERRADO DA PORTA",
      "house": "3",
      "postcode": "2705-832",
      "city": "TERRUGEM SNT",
      "lon": "-9.359559029144503",
      "lat": "38.84578934115976"
    },
    {
      "id": "pt.ine.add.PTCONT.2457529",
      "street": "LG BRANCA",
      "house": "3",
      "postcode": "2705-832",
      "city": "TERRUGEM SNT",
      "lon": "-9.35989817356323",
      "lat": "38.845416469852005"
    },
    {
      "id": "pt.ine.add.PTCONT.2572064",
      "street": "LG BRANCA",
      "house": "2",
      "postcode": "2705-832",
      "city": "TERRUGEM SNT",
      "lon": "-9.359362171121155",
      "lat": "38.845728355403395"
    },
    {
      "id": "pt.ine.add.PTCONT.2867317",
      "street": "R FONTE QTA DO CERRADO DA VINHA",
      "house": "1",
      "postcode": "2705-832",
      "city": "TERRUGEM SNT",
      "lon": "-9.357415004727079",
      "lat": "38.845694738080624"
    },
    {
      "id": "pt.ine.add.PTCONT.2904079",
      "street": "R EIRA VELHA",
      "house": "10",
      "postcode": "2705-832",
      "city": "TERRUGEM SNT",
      "lon": "-9.360424602253884",
      "lat": "38.84588833898493"
    },
    {
      "id": "pt.ine.add.PTCONT.3059522",
      "street": "R EIRA VELHA",
      "house": "6",
      "postcode": "2705-832",
      "city": "TERRUGEM SNT",
      "lon": "-9.359939218962307",
      "lat": "38.84579435565532"
    },
    {
      "id": "pt.ine.add.PTCONT.3081141",
      "street": "R EIRA VELHA",
      "house": "8",
      "postcode": "2705-832",
      "city": "TERRUGEM SNT",
      "lon": "-9.360216381760093",
      "lat": "38.84583648162451"
    },
    {
      "id": "pt.ine.add.PTCONT.3134000",
      "street": "R EIRAS VELHAS",
      "house": "7",
      "postcode": "2705-848",
      "city": "TERRUGEM SNT",
      "lon": "-9.360108867970872",
      "lat": "38.84561242254482"
    },
    {
      "id": "pt.ine.add.PTCONT.3190519",
      "street": "R SERRADO DA PORTA",
      "house": "12",
      "postcode": "2705-832",
      "city": "TERRUGEM SNT",
      "lon": "-9.360914166769131",
      "lat": "38.84622548004772"
    },
    {
      "id": "pt.ine.add.PTCONT.3201385",
      "street": "R SERRADO DA PORTA",
      "house": "2",
      "postcode": "2705-832",
      "city": "TERRUGEM SNT",
      "lon": "-9.35982947049183",
      "lat": "38.84611077255867"
    },
    {
      "id": "pt.ine.add.PTCONT.3236368",
      "street": "ESTR RIBEIRINHA",
      "house": "3",
      "postcode": "2705-832",
      "city": "TERRUGEM SNT",
      "lon": "-9.362036458446905",
      "lat": "38.84517780857652"
    },
    {
      "id": "pt.ine.add.PTCONT.3291191",
      "street": "R SERRADO DA PORTA",
      "house": "14",
      "postcode": "2705-832",
      "city": "TERRUGEM SNT",
      "lon": "-9.36108876903882",
      "lat": "38.84633173489535"
    },
    {
      "id": "pt.ine.add.PTCONT.3373718",
      "street": "R EIRA VELHA",
      "house": "12 A",
      "postcode": "2705-832",
      "city": "TERRUGEM SNT",
      "lon": "-9.360966793879625",
      "lat": "38.84593668533652"
    }
  ]
}