{
  "data": {
    "distrito": "Portalegre",
    "concelho": "Ponte de Sor",
    "freguesia": "União das freguesias de Ponte de Sor, Tramaga e Vale de Açor",
    "OBJECTID": 289,
    "BGRI2021": "12130800820",
    "DT21": "12",
    "DTMN21": "1213",
    "DTMNFR21": "121308",
    "DTMNFRSEC21": "121308008",
    "SECNUM21": "008",
    "SSNUM21": "20",
    "SECSSNUM21": "00820",
    "OBJECTID_1": 123799,
    "DT": "12",
    "CC": "13",
    "fr": "08",
    "SEC": "008",
    "SS": "20"
  },
  "addresses": [
    {
      "id": "pt.ine.add.PTCONT.3538107",
      "street": "R MONTE DA PINHEIRA",
      "house": "9",
      "postcode": "7400-292",
      "city": "PONTE DE SOR",
      "lon": "-8.017780259142052",
      "lat": "39.25145456509861"
    },
    {
      "id": "pt.ine.add.PTCONT.3539643",
      "street": "R CONDES DA TORRE",
      "house": "22",
      "postcode": "7400-308",
      "city": "PONTE DE SOR",
      "lon": "-8.016772043892555",
      "lat": "39.251651724280464"
    },
    {
      "id": "pt.ine.add.PTCONT.3468281",
      "street": "R MONTE DA PINHEIRA",
      "house": "5",
      "postcode": "7400-292",
      "city": "PONTE DE SOR",
      "lon": "-8.017582783473122",
      "lat": "39.251778634313894"
    },
    {
      "id": "pt.ine.add.PTCONT.3468282",
      "street": "R MONTE DA PINHEIRA",
      "house": "5",
      "postcode": "7400-292",
      "city": "PONTE DE SOR",
      "lon": "-8.017582783473122",
      "lat": "39.251778634313894"
    },
    {
      "id": "pt.ine.add.PTCONT.3468283",
      "street": "R MONTE DA PINHEIRA",
      "house": "5",
      "postcode": "7400-292",
      "city": "PONTE DE SOR",
      "lon": "-8.017582783473122",
      "lat": "39.251778634313894"
    },
    {
      "id": "pt.ine.add.PTCONT.3468284",
      "street": "R MONTE DA PINHEIRA",
      "house": "5",
      "postcode": "7400-292",
      "city": "PONTE DE SOR",
      "lon": "-8.017582783473122",
      "lat": "39.251778634313894"
    },
    {
      "id": "pt.ine.add.PTCONT.3468505",
      "street": "R MONTE DA PINHEIRA",
      "house": "5",
      "postcode": "7400-292",
      "city": "PONTE DE SOR",
      "lon": "-8.017582783473122",
      "lat": "39.251778634313894"
    },
    {
      "id": "pt.ine.add.PTCONT.3468584",
      "street": "R MONTE DA PINHEIRA",
      "house": "5",
      "postcode": "7400-292",
      "city": "PONTE DE SOR",
      "lon": "-8.017582783473122",
      "lat": "39.251778634313894"
    },
    {
      "id": "pt.ine.add.PTCONT.3469162",
      "street": "R MIGUEL TORGA",
      "house": "68",
      "postcode": "7400-273",
      "city": "PONTE DE SOR",
      "lon": "-8.018091918896902",
      "lat": "39.252148439923495"
    },
    {
      "id": "pt.ine.add.PTCONT.3476665",
      "street": "R MIGUEL TORGA",
      "house": "81",
      "postcode": "7400-273",
      "city": "PONTE DE SOR",
      "lon": "-8.017929890540946",
      "lat": "39.25204919885786"
    },
    {
      "id": "pt.ine.add.PTCONT.3476917",
      "street": "R CONDES DA TORRE",
      "house": "22",
      "postcode": "7400-308",
      "city": "PONTE DE SOR",
      "lon": "-8.016772043892555",
      "lat": "39.251651724280464"
    },
    {
      "id": "pt.ine.add.PTCONT.3476918",
      "street": "R CONDES DA TORRE",
      "house": "22",
      "postcode": "7400-308",
      "city": "PONTE DE SOR",
      "lon": "-8.016772043892555",
      "lat": "39.251651724280464"
    },
    {
      "id": "pt.ine.add.PTCONT.3476919",
      "street": "R CONDES DA TORRE",
      "house": "22",
      "postcode": "7400-308",
      "city": "PONTE DE SOR",
      "lon": "-8.016772043892555",
      "lat": "39.251651724280464"
    },
    {
      "id": "pt.ine.add.PTCONT.3476920",
      "street": "R CONDES DA TORRE",
      "house": "22",
      "postcode": "7400-308",
      "city": "PONTE DE SOR",
      "lon": "-8.016772043892555",
      "lat": "39.251651724280464"
    },
    {
      "id": "pt.ine.add.PTCONT.3476921",
      "street": "R CONDES DA TORRE",
      "house": "22",
      "postcode": "7400-308",
      "city": "PONTE DE SOR",
      "lon": "-8.016772043892555",
      "lat": "39.251651724280464"
    },
    {
      "id": "pt.ine.add.PTCONT.3487591",
      "street": "R CONDES DA TORRE",
      "house": "20",
      "postcode": "7400-308",
      "city": "PONTE DE SOR",
      "lon": "-8.016586431274687",
      "lat": "39.25180466382858"
    },
    {
      "id": "pt.ine.add.PTCONT.3487592",
      "street": "R CONDES DA TORRE",
      "house": "20",
      "postcode": "7400-308",
      "city": "PONTE DE SOR",
      "lon": "-8.016586431274687",
      "lat": "39.25180466382858"
    },
    {
      "id": "pt.ine.add.PTCONT.3487593",
      "street": "R CONDES DA TORRE",
      "house": "20",
      "postcode": "7400-308",
      "city": "PONTE DE SOR",
      "lon": "-8.016586431274687",
      "lat": "39.25180466382858"
    },
    {
      "id": "pt.ine.add.PTCONT.3487594",
      "street": "R CONDES DA TORRE",
      "house": "20",
      "postcode": "7400-308",
      "city": "PONTE DE SOR",
      "lon": "-8.016586431274687",
      "lat": "39.25180466382858"
    },
    {
      "id": "pt.ine.add.PTCONT.3487595",
      "street": "R CONDES DA TORRE",
      "house": "20",
      "postcode": "7400-308",
      "city": "PONTE DE SOR",
      "lon": "-8.016586431274687",
      "lat": "39.25180466382858"
    },
    {
      "id": "pt.ine.add.PTCONT.3487596",
      "street": "R CONDES DA TORRE",
      "house": "20",
      "postcode": "7400-308",
      "city": "PONTE DE SOR",
      "lon": "-8.016586431274687",
      "lat": "39.25180466382858"
    },
    {
      "id": "pt.ine.add.PTCONT.3487597",
      "street": "R CONDES DA TORRE",
      "house": "20",
      "postcode": "7400-308",
      "city": "PONTE DE SOR",
      "lon": "-8.016586431274687",
      "lat": "39.25180466382858"
    },
    {
      "id": "pt.ine.add.PTCONT.3487598",
      "street": "R CONDES DA TORRE",
      "house": "20",
      "postcode": "7400-308",
      "city": "PONTE DE SOR",
      "lon": "-8.016586431274687",
      "lat": "39.25180466382858"
    },
    {
      "id": "pt.ine.add.PTCONT.3487599",
      "street": "R CONDES DA TORRE",
      "house": "20",
      "postcode": "7400-308",
      "city": "PONTE DE SOR",
      "lon": "-8.016586431274687",
      "lat": "39.25180466382858"
    },
    {
      "id": "pt.ine.add.PTCONT.3489185",
      "street": "R DR JOÃO FELICISSIMO",
      "house": "1",
      "postcode": "7400-299",
      "city": "PONTE DE SOR",
      "lon": "-8.018230762915913",
      "lat": "39.25225666525464"
    },
    {
      "id": "pt.ine.add.PTCONT.3490337",
      "street": "R MONTE DA PINHEIRA",
      "house": "9",
      "postcode": "7400-292",
      "city": "PONTE DE SOR",
      "lon": "-8.017780259142052",
      "lat": "39.25145456509861"
    },
    {
      "id": "pt.ine.add.PTCONT.3490338",
      "street": "R MONTE DA PINHEIRA",
      "house": "9",
      "postcode": "7400-292",
      "city": "PONTE DE SOR",
      "lon": "-8.017780259142052",
      "lat": "39.25145456509861"
    },
    {
      "id": "pt.ine.add.PTCONT.3490339",
      "street": "R MONTE DA PINHEIRA",
      "house": "9",
      "postcode": "7400-292",
      "city": "PONTE DE SOR",
      "lon": "-8.017780259142052",
      "lat": "39.25145456509861"
    },
    {
      "id": "pt.ine.add.PTCONT.3490340",
      "street": "R MONTE DA PINHEIRA",
      "house": "9",
      "postcode": "7400-292",
      "city": "PONTE DE SOR",
      "lon": "-8.017780259142052",
      "lat": "39.25145456509861"
    },
    {
      "id": "pt.ine.add.PTCONT.3490341",
      "street": "R MONTE DA PINHEIRA",
      "house": "9",
      "postcode": "7400-292",
      "city": "PONTE DE SOR",
      "lon": "-8.017780259142052",
      "lat": "39.25145456509861"
    },
    {
      "id": "pt.ine.add.PTCONT.3490342",
      "street": "R MONTE DA PINHEIRA",
      "house": "9",
      "postcode": "7400-292",
      "city": "PONTE DE SOR",
      "lon": "-8.017780259142052",
      "lat": "39.25145456509861"
    },
    {
      "id": "pt.ine.add.PTCONT.3490343",
      "street": "R MONTE DA PINHEIRA",
      "house": "9",
      "postcode": "7400-292",
      "city": "PONTE DE SOR",
      "lon": "-8.017780259142052",
      "lat": "39.25145456509861"
    },
    {
      "id": "pt.ine.add.PTCONT.3490799",
      "street": "R MONTE DA PINHEIRA",
      "house": "9",
      "postcode": "7400-292",
      "city": "PONTE DE SOR",
      "lon": "-8.017780259142052",
      "lat": "39.25145456509861"
    },
    {
      "id": "pt.ine.add.PTCONT.3493746",
      "street": "R MONTE DA PINHEIRA",
      "house": "",
      "postcode": "7400-292",
      "city": "PONTE DE SOR",
      "lon": "-8.017826362836846",
      "lat": "39.25159872849017"
    },
    {
      "id": "pt.ine.add.PTCONT.3493747",
      "street": "R MONTE DA PINHEIRA",
      "house": "",
      "postcode": "7400-292",
      "city": "PONTE DE SOR",
      "lon": "-8.017826362836846",
      "lat": "39.25159872849017"
    },
    {
      "id": "pt.ine.add.PTCONT.3493748",
      "street": "R MONTE DA PINHEIRA",
      "house": "",
      "postcode": "7400-292",
      "city": "PONTE DE SOR",
      "lon": "-8.017826362836846",
      "lat": "39.25159872849017"
    },
    {
      "id": "pt.ine.add.PTCONT.3493749",
      "street": "R MONTE DA PINHEIRA",
      "house": "",
      "postcode": "7400-292",
      "city": "PONTE DE SOR",
      "lon": "-8.017826362836846",
      "lat": "39.25159872849017"
    },
    {
      "id": "pt.ine.add.PTCONT.3493750",
      "street": "R MONTE DA PINHEIRA",
      "house": "",
      "postcode": "7400-292",
      "city": "PONTE DE SOR",
      "lon": "-8.017826362836846",
      "lat": "39.25159872849017"
    },
    {
      "id": "pt.ine.add.PTCONT.3493751",
      "street": "R MONTE DA PINHEIRA",
      "house": "",
      "postcode": "7400-292",
      "city": "PONTE DE SOR",
      "lon": "-8.017826362836846",
      "lat": "39.25159872849017"
    },
    {
      "id": "pt.ine.add.PTCONT.3494381",
      "street": "R DR JOÃO FELICISSIMO",
      "house": "5",
      "postcode": "7400-299",
      "city": "PONTE DE SOR",
      "lon": "-8.01847438628171",
      "lat": "39.252049736058474"
    },
    {
      "id": "pt.ine.add.PTCONT.3494972",
      "street": "R DO MONTE DA PINHEIRA",
      "house": "3",
      "postcode": "7400-292",
      "city": "PONTE DE SOR",
      "lon": "-8.017350847103437",
      "lat": "39.25192252176041"
    },
    {
      "id": "pt.ine.add.PTCONT.3494973",
      "street": "R DO MONTE DA PINHEIRA",
      "house": "3",
      "postcode": "7400-292",
      "city": "PONTE DE SOR",
      "lon": "-8.017350847103437",
      "lat": "39.25192252176041"
    },
    {
      "id": "pt.ine.add.PTCONT.3494974",
      "street": "R DO MONTE DA PINHEIRA",
      "house": "3",
      "postcode": "7400-292",
      "city": "PONTE DE SOR",
      "lon": "-8.017350847103437",
      "lat": "39.25192252176041"
    },
    {
      "id": "pt.ine.add.PTCONT.3494975",
      "street": "R DO MONTE DA PINHEIRA",
      "house": "3",
      "postcode": "7400-292",
      "city": "PONTE DE SOR",
      "lon": "-8.017350847103437",
      "lat": "39.25192252176041"
    },
    {
      "id": "pt.ine.add.PTCONT.3495206",
      "street": "R DO MONTE DA PINHEIRA",
      "house": "3",
      "postcode": "7400-292",
      "city": "PONTE DE SOR",
      "lon": "-8.017350847103437",
      "lat": "39.25192252176041"
    },
    {
      "id": "pt.ine.add.PTCONT.3495218",
      "street": "R DO MONTE DA PINHEIRA",
      "house": "3",
      "postcode": "7400-292",
      "city": "PONTE DE SOR",
      "lon": "-8.017350847103437",
      "lat": "39.25192252176041"
    },
    {
      "id": "pt.ine.add.PTCONT.3496734",
      "street": "R DR JOÃO FELICISSIMO",
      "house": "3",
      "postcode": "7400-299",
      "city": "PONTE DE SOR",
      "lon": "-8.018601631012038",
      "lat": "39.2521669568905"
    },
    {
      "id": "pt.ine.add.PTCONT.3503953",
      "street": "R MIGUEL TORGA",
      "house": "",
      "postcode": "7400-407",
      "city": "PONTE DE SOR",
      "lon": "-8.018566846598056",
      "lat": "39.25218493740279"
    },
    {
      "id": "pt.ine.add.PTCONT.3531156",
      "street": "R MONTE PINHEIRA",
      "house": "5",
      "postcode": "7400-292",
      "city": "PONTE DE SOR",
      "lon": "-8.017049310588282",
      "lat": "39.2521203835551"
    },
    {
      "id": "pt.ine.add.PTCONT.3531157",
      "street": "R MONTE PINHEIRA",
      "house": "1",
      "postcode": "7400-292",
      "city": "PONTE DE SOR",
      "lon": "-8.017049310588282",
      "lat": "39.2521203835551"
    },
    {
      "id": "pt.ine.add.PTCONT.3531158",
      "street": "R MONTE PINHEIRA",
      "house": "1",
      "postcode": "7400-292",
      "city": "PONTE DE SOR",
      "lon": "-8.017049310588282",
      "lat": "39.2521203835551"
    },
    {
      "id": "pt.ine.add.PTCONT.3531159",
      "street": "R MONTE PINHEIRA",
      "house": "5",
      "postcode": "7400-292",
      "city": "PONTE DE SOR",
      "lon": "-8.017049310588282",
      "lat": "39.2521203835551"
    },
    {
      "id": "pt.ine.add.PTCONT.3531160",
      "street": "R MONTE PINHEIRA",
      "house": "1",
      "postcode": "7400-292",
      "city": "PONTE DE SOR",
      "lon": "-8.017049310588282",
      "lat": "39.2521203835551"
    },
    {
      "id": "pt.ine.add.PTCONT.3531161",
      "street": "R MANUEL MARQUES ADEGAS",
      "house": "29",
      "postcode": "7400-293",
      "city": "PONTE DE SOR",
      "lon": "-8.016817803462395",
      "lat": "39.25200305696945"
    },
    {
      "id": "pt.ine.add.PTCONT.3531162",
      "street": "R MANUEL MARQUES ADEGAS",
      "house": "",
      "postcode": "7400-293",
      "city": "PONTE DE SOR",
      "lon": "-8.016817803462395",
      "lat": "39.25200305696945"
    },
    {
      "id": "pt.ine.add.PTCONT.3531169",
      "street": "R MANUEL MARQUES ADEGAS",
      "house": "29",
      "postcode": "7400-293",
      "city": "PONTE DE SOR",
      "lon": "-8.016817803462395",
      "lat": "39.25200305696945"
    },
    {
      "id": "pt.ine.add.PTCONT.3531170",
      "street": "R MANUEL MARQUES ADEGAS",
      "house": "29",
      "postcode": "7400-293",
      "city": "PONTE DE SOR",
      "lon": "-8.016817803462395",
      "lat": "39.25200305696945"
    },
    {
      "id": "pt.ine.add.PTCONT.3531171",
      "street": "R MANUEL MARQUES ADEGAS",
      "house": "29",
      "postcode": "7400-293",
      "city": "PONTE DE SOR",
      "lon": "-8.016817803462395",
      "lat": "39.25200305696945"
    },
    {
      "id": "pt.ine.add.PTCONT.3531172",
      "street": "R MANUEL MARQUES ADEGAS",
      "house": "29",
      "postcode": "7400-293",
      "city": "PONTE DE SOR",
      "lon": "-8.016817803462395",
      "lat": "39.25200305696945"
    },
    {
      "id": "pt.ine.add.PTCONT.3531426",
      "street": "R MONTE PINHEIRA",
      "house": "5",
      "postcode": "7400-292",
      "city": "PONTE DE SOR",
      "lon": "-8.017049310588282",
      "lat": "39.2521203835551"
    },
    {
      "id": "pt.ine.add.PTCONT.3531488",
      "street": "R MONTE PINHEIRA",
      "house": "1",
      "postcode": "7400-292",
      "city": "PONTE DE SOR",
      "lon": "-8.017049310588282",
      "lat": "39.2521203835551"
    },
    {
      "id": "pt.ine.add.PTCONT.3531514",
      "street": "R MONTE PINHEIRA",
      "house": "1",
      "postcode": "7400-292",
      "city": "PONTE DE SOR",
      "lon": "-8.017049310588282",
      "lat": "39.2521203835551"
    },
    {
      "id": "pt.ine.add.PTCONT.3531520",
      "street": "R MONTE PINHEIRA",
      "house": "1",
      "postcode": "7400-292",
      "city": "PONTE DE SOR",
      "lon": "-8.017049310588282",
      "lat": "39.2521203835551"
    }
  ]
}