{
  "data": {
    "distrito": "Porto",
    "concelho": "Paredes",
    "freguesia": "Aguiar de Sousa",
    "OBJECTID": 1295,
    "BGRI2021": "13100100104",
    "DT21": "13",
    "DTMN21": "1310",
    "DTMNFR21": "131001",
    "DTMNFRSEC21": "131001001",
    "SECNUM21": "001",
    "SSNUM21": "04",
    "SECSSNUM21": "00104",
    "OBJECTID_1": 135456,
    "DT": "13",
    "CC": "10",
    "fr": "01",
    "SEC": "001",
    "SS": "04"
  },
  "addresses": [
    {
      "id": "pt.ine.add.PTCONT.3548316",
      "street": "R OUTEIRO DA FONTE",
      "house": "",
      "postcode": "4585-002",
      "city": "AGUIAR DE SOUSA",
      "lon": "-8.433322711512684",
      "lat": "41.09841578237795"
    },
    {
      "id": "pt.ine.add.PTCONT.3685591",
      "street": "R PADRE MANUEL ALVES CORREIA",
      "house": "841",
      "postcode": "4585-002",
      "city": "AGUIAR DE SOUSA",
      "lon": "-8.429767132404416",
      "lat": "41.09655206279874"
    },
    {
      "id": "pt.ine.add.PTCONT.3764518",
      "street": "R S ISABEL",
      "house": "7",
      "postcode": "4585-002",
      "city": "AGUIAR DE SOUSA",
      "lon": "-8.431763270675763",
      "lat": "41.09839282165299"
    },
    {
      "id": "pt.ine.add.PTCONT.3826213",
      "street": "R S ISABEL",
      "house": "37",
      "postcode": "4585-002",
      "city": "AGUIAR DE SOUSA",
      "lon": "-8.431693441828006",
      "lat": "41.098744176744404"
    },
    {
      "id": "pt.ine.add.PTCONT.3864849",
      "street": "R ALGAVADA",
      "house": "",
      "postcode": "4585-007",
      "city": "AGUIAR DE SOUSA",
      "lon": "-8.429624662499293",
      "lat": "41.09663346973542"
    },
    {
      "id": "pt.ine.add.PTCONT.3878134",
      "street": "R PADRE MANUEL ALVES CORREIA",
      "house": "",
      "postcode": "4585-002",
      "city": "AGUIAR DE SOUSA",
      "lon": "-8.432315393985279",
      "lat": "41.09939988916575"
    },
    {
      "id": "pt.ine.add.PTCONT.3905768",
      "street": "R S ISABEL",
      "house": "",
      "postcode": "4585-002",
      "city": "AGUIAR DE SOUSA",
      "lon": "-8.43149214599716",
      "lat": "41.09897881427682"
    },
    {
      "id": "pt.ine.add.PTCONT.3945006",
      "street": "R PADRE MANUEL ALVES CORREIA",
      "house": "172",
      "postcode": "4585-002",
      "city": "AGUIAR DE SOUSA",
      "lon": "-8.432090005728647",
      "lat": "41.099571559037685"
    },
    {
      "id": "pt.ine.add.PTCONT.4196390",
      "street": "R OUTEIRO DA FONTE",
      "house": "46",
      "postcode": "4585-002",
      "city": "AGUIAR DE SOUSA",
      "lon": "-8.42995725387739",
      "lat": "41.0964795373966"
    },
    {
      "id": "pt.ine.add.PTCONT.4196391",
      "street": "R OUTEIRO DA FONTE",
      "house": "46",
      "postcode": "4585-002",
      "city": "AGUIAR DE SOUSA",
      "lon": "-8.42995725387739",
      "lat": "41.0964795373966"
    },
    {
      "id": "pt.ine.add.PTCONT.4378560",
      "street": "R ALGAVADA",
      "house": "73",
      "postcode": "4585-007",
      "city": "AGUIAR DE SOUSA",
      "lon": "-8.429863165773584",
      "lat": "41.096731904857066"
    }
  ]
}