{
  "data": {
    "distrito": "Porto",
    "concelho": "Paredes",
    "freguesia": "Aguiar de Sousa",
    "OBJECTID": 410,
    "BGRI2021": "13100100105",
    "DT21": "13",
    "DTMN21": "1310",
    "DTMNFR21": "131001",
    "DTMNFRSEC21": "131001001",
    "SECNUM21": "001",
    "SSNUM21": "05",
    "SECSSNUM21": "00105",
    "OBJECTID_1": 135087,
    "DT": "13",
    "CC": "10",
    "fr": "01",
    "SEC": "001",
    "SS": "05"
  },
  "addresses": [
    {
      "id": "pt.ine.add.PTCONT.3599873",
      "street": "R ESCOLA",
      "house": "72",
      "postcode": "4585-002",
      "city": "AGUIAR DE SOUSA",
      "lon": "-8.434821488621715",
      "lat": "41.10078904557011"
    },
    {
      "id": "pt.ine.add.PTCONT.3606337",
      "street": "R CAMPO DENTEIRO",
      "house": "",
      "postcode": "4585-002",
      "city": "AGUIAR DE SOUSA",
      "lon": "-8.436725362654773",
      "lat": "41.100630968524726"
    },
    {
      "id": "pt.ine.add.PTCONT.3670830",
      "street": "R ESCOLA",
      "house": "18",
      "postcode": "4585-002",
      "city": "AGUIAR DE SOUSA",
      "lon": "-8.434395344950195",
      "lat": "41.10131241937829"
    },
    {
      "id": "pt.ine.add.PTCONT.3685862",
      "street": "R ESCOLA",
      "house": "42",
      "postcode": "4585-002",
      "city": "AGUIAR DE SOUSA",
      "lon": "-8.434762629711225",
      "lat": "41.100933271051595"
    },
    {
      "id": "pt.ine.add.PTCONT.3761498",
      "street": "TV ESCOLA",
      "house": "200",
      "postcode": "4585-002",
      "city": "AGUIAR DE SOUSA",
      "lon": "-8.435815604678023",
      "lat": "41.099525813476134"
    },
    {
      "id": "pt.ine.add.PTCONT.3884191",
      "street": "R OUTEIRO FONTE",
      "house": "32",
      "postcode": "4585-002",
      "city": "AGUIAR DE SOUSA",
      "lon": "-8.432139252919146",
      "lat": "41.09993160973934"
    },
    {
      "id": "pt.ine.add.PTCONT.4130717",
      "street": "R FUNDO AIRO",
      "house": "16",
      "postcode": "4585-002",
      "city": "AGUIAR DE SOUSA",
      "lon": "-8.434945997529447",
      "lat": "41.09938402343478"
    },
    {
      "id": "pt.ine.add.PTCONT.4133851",
      "street": "R FUNDO AIRO",
      "house": "16",
      "postcode": "4585-002",
      "city": "AGUIAR DE SOUSA",
      "lon": "-8.434945997529447",
      "lat": "41.09938402343478"
    },
    {
      "id": "pt.ine.add.PTCONT.4144187",
      "street": "R ESCOLA",
      "house": "200",
      "postcode": "4585-002",
      "city": "AGUIAR DE SOUSA",
      "lon": "-8.43563763225053",
      "lat": "41.09965234338416"
    },
    {
      "id": "pt.ine.add.PTCONT.4144186",
      "street": "R ESCOLA",
      "house": "200",
      "postcode": "4585-002",
      "city": "AGUIAR DE SOUSA",
      "lon": "-8.43563763225053",
      "lat": "41.09965234338416"
    },
    {
      "id": "pt.ine.add.PTCONT.4144188",
      "street": "R ESCOLA",
      "house": "200",
      "postcode": "4585-002",
      "city": "AGUIAR DE SOUSA",
      "lon": "-8.43563763225053",
      "lat": "41.09965234338416"
    },
    {
      "id": "pt.ine.add.PTCONT.4144189",
      "street": "R PADRE MANUEL ALVES CORREIA",
      "house": "",
      "postcode": "4585-002",
      "city": "AGUIAR DE SOUSA",
      "lon": "-8.4327321347553",
      "lat": "41.09942581959502"
    },
    {
      "id": "pt.ine.add.PTCONT.4189753",
      "street": "R PADRE MANUEL ALVES CORREIA",
      "house": "",
      "postcode": "4585-002",
      "city": "AGUIAR DE SOUSA",
      "lon": "-8.432340671929989",
      "lat": "41.099723984182624"
    },
    {
      "id": "pt.ine.add.PTCONT.4318738",
      "street": "R ESCOLA",
      "house": "45",
      "postcode": "4585-002",
      "city": "AGUIAR DE SOUSA",
      "lon": "-8.433761819982493",
      "lat": "41.10073778878152"
    }
  ]
}