{
  "data": {
    "distrito": "Porto",
    "concelho": "Paredes",
    "freguesia": "Aguiar de Sousa",
    "OBJECTID": 471,
    "BGRI2021": "13100100113",
    "DT21": "13",
    "DTMN21": "1310",
    "DTMNFR21": "131001",
    "DTMNFRSEC21": "131001001",
    "SECNUM21": "001",
    "SSNUM21": "13",
    "SECSSNUM21": "00113",
    "OBJECTID_1": 135609,
    "DT": "13",
    "CC": "10",
    "fr": "01",
    "SEC": "001",
    "SS": "13"
  },
  "addresses": [
    {
      "id": "pt.ine.add.PTCONT.3625645",
      "street": "AV S ISABEL",
      "house": "2015",
      "postcode": "4585-007",
      "city": "AGUIAR DE SOUSA",
      "lon": "-8.435976645941647",
      "lat": "41.103487352403484"
    },
    {
      "id": "pt.ine.add.PTCONT.3628857",
      "street": "AV S ISABEL",
      "house": "2015",
      "postcode": "4585-007",
      "city": "AGUIAR DE SOUSA",
      "lon": "-8.435976645941647",
      "lat": "41.103487352403484"
    },
    {
      "id": "pt.ine.add.PTCONT.3651081",
      "street": "AV S ISABEL",
      "house": "",
      "postcode": "4585-007",
      "city": "AGUIAR DE SOUSA",
      "lon": "-8.43605143833421",
      "lat": "41.099038952655214"
    },
    {
      "id": "pt.ine.add.PTCONT.3761492",
      "street": "R FUNDO AIRO",
      "house": "17",
      "postcode": "4585-002",
      "city": "AGUIAR DE SOUSA",
      "lon": "-8.43525399953327",
      "lat": "41.09905905549174"
    },
    {
      "id": "pt.ine.add.PTCONT.3761493",
      "street": "R FUNDO AIRO",
      "house": "17",
      "postcode": "4585-002",
      "city": "AGUIAR DE SOUSA",
      "lon": "-8.43525399953327",
      "lat": "41.09905905549174"
    },
    {
      "id": "pt.ine.add.PTCONT.3845022",
      "street": "R FUNDO AIRO",
      "house": "832",
      "postcode": "4585-002",
      "city": "AGUIAR DE SOUSA",
      "lon": "-8.435619655651525",
      "lat": "41.09832873446939"
    },
    {
      "id": "pt.ine.add.PTCONT.3858139",
      "street": "AV S ISABEL",
      "house": "",
      "postcode": "4585-007",
      "city": "AGUIAR DE SOUSA",
      "lon": "-8.436362340875998",
      "lat": "41.104521850272256"
    },
    {
      "id": "pt.ine.add.PTCONT.3884181",
      "street": "AV S ISABEL",
      "house": "2003",
      "postcode": "4585-007",
      "city": "AGUIAR DE SOUSA",
      "lon": "-8.435808334617903",
      "lat": "41.10312761645023"
    },
    {
      "id": "pt.ine.add.PTCONT.3884182",
      "street": "AV S ISABEL",
      "house": "2003",
      "postcode": "4585-007",
      "city": "AGUIAR DE SOUSA",
      "lon": "-8.435808334617903",
      "lat": "41.10312761645023"
    },
    {
      "id": "pt.ine.add.PTCONT.3915434",
      "street": "AV S ISABEL",
      "house": "1851",
      "postcode": "4585-007",
      "city": "AGUIAR DE SOUSA",
      "lon": "-8.434492509348678",
      "lat": "41.101735374859146"
    },
    {
      "id": "pt.ine.add.PTCONT.3953702",
      "street": "AV S ISABEL",
      "house": "",
      "postcode": "4585-007",
      "city": "AGUIAR DE SOUSA",
      "lon": "-8.434205831361647",
      "lat": "41.10152001735691"
    },
    {
      "id": "pt.ine.add.PTCONT.4098545",
      "street": "TV PARQUE DE JOGOS",
      "house": "34",
      "postcode": "4585-002",
      "city": "AGUIAR DE SOUSA",
      "lon": "-8.435643989585369",
      "lat": "41.106225580435726"
    },
    {
      "id": "pt.ine.add.PTCONT.4104728",
      "street": "R PARQUE DE JOGOS",
      "house": "80",
      "postcode": "4585-002",
      "city": "AGUIAR DE SOUSA",
      "lon": "-8.43649743229976",
      "lat": "41.105421940020435"
    },
    {
      "id": "pt.ine.add.PTCONT.4124375",
      "street": "R PARQUE JOGOS",
      "house": "89",
      "postcode": "4585-002",
      "city": "AGUIAR DE SOUSA",
      "lon": "-8.435902581790344",
      "lat": "41.10550454492622"
    },
    {
      "id": "pt.ine.add.PTCONT.4185837",
      "street": "AV S ISABEL",
      "house": "1945",
      "postcode": "4585-007",
      "city": "AGUIAR DE SOUSA",
      "lon": "-8.43547291517758",
      "lat": "41.10266926985356"
    },
    {
      "id": "pt.ine.add.PTCONT.4255243",
      "street": "AV S ISABEL",
      "house": "507",
      "postcode": "4585-007",
      "city": "AGUIAR DE SOUSA",
      "lon": "-8.435018502885221",
      "lat": "41.10222023856018"
    },
    {
      "id": "pt.ine.add.PTCONT.4325336",
      "street": "R S ISABEL",
      "house": "2175",
      "postcode": "4585-002",
      "city": "AGUIAR DE SOUSA",
      "lon": "-8.435594098549174",
      "lat": "41.105730466545076"
    },
    {
      "id": "pt.ine.add.PTCONT.4331411",
      "street": "R ALTO GRANJA",
      "house": "2065",
      "postcode": "4585-007",
      "city": "AGUIAR DE SOUSA",
      "lon": "-8.43633588144936",
      "lat": "41.10394563478586"
    },
    {
      "id": "pt.ine.add.PTCONT.4383195",
      "street": "AV S ISABEL",
      "house": "1917",
      "postcode": "4585-007",
      "city": "AGUIAR DE SOUSA",
      "lon": "-8.434827010577227",
      "lat": "41.10199562870934"
    }
  ]
}