{
  "data": {
    "distrito": "Porto",
    "concelho": "Paredes",
    "freguesia": "Aguiar de Sousa",
    "OBJECTID": 83,
    "BGRI2021": "13100100147",
    "DT21": "13",
    "DTMN21": "1310",
    "DTMNFR21": "131001",
    "DTMNFRSEC21": "131001001",
    "SECNUM21": "001",
    "SSNUM21": "47",
    "SECSSNUM21": "00147",
    "OBJECTID_1": 135280,
    "DT": "13",
    "CC": "10",
    "fr": "01",
    "SEC": "001",
    "SS": "47"
  },
  "addresses": [
    {
      "id": "pt.ine.add.PTCONT.3567815",
      "street": "R VALES",
      "house": "",
      "postcode": "4585-008",
      "city": "AGUIAR DE SOUSA",
      "lon": "-8.415550570929826",
      "lat": "41.13164208125677"
    },
    {
      "id": "pt.ine.add.PTCONT.3586792",
      "street": "R CONCORDIA",
      "house": "164",
      "postcode": "4585-008",
      "city": "AGUIAR DE SOUSA",
      "lon": "-8.416668912777022",
      "lat": "41.13137820597224"
    },
    {
      "id": "pt.ine.add.PTCONT.3657300",
      "street": "R VALES",
      "house": "179",
      "postcode": "4585-008",
      "city": "AGUIAR DE SOUSA",
      "lon": "-8.415287024939605",
      "lat": "41.13128255049728"
    },
    {
      "id": "pt.ine.add.PTCONT.3685740",
      "street": "R IGREJA DE S MARTA",
      "house": "135",
      "postcode": "4585-008",
      "city": "AGUIAR DE SOUSA",
      "lon": "-8.416622012616713",
      "lat": "41.131549405281426"
    },
    {
      "id": "pt.ine.add.PTCONT.3908669",
      "street": "R VALES",
      "house": "82",
      "postcode": "4585-008",
      "city": "AGUIAR DE SOUSA",
      "lon": "-8.415725383716241",
      "lat": "41.13075021543353"
    },
    {
      "id": "pt.ine.add.PTCONT.4212022",
      "street": "R CONCORDIA",
      "house": "172",
      "postcode": "4585-008",
      "city": "AGUIAR DE SOUSA",
      "lon": "-8.416479450941537",
      "lat": "41.13163079576705"
    },
    {
      "id": "pt.ine.add.PTCONT.4246806",
      "street": "R CONCORDIA",
      "house": "162",
      "postcode": "4585-008",
      "city": "AGUIAR DE SOUSA",
      "lon": "-8.416656615929142",
      "lat": "41.13128819209036"
    },
    {
      "id": "pt.ine.add.PTCONT.4371621",
      "street": "R DOS VALES",
      "house": "155",
      "postcode": "4585-008",
      "city": "AGUIAR DE SOUSA",
      "lon": "-8.415368652364558",
      "lat": "41.130877151836806"
    }
  ]
}