{
  "data": {
    "distrito": "Guarda",
    "concelho": "Gouveia",
    "freguesia": "Folgosinho",
    "OBJECTID": 596,
    "BGRI2021": "09060500156",
    "DT21": "09",
    "DTMN21": "0906",
    "DTMNFR21": "090605",
    "DTMNFRSEC21": "090605001",
    "SECNUM21": "001",
    "SSNUM21": "56",
    "SECSSNUM21": "00156",
    "OBJECTID_1": 77377,
    "DT": "09",
    "CC": "06",
    "fr": "05",
    "SEC": "001",
    "SS": "56"
  },
  "addresses": [
    {
      "id": "pt.ine.add.PTCONT.1913278",
      "street": "QTA REMANSO",
      "house": "",
      "postcode": "6290-081",
      "city": "FOLGOSINHO",
      "lon": "-7.505962272537131",
      "lat": "40.51638577160721"
    },
    {
      "id": "pt.ine.add.PTCONT.1925774",
      "street": "QTA PORTO DOS CARROS",
      "house": "",
      "postcode": "6290-081",
      "city": "FOLGOSINHO",
      "lon": "-7.5036071008712115",
      "lat": "40.51839915918493"
    },
    {
      "id": "pt.ine.add.PTCONT.1964772",
      "street": "QTA RIBEIRA",
      "house": "",
      "postcode": "6290-081",
      "city": "FOLGOSINHO",
      "lon": "-7.505381094517013",
      "lat": "40.51164582229133"
    },
    {
      "id": "pt.ine.add.PTCONT.1973761",
      "street": "QTA PRAZO",
      "house": "",
      "postcode": "6290-081",
      "city": "FOLGOSINHO",
      "lon": "-7.500009999734245",
      "lat": "40.515686921049806"
    },
    {
      "id": "pt.ine.add.PTCONT.1874248",
      "street": "QTA TENTES",
      "house": "",
      "postcode": "6290-081",
      "city": "FOLGOSINHO",
      "lon": "-7.494728887140552",
      "lat": "40.5188817649535"
    },
    {
      "id": "pt.ine.add.PTCONT.1885087",
      "street": "QTA SOTTO",
      "house": "",
      "postcode": "6290-081",
      "city": "FOLGOSINHO",
      "lon": "-7.49798182781469",
      "lat": "40.51804418651981"
    }
  ]
}