{
  "data": {
    "distrito": "Castelo Branco",
    "concelho": "Castelo Branco",
    "freguesia": "Castelo Branco",
    "OBJECTID": 1433,
    "BGRI2021": "05020502107",
    "DT21": "05",
    "DTMN21": "0502",
    "DTMNFR21": "050205",
    "DTMNFRSEC21": "050205021",
    "SECNUM21": "021",
    "SSNUM21": "07",
    "SECSSNUM21": "02107",
    "OBJECTID_1": 41222,
    "DT": "05",
    "CC": "02",
    "fr": "05",
    "SEC": "021",
    "SS": "07"
  },
  "addresses": [
    {
      "id": "pt.ine.add.PTCONT.989975",
      "street": "R BAIXO",
      "house": "5",
      "postcode": "6000-775",
      "city": "CASTELO BRANCO",
      "lon": "-7.503795785091534",
      "lat": "39.82955285801224"
    },
    {
      "id": "pt.ine.add.PTCONT.993568",
      "street": "R CUBEIRA",
      "house": "7",
      "postcode": "6000-450",
      "city": "CASTELO BRANCO",
      "lon": "-7.501696604517096",
      "lat": "39.83045109529"
    },
    {
      "id": "pt.ine.add.PTCONT.1002377",
      "street": "TAPADA COBEIRA",
      "house": "",
      "postcode": "6000-775",
      "city": "CASTELO BRANCO",
      "lon": "-7.500517544747954",
      "lat": "39.82909371771263"
    },
    {
      "id": "pt.ine.add.PTCONT.1003516",
      "street": "R CUBEIRA",
      "house": "9",
      "postcode": "6000-450",
      "city": "CASTELO BRANCO",
      "lon": "-7.501777958547899",
      "lat": "39.830496569841785"
    },
    {
      "id": "pt.ine.add.PTCONT.1003517",
      "street": "R CUBEIRA",
      "house": "9",
      "postcode": "6000-450",
      "city": "CASTELO BRANCO",
      "lon": "-7.501777958547899",
      "lat": "39.830496569841785"
    },
    {
      "id": "pt.ine.add.PTCONT.1005870",
      "street": "R BAIXO",
      "house": "7A",
      "postcode": "6000-775",
      "city": "CASTELO BRANCO",
      "lon": "-7.50381816048169",
      "lat": "39.82966105576915"
    },
    {
      "id": "pt.ine.add.PTCONT.1007084",
      "street": "R FONTE DO TOSTAO",
      "house": "",
      "postcode": "6000-775",
      "city": "CASTELO BRANCO",
      "lon": "-7.499713647008313",
      "lat": "39.82886417252233"
    },
    {
      "id": "pt.ine.add.PTCONT.1023339",
      "street": "R BAIXO",
      "house": "7",
      "postcode": "6000-775",
      "city": "CASTELO BRANCO",
      "lon": "-7.5038420150422365",
      "lat": "39.82960714696182"
    },
    {
      "id": "pt.ine.add.PTCONT.1083042",
      "street": "R CUBEIRA",
      "house": "5",
      "postcode": "6000-450",
      "city": "CASTELO BRANCO",
      "lon": "-7.499346665137063",
      "lat": "39.829393543963235"
    }
  ]
}