{
  "data": {
    "distrito": "Vila Real",
    "concelho": "Chaves",
    "freguesia": "Santa Leocádia",
    "OBJECTID": 868,
    "BGRI2021": "17032900128",
    "DT21": "17",
    "DTMN21": "1703",
    "DTMNFR21": "170329",
    "DTMNFRSEC21": "170329001",
    "SECNUM21": "001",
    "SSNUM21": "28",
    "SECSSNUM21": "00128",
    "OBJECTID_1": 181228,
    "DT": "17",
    "CC": "03",
    "fr": "29",
    "SEC": "001",
    "SS": "28"
  },
  "addresses": [
    {
      "id": "pt.ine.add.PTCONT.5301238",
      "street": "ESTR PRINCIPAL",
      "house": "72",
      "postcode": "5400-740",
      "city": "SANTA LEOCÁDIA CHV",
      "lon": "-7.450443158744315",
      "lat": "41.62425614463493"
    },
    {
      "id": "pt.ine.add.PTCONT.5324649",
      "street": "ESTR PRINCIPAL",
      "house": "10",
      "postcode": "5400-740",
      "city": "SANTA LEOCÁDIA CHV",
      "lon": "-7.450550767323031",
      "lat": "41.62429279795022"
    },
    {
      "id": "pt.ine.add.PTCONT.5325191",
      "street": "ESTR PRINCIPAL",
      "house": "",
      "postcode": "5400-740",
      "city": "SANTA LEOCÁDIA CHV",
      "lon": "-7.451091942968563",
      "lat": "41.62417896347366"
    },
    {
      "id": "pt.ine.add.PTCONT.5336318",
      "street": "R DA ALEGRIA",
      "house": "3",
      "postcode": "5400-740",
      "city": "SANTA LEOCÁDIA CHV",
      "lon": "-7.458264168928149",
      "lat": "41.63026269236757"
    },
    {
      "id": "pt.ine.add.PTCONT.5347618",
      "street": "AV PRINCIPAL",
      "house": "8",
      "postcode": "5400-740",
      "city": "SANTA LEOCÁDIA CHV",
      "lon": "-7.450672083560265",
      "lat": "41.624167468109015"
    },
    {
      "id": "pt.ine.add.PTCONT.5355438",
      "street": "ESTR PRINCIPAL",
      "house": "",
      "postcode": "5400-740",
      "city": "SANTA LEOCÁDIA CHV",
      "lon": "-7.4503120278041886",
      "lat": "41.62417433360559"
    },
    {
      "id": "pt.ine.add.PTCONT.5363222",
      "street": "MEDEIROS",
      "house": "",
      "postcode": "5400-740",
      "city": "SANTA LEOCÁDIA CHV",
      "lon": "-7.451714927344308",
      "lat": "41.62427269373941"
    },
    {
      "id": "pt.ine.add.PTCONT.5377726",
      "street": "AV PRINCIPAL",
      "house": "7",
      "postcode": "5400-740",
      "city": "SANTA LEOCÁDIA CHV",
      "lon": "-7.450156424814636",
      "lat": "41.62413739493607"
    },
    {
      "id": "pt.ine.add.PTCONT.5410131",
      "street": "R DA ALEGRIA",
      "house": "",
      "postcode": "5400-740",
      "city": "SANTA LEOCÁDIA CHV",
      "lon": "-7.457967084988988",
      "lat": "41.62998183714739"
    }
  ]
}