{
  "data": {
    "distrito": "Lisboa",
    "concelho": "Torres Vedras",
    "freguesia": "Santa Maria, São Pedro e Matacães",
    "OBJECTID": 959,
    "BGRI2021": "11132600923",
    "DT21": "11",
    "DTMN21": "1113",
    "DTMNFR21": "111326",
    "DTMNFRSEC21": "111326009",
    "SECNUM21": "009",
    "SSNUM21": "23",
    "SECSSNUM21": "00923",
    "OBJECTID_1": 116395,
    "DT": "11",
    "CC": "13",
    "fr": "26",
    "SEC": "009",
    "SS": "23"
  },
  "addresses": [
    {
      "id": "pt.ine.add.PTCONT.2401150",
      "street": "R COMBATENTES DA GRANDE GUERRA",
      "house": "5",
      "postcode": "2560-581",
      "city": "TORRES VEDRAS",
      "lon": "-9.270526552055381",
      "lat": "39.06613870744376"
    },
    {
      "id": "pt.ine.add.PTCONT.2624229",
      "street": "PQ S MARIA",
      "house": "7",
      "postcode": "2560-581",
      "city": "TORRES VEDRAS",
      "lon": "-9.270433989060967",
      "lat": "39.06613060302573"
    },
    {
      "id": "pt.ine.add.PTCONT.2664013",
      "street": "R COMBATENTES GRANDE GUERRA",
      "house": "6",
      "postcode": "2560-581",
      "city": "TORRES VEDRAS",
      "lon": "-9.270403812678127",
      "lat": "39.066410123061196"
    },
    {
      "id": "pt.ine.add.PTCONT.2664014",
      "street": "R COMBATENTES DA GRANDE GUERRA",
      "house": "4",
      "postcode": "2560-581",
      "city": "TORRES VEDRAS",
      "lon": "-9.270471247730756",
      "lat": "39.066292370670126"
    },
    {
      "id": "pt.ine.add.PTCONT.2884754",
      "street": "R CEDRO",
      "house": "5",
      "postcode": "2560-581",
      "city": "TORRES VEDRAS",
      "lon": "-9.270335943826167",
      "lat": "39.06650085780096"
    },
    {
      "id": "pt.ine.add.PTCONT.2904450",
      "street": "R CEDRO",
      "house": "3",
      "postcode": "2560-581",
      "city": "TORRES VEDRAS",
      "lon": "-9.270242946832711",
      "lat": "39.066465735624476"
    },
    {
      "id": "pt.ine.add.PTCONT.3282436",
      "street": "PQ S MARIA",
      "house": "8",
      "postcode": "2560-581",
      "city": "TORRES VEDRAS",
      "lon": "-9.270283231007266",
      "lat": "39.06609604424325"
    },
    {
      "id": "pt.ine.add.PTCONT.3409557",
      "street": "TV BALDIO",
      "house": "",
      "postcode": "2560-581",
      "city": "TORRES VEDRAS",
      "lon": "-9.270287277521653",
      "lat": "39.06634820865115"
    },
    {
      "id": "pt.ine.add.PTCONT.3439356",
      "street": "PQ S MARIA",
      "house": "6",
      "postcode": "2560-581",
      "city": "TORRES VEDRAS",
      "lon": "-9.270502001987927",
      "lat": "39.066048874101675"
    }
  ]
}