{
  "data": {
    "distrito": "Viana do Castelo",
    "concelho": "Ponte de Lima",
    "freguesia": "Arcozelo",
    "OBJECTID": 855,
    "BGRI2021": "16070400309",
    "DT21": "16",
    "DTMN21": "1607",
    "DTMNFR21": "160704",
    "DTMNFRSEC21": "160704003",
    "SECNUM21": "003",
    "SSNUM21": "09",
    "SECSSNUM21": "00309",
    "OBJECTID_1": 175548,
    "DT": "16",
    "CC": "07",
    "fr": "04",
    "SEC": "003",
    "SS": "09"
  },
  "addresses": [
    {
      "id": "pt.ine.add.PTCONT.5148419",
      "street": "R ANTÓNIO PEREIRA REGO",
      "house": "",
      "postcode": "4990-256",
      "city": "PONTE DE LIMA",
      "lon": "-8.590688849497903",
      "lat": "41.77364216922097"
    },
    {
      "id": "pt.ine.add.PTCONT.5174927",
      "street": "CAM ANTEPACO DE BAIXO",
      "house": "",
      "postcode": "4990-151",
      "city": "PONTE DE LIMA",
      "lon": "-8.590218336594878",
      "lat": "41.77174432695229"
    },
    {
      "id": "pt.ine.add.PTCONT.5177797",
      "street": "ANTEPACO ARCOZELO",
      "house": "",
      "postcode": "4990-231",
      "city": "PONTE DE LIMA",
      "lon": "-8.591151383411292",
      "lat": "41.774414617447164"
    },
    {
      "id": "pt.ine.add.PTCONT.5185266",
      "street": "R ANTÓNIO PEREIRA REGO",
      "house": "",
      "postcode": "4990-256",
      "city": "PONTE DE LIMA",
      "lon": "-8.590726786290704",
      "lat": "41.773903116375635"
    },
    {
      "id": "pt.ine.add.PTCONT.5190806",
      "street": "R ANTÓNIO PEREIRA REGO",
      "house": "",
      "postcode": "4990-256",
      "city": "PONTE DE LIMA",
      "lon": "-8.590426881967714",
      "lat": "41.77231971404477"
    },
    {
      "id": "pt.ine.add.PTCONT.5190807",
      "street": "R ANTÓNIO PEREIRA REGO",
      "house": "",
      "postcode": "4990-256",
      "city": "PONTE DE LIMA",
      "lon": "-8.591232818392113",
      "lat": "41.774027147093484"
    },
    {
      "id": "pt.ine.add.PTCONT.5221891",
      "street": "CAM OLIVEIRINHA - QTA DO ARQUINHO",
      "house": "",
      "postcode": "4990-146",
      "city": "PONTE DE LIMA",
      "lon": "-8.588808388014874",
      "lat": "41.77474805664657"
    },
    {
      "id": "pt.ine.add.PTCONT.5238961",
      "street": "R FORAL D MANUEL I",
      "house": "",
      "postcode": "4990-256",
      "city": "PONTE DE LIMA",
      "lon": "-8.592153720997702",
      "lat": "41.77667046658778"
    },
    {
      "id": "pt.ine.add.PTCONT.5251363",
      "street": "R ANTÓNIO PEREIRA REGO",
      "house": "",
      "postcode": "4990-256",
      "city": "PONTE DE LIMA",
      "lon": "-8.591530058174389",
      "lat": "41.77523241526626"
    },
    {
      "id": "pt.ine.add.PTCONT.5253347",
      "street": "R FORAL D MANUEL I",
      "house": "",
      "postcode": "4990-256",
      "city": "PONTE DE LIMA",
      "lon": "-8.591652511280461",
      "lat": "41.77553804170077"
    },
    {
      "id": "pt.ine.add.PTCONT.5271413",
      "street": "R PONTE DO ARQUINHO",
      "house": "",
      "postcode": "4990-240",
      "city": "PONTE DE LIMA",
      "lon": "-8.592118514491839",
      "lat": "41.77848028703302"
    },
    {
      "id": "pt.ine.add.PTCONT.5280334",
      "street": "R FORAL D MANUEL I",
      "house": "",
      "postcode": "4990-256",
      "city": "PONTE DE LIMA",
      "lon": "-8.59214349105072",
      "lat": "41.77692260219173"
    },
    {
      "id": "pt.ine.add.PTCONT.5282341",
      "street": "R ANTÓNIO PEREIRA REGO",
      "house": "",
      "postcode": "4990-256",
      "city": "PONTE DE LIMA",
      "lon": "-8.590713799360183",
      "lat": "41.77376811728314"
    },
    {
      "id": "pt.ine.add.PTCONT.5285425",
      "street": "CAM ANTEPACO DE BAIXO",
      "house": "",
      "postcode": "4990-151",
      "city": "PONTE DE LIMA",
      "lon": "-8.590218336594878",
      "lat": "41.77174432695229"
    }
  ]
}