{
  "data": {
    "distrito": "Beja",
    "concelho": "Odemira",
    "freguesia": "Vila Nova de Milfontes",
    "OBJECTID": 1123,
    "BGRI2021": "02111100111",
    "DT21": "02",
    "DTMN21": "0211",
    "DTMNFR21": "021111",
    "DTMNFRSEC21": "021111001",
    "SECNUM21": "001",
    "SSNUM21": "11",
    "SECSSNUM21": "00111",
    "OBJECTID_1": 17712,
    "DT": "02",
    "CC": "11",
    "fr": "11",
    "SEC": "001",
    "SS": "11"
  },
  "addresses": [
    {
      "id": "pt.ine.add.PTCONT.456051",
      "street": "LG DA IGREJA",
      "house": "1",
      "postcode": "7645-267",
      "city": "VILA NOVA DE MILFONTES",
      "lon": "-8.781817420444915",
      "lat": "37.723376972992625"
    },
    {
      "id": "pt.ine.add.PTCONT.374126",
      "street": "LG DA JUNQUEIRA",
      "house": "",
      "postcode": "7645-273",
      "city": "VILA NOVA DE MILFONTES",
      "lon": "-8.78156292005544",
      "lat": "37.72348968644355"
    },
    {
      "id": "pt.ine.add.PTCONT.374127",
      "street": "R SERRﾃグ MARREIROS",
      "house": "3",
      "postcode": "7645-289",
      "city": "VILA NOVA DE MILFONTES",
      "lon": "-8.781798927855014",
      "lat": "37.72382181157152"
    },
    {
      "id": "pt.ine.add.PTCONT.374953",
      "street": "R SERRﾃグ MARREIROS",
      "house": "5",
      "postcode": "7645-289",
      "city": "VILA NOVA DE MILFONTES",
      "lon": "-8.781850037064496",
      "lat": "37.723715701188596"
    },
    {
      "id": "pt.ine.add.PTCONT.378896",
      "street": "R SERRﾃグ MARREIROS",
      "house": "8",
      "postcode": "7645-267",
      "city": "VILA NOVA DE MILFONTES",
      "lon": "-8.781733026975537",
      "lat": "37.72339067692645"
    },
    {
      "id": "pt.ine.add.PTCONT.394225",
      "street": "R DA PADARIA",
      "house": "4",
      "postcode": "7645-289",
      "city": "VILA NOVA DE MILFONTES",
      "lon": "-8.781565200782778",
      "lat": "37.72360947688778"
    },
    {
      "id": "pt.ine.add.PTCONT.424099",
      "street": "R DA PADARIA",
      "house": "1",
      "postcode": "7645-289",
      "city": "VILA NOVA DE MILFONTES",
      "lon": "-8.781695998634346",
      "lat": "37.72380792835551"
    },
    {
      "id": "pt.ine.add.PTCONT.444409",
      "street": "LG DA JUNQUEIRA",
      "house": "",
      "postcode": "7645-273",
      "city": "VILA NOVA DE MILFONTES",
      "lon": "-8.781559051449333",
      "lat": "37.723547105007604"
    },
    {
      "id": "pt.ine.add.PTCONT.451744",
      "street": "R SERRﾃグ MARREIROS",
      "house": "7",
      "postcode": "7645-289",
      "city": "VILA NOVA DE MILFONTES",
      "lon": "-8.781894855608904",
      "lat": "37.72365238753561"
    }
  ]
}