{
  "data": {
    "distrito": "Castelo Branco",
    "concelho": "Proença-A-Nova",
    "freguesia": "União das freguesias de Sobreira Formosa e Alvito da Beira",
    "OBJECTID": 202,
    "BGRI2021": "05080800222",
    "DT21": "05",
    "DTMN21": "0508",
    "DTMNFR21": "050808",
    "DTMNFRSEC21": "050808002",
    "SECNUM21": "002",
    "SSNUM21": "22",
    "SECSSNUM21": "00222",
    "OBJECTID_1": 45591,
    "DT": "05",
    "CC": "08",
    "fr": "08",
    "SEC": "002",
    "SS": "22"
  },
  "addresses": [
    {
      "id": "pt.ine.add.PTCONT.954763",
      "street": "R PRINCIPAL",
      "house": "",
      "postcode": "6150-740",
      "city": "SOBREIRA FORMOSA",
      "lon": "-7.871748665396487",
      "lat": "39.8046303281236"
    },
    {
      "id": "pt.ine.add.PTCONT.970959",
      "street": "R PRINCIPAL",
      "house": "",
      "postcode": "6150-740",
      "city": "SOBREIRA FORMOSA",
      "lon": "-7.871742288479155",
      "lat": "39.806314526446855"
    },
    {
      "id": "pt.ine.add.PTCONT.987611",
      "street": "R SERRO",
      "house": "",
      "postcode": "6150-740",
      "city": "SOBREIRA FORMOSA",
      "lon": "-7.873131186400327",
      "lat": "39.80650678265592"
    },
    {
      "id": "pt.ine.add.PTCONT.1004530",
      "street": "R PRINCIPAL",
      "house": "",
      "postcode": "6150-740",
      "city": "SOBREIRA FORMOSA",
      "lon": "-7.872045974735237",
      "lat": "39.803207972370906"
    },
    {
      "id": "pt.ine.add.PTCONT.1018518",
      "street": "R SERRO",
      "house": "",
      "postcode": "6150-740",
      "city": "SOBREIRA FORMOSA",
      "lon": "-7.872604138495283",
      "lat": "39.80691989886382"
    },
    {
      "id": "pt.ine.add.PTCONT.1040847",
      "street": "R MOINHA",
      "house": "",
      "postcode": "6150-740",
      "city": "SOBREIRA FORMOSA",
      "lon": "-7.86915682916831",
      "lat": "39.804498370706575"
    },
    {
      "id": "pt.ine.add.PTCONT.1067883",
      "street": "ESTR PRINCIPAL",
      "house": "",
      "postcode": "6150-732",
      "city": "SOBREIRA FORMOSA",
      "lon": "-7.860556096734333",
      "lat": "39.806099655272185"
    },
    {
      "id": "pt.ine.add.PTCONT.1080271",
      "street": "R PRINCIPAL",
      "house": "",
      "postcode": "6150-740",
      "city": "SOBREIRA FORMOSA",
      "lon": "-7.871927945259545",
      "lat": "39.80354094683929"
    },
    {
      "id": "pt.ine.add.PTCONT.1084842",
      "street": "R CAPELA",
      "house": "",
      "postcode": "6150-740",
      "city": "SOBREIRA FORMOSA",
      "lon": "-7.871008117263626",
      "lat": "39.80591658518178"
    },
    {
      "id": "pt.ine.add.PTCONT.1096648",
      "street": "R SERRO",
      "house": "",
      "postcode": "6150-740",
      "city": "SOBREIRA FORMOSA",
      "lon": "-7.872896992708219",
      "lat": "39.80667738090647"
    },
    {
      "id": "pt.ine.add.PTCONT.1099032",
      "street": "R TAPADA GRANDE",
      "house": "",
      "postcode": "6150-740",
      "city": "SOBREIRA FORMOSA",
      "lon": "-7.871402687876196",
      "lat": "39.80656594256636"
    }
  ]
}