{
  "data": {
    "distrito": "Porto",
    "concelho": "Penafiel",
    "freguesia": "Castelões",
    "OBJECTID": 1103,
    "BGRI2021": "13110700119",
    "DT21": "13",
    "DTMN21": "1311",
    "DTMNFR21": "131107",
    "DTMNFRSEC21": "131107001",
    "SECNUM21": "001",
    "SSNUM21": "19",
    "SECSSNUM21": "00119",
    "OBJECTID_1": 137279,
    "DT": "13",
    "CC": "11",
    "fr": "07",
    "SEC": "001",
    "SS": "19"
  },
  "addresses": [
    {
      "id": "pt.ine.add.PTCONT.3716471",
      "street": "TV VALBOM",
      "house": "26",
      "postcode": "4560-056",
      "city": "CASTELÕES PNF",
      "lon": "-8.191596931380476",
      "lat": "41.227365584960516"
    },
    {
      "id": "pt.ine.add.PTCONT.3809316",
      "street": "TV ALMINHAS",
      "house": "36",
      "postcode": "4560-056",
      "city": "CASTELÕES PNF",
      "lon": "-8.195796929307969",
      "lat": "41.229245269026414"
    },
    {
      "id": "pt.ine.add.PTCONT.3980900",
      "street": "CAM SEBES",
      "house": "107",
      "postcode": "4560-056",
      "city": "CASTELÕES PNF",
      "lon": "-8.196059531626702",
      "lat": "41.229461228378405"
    },
    {
      "id": "pt.ine.add.PTCONT.4118212",
      "street": "AV VALBOM",
      "house": "837B",
      "postcode": "4560-056",
      "city": "CASTELÕES PNF",
      "lon": "-8.192420793607305",
      "lat": "41.228382646957506"
    },
    {
      "id": "pt.ine.add.PTCONT.4196648",
      "street": "AV VALBOM",
      "house": "",
      "postcode": "4560-056",
      "city": "CASTELÕES PNF",
      "lon": "-8.193875540831995",
      "lat": "41.228021717370304"
    },
    {
      "id": "pt.ine.add.PTCONT.4262121",
      "street": "CAM SEBES",
      "house": "",
      "postcode": "4560-056",
      "city": "CASTELÕES PNF",
      "lon": "-8.199016978716799",
      "lat": "41.228991351298774"
    },
    {
      "id": "pt.ine.add.PTCONT.4361176",
      "street": "AV VALBOM",
      "house": "837A",
      "postcode": "4560-056",
      "city": "CASTELÕES PNF",
      "lon": "-8.192658882087732",
      "lat": "41.22788728881763"
    }
  ]
}