{
  "data": {
    "distrito": "Porto",
    "concelho": "Marco de Canaveses",
    "freguesia": "Santo Isidoro e Livração",
    "OBJECTID": 504,
    "BGRI2021": "13073500205",
    "DT21": "13",
    "DTMN21": "1307",
    "DTMNFR21": "130735",
    "DTMNFRSEC21": "130735002",
    "SECNUM21": "002",
    "SSNUM21": "05",
    "SECSSNUM21": "00205",
    "OBJECTID_1": 131951,
    "DT": "13",
    "CC": "07",
    "fr": "35",
    "SEC": "002",
    "SS": "05"
  },
  "addresses": [
    {
      "id": "pt.ine.add.PTCONT.3581668",
      "street": "R FUNDO DE VILA",
      "house": "",
      "postcode": "4635-264",
      "city": "SANTO ISIDORO MCN",
      "lon": "-8.140524458577204",
      "lat": "41.20709352281581"
    },
    {
      "id": "pt.ine.add.PTCONT.3657187",
      "street": "R DEVESA",
      "house": "258",
      "postcode": "4635-299",
      "city": "SANTO ISIDORO MCN",
      "lon": "-8.138509673695658",
      "lat": "41.20961484149363"
    },
    {
      "id": "pt.ine.add.PTCONT.3837385",
      "street": "R ZONA VERDE",
      "house": "",
      "postcode": "4635-261",
      "city": "SANTO ISIDORO MCN",
      "lon": "-8.13794912903238",
      "lat": "41.20770595298518"
    },
    {
      "id": "pt.ine.add.PTCONT.3857491",
      "street": "R FUNDO",
      "house": "378",
      "postcode": "4635-264",
      "city": "SANTO ISIDORO MCN",
      "lon": "-8.14033367126376",
      "lat": "41.20692245303015"
    },
    {
      "id": "pt.ine.add.PTCONT.3872523",
      "street": "R FUNDO",
      "house": "262",
      "postcode": "4635-264",
      "city": "SANTO ISIDORO MCN",
      "lon": "-8.141549681847176",
      "lat": "41.20586886579107"
    },
    {
      "id": "pt.ine.add.PTCONT.3875525",
      "street": "R DEVESA",
      "house": "314",
      "postcode": "4635-299",
      "city": "SANTO ISIDORO MCN",
      "lon": "-8.138163850245629",
      "lat": "41.209065594431294"
    },
    {
      "id": "pt.ine.add.PTCONT.4130017",
      "street": "R PONTE DE FERRO",
      "house": "",
      "postcode": "4635-344",
      "city": "SANTO ISIDORO MCN",
      "lon": "-8.145554841219239",
      "lat": "41.20109621469575"
    },
    {
      "id": "pt.ine.add.PTCONT.4331373",
      "street": "R ZONA VERDE",
      "house": "",
      "postcode": "4635-261",
      "city": "SANTO ISIDORO MCN",
      "lon": "-8.141132642055842",
      "lat": "41.2079849087754"
    }
  ]
}