{
  "data": {
    "distrito": "Porto",
    "concelho": "Marco de Canaveses",
    "freguesia": "Santo Isidoro e Livração",
    "OBJECTID": 385,
    "BGRI2021": "13073500228",
    "DT21": "13",
    "DTMN21": "1307",
    "DTMNFR21": "130735",
    "DTMNFRSEC21": "130735002",
    "SECNUM21": "002",
    "SSNUM21": "28",
    "SECSSNUM21": "00228",
    "OBJECTID_1": 132118,
    "DT": "13",
    "CC": "07",
    "fr": "35",
    "SEC": "002",
    "SS": "28"
  },
  "addresses": [
    {
      "id": "pt.ine.add.PTCONT.3735339",
      "street": "R ANDRAES BAIXO",
      "house": "91",
      "postcode": "4635-266",
      "city": "SANTO ISIDORO MCN",
      "lon": "-8.151924903426108",
      "lat": "41.21416960851234"
    },
    {
      "id": "pt.ine.add.PTCONT.3810520",
      "street": "R COSTA DO LIMA",
      "house": "",
      "postcode": "4635-252",
      "city": "SANTO ISIDORO MCN",
      "lon": "-8.151113625346365",
      "lat": "41.21262099841173"
    },
    {
      "id": "pt.ine.add.PTCONT.3935365",
      "street": "R COSTA LIMA",
      "house": "290",
      "postcode": "4635-252",
      "city": "SANTO ISIDORO MCN",
      "lon": "-8.15210323681025",
      "lat": "41.21233270175184"
    },
    {
      "id": "pt.ine.add.PTCONT.3939277",
      "street": "R ANDRAES DE BAIXO",
      "house": "91",
      "postcode": "4635-266",
      "city": "SANTO ISIDORO MCN",
      "lon": "-8.152341972252657",
      "lat": "41.21320607943499"
    },
    {
      "id": "pt.ine.add.PTCONT.3964763",
      "street": "R COSTA LIMA",
      "house": "234",
      "postcode": "4635-252",
      "city": "SANTO ISIDORO MCN",
      "lon": "-8.15191250725189",
      "lat": "41.21252182340957"
    },
    {
      "id": "pt.ine.add.PTCONT.3976805",
      "street": "R SANTO ISIDORO",
      "house": "397",
      "postcode": "4635-266",
      "city": "SANTO ISIDORO MCN",
      "lon": "-8.15018384571227",
      "lat": "41.213755682017435"
    },
    {
      "id": "pt.ine.add.PTCONT.4062480",
      "street": "R ANDRÃES",
      "house": "",
      "postcode": "4635-298",
      "city": "SANTO ISIDORO MCN",
      "lon": "-8.151018667760026",
      "lat": "41.21421477452023"
    },
    {
      "id": "pt.ine.add.PTCONT.4143571",
      "street": "R COSTA LIMA",
      "house": "188",
      "postcode": "4635-252",
      "city": "SANTO ISIDORO MCN",
      "lon": "-8.150839418760214",
      "lat": "41.21279212269997"
    },
    {
      "id": "pt.ine.add.PTCONT.4188952",
      "street": "R ANDRAES DE BAIXO",
      "house": "91",
      "postcode": "4635-266",
      "city": "SANTO ISIDORO MCN",
      "lon": "-8.15255671877726",
      "lat": "41.21358422401756"
    },
    {
      "id": "pt.ine.add.PTCONT.4254578",
      "street": "R ANDRAES DE BAIXO",
      "house": "88",
      "postcode": "4635-266",
      "city": "SANTO ISIDORO MCN",
      "lon": "-8.151650677233953",
      "lat": "41.21428670889112"
    },
    {
      "id": "pt.ine.add.PTCONT.4254579",
      "street": "R ANDRAES DE BAIXO",
      "house": "88",
      "postcode": "4635-266",
      "city": "SANTO ISIDORO MCN",
      "lon": "-8.151650677233953",
      "lat": "41.21428670889112"
    },
    {
      "id": "pt.ine.add.PTCONT.4390380",
      "street": "R SANTO ISIDORO",
      "house": "671",
      "postcode": "4635-266",
      "city": "SANTO ISIDORO MCN",
      "lon": "-8.151949126672783",
      "lat": "41.21547522789619"
    }
  ]
}