{
  "data": {
    "distrito": "Setúbal",
    "concelho": "Santiago do Cacém",
    "freguesia": "União das freguesias de São Domingos e Vale de Água",
    "OBJECTID": 344,
    "BGRI2021": "15091300245",
    "DT21": "15",
    "DTMN21": "1509",
    "DTMNFR21": "150913",
    "DTMNFRSEC21": "150913002",
    "SECNUM21": "002",
    "SSNUM21": "45",
    "SECSSNUM21": "00245",
    "OBJECTID_1": 166489,
    "DT": "15",
    "CC": "09",
    "fr": "13",
    "SEC": "002",
    "SS": "45"
  },
  "addresses": [
    {
      "id": "pt.ine.add.PTCONT.4664103",
      "street": "MTE DO PEGO",
      "house": "",
      "postcode": "7540-415",
      "city": "SÃO DOMINGOS",
      "lon": "-8.561302975547925",
      "lat": "37.92646378871551"
    },
    {
      "id": "pt.ine.add.PTCONT.4690132",
      "street": "MTE DA VARGEM NOVA",
      "house": "",
      "postcode": "7540-415",
      "city": "SÃO DOMINGOS",
      "lon": "-8.547824733852112",
      "lat": "37.926430975129506"
    },
    {
      "id": "pt.ine.add.PTCONT.4728314",
      "street": "MTE BODEL",
      "house": "",
      "postcode": "7540-415",
      "city": "SÃO DOMINGOS",
      "lon": "-8.542453345866786",
      "lat": "37.930008474466526"
    },
    {
      "id": "pt.ine.add.PTCONT.4734021",
      "street": "",
      "house": "",
      "postcode": "7540-415",
      "city": "SÃO DOMINGOS",
      "lon": "-8.554353290851736",
      "lat": "37.91645244898777"
    },
    {
      "id": "pt.ine.add.PTCONT.4877206",
      "street": "MTE DA VARGEM NOVA",
      "house": "",
      "postcode": "7540-415",
      "city": "SÃO DOMINGOS",
      "lon": "-8.547803049110495",
      "lat": "37.92662024788657"
    },
    {
      "id": "pt.ine.add.PTCONT.5035509",
      "street": "R S DOMINGOS",
      "house": "26",
      "postcode": "7540-415",
      "city": "SÃO DOMINGOS",
      "lon": "-8.54184607120817",
      "lat": "37.931262884283335"
    },
    {
      "id": "pt.ine.add.PTCONT.5125633",
      "street": "MTE CERRO",
      "house": "",
      "postcode": "7540-415",
      "city": "SÃO DOMINGOS",
      "lon": "-8.55604554598567",
      "lat": "37.91805004610582"
    }
  ]
}