{
  "data": {
    "distrito": "Portalegre",
    "concelho": "Avis",
    "freguesia": "Avis",
    "OBJECTID": 178,
    "BGRI2021": "12030300137",
    "DT21": "12",
    "DTMN21": "1203",
    "DTMNFR21": "120303",
    "DTMNFRSEC21": "120303001",
    "SECNUM21": "001",
    "SSNUM21": "37",
    "SECSSNUM21": "00137",
    "OBJECTID_1": 120875,
    "DT": "12",
    "CC": "03",
    "fr": "03",
    "SEC": "001",
    "SS": "37"
  },
  "addresses": [
    {
      "id": "pt.ine.add.PTCONT.3537365",
      "street": "MTE SERRA",
      "house": "",
      "postcode": "7480-149",
      "city": "AVIS",
      "lon": "-7.863841811412104",
      "lat": "39.047513780891514"
    },
    {
      "id": "pt.ine.add.PTCONT.3458646",
      "street": "MTE SERRA",
      "house": "",
      "postcode": "7480-149",
      "city": "AVIS",
      "lon": "-7.866346259219482",
      "lat": "39.049772723743935"
    },
    {
      "id": "pt.ine.add.PTCONT.3460190",
      "street": "MTE SERRA",
      "house": "",
      "postcode": "7480-149",
      "city": "AVIS",
      "lon": "-7.864233262234994",
      "lat": "39.04785697495433"
    },
    {
      "id": "pt.ine.add.PTCONT.3468157",
      "street": "MTE SERRA",
      "house": "",
      "postcode": "7480-149",
      "city": "AVIS",
      "lon": "-7.859854343035541",
      "lat": "39.05108054623474"
    },
    {
      "id": "pt.ine.add.PTCONT.3470607",
      "street": "MTE TORRINHA",
      "house": "",
      "postcode": "7480-149",
      "city": "AVIS",
      "lon": "-7.8709188331413635",
      "lat": "39.05386077305689"
    },
    {
      "id": "pt.ine.add.PTCONT.3470621",
      "street": "QTA GUARDINA",
      "house": "",
      "postcode": "7480-102",
      "city": "AVIS",
      "lon": "-7.882241771849251",
      "lat": "39.05123894016249"
    },
    {
      "id": "pt.ine.add.PTCONT.3484702",
      "street": "MTE FONTE DE PAREDES",
      "house": "",
      "postcode": "7480-150",
      "city": "AVIS",
      "lon": "-7.841381014512448",
      "lat": "39.04863976752201"
    },
    {
      "id": "pt.ine.add.PTCONT.3492442",
      "street": "MTE SERRA",
      "house": "",
      "postcode": "7480-149",
      "city": "AVIS",
      "lon": "-7.858846253018337",
      "lat": "39.05187085338986"
    },
    {
      "id": "pt.ine.add.PTCONT.3498674",
      "street": "MTE QUINTA DE SANTANA",
      "house": "",
      "postcode": "7480-149",
      "city": "AVIS",
      "lon": "-7.877751977459674",
      "lat": "39.04692353603076"
    },
    {
      "id": "pt.ine.add.PTCONT.3504985",
      "street": "MTE SERRA",
      "house": "",
      "postcode": "7480-149",
      "city": "AVIS",
      "lon": "-7.859035891512229",
      "lat": "39.05062824321932"
    },
    {
      "id": "pt.ine.add.PTCONT.3508722",
      "street": "MTE GRANEL",
      "house": "",
      "postcode": "7480-149",
      "city": "AVIS",
      "lon": "-7.855980379565664",
      "lat": "39.05506179403953"
    },
    {
      "id": "pt.ine.add.PTCONT.3518926",
      "street": "MTE MALHADAS DE GRANEL",
      "house": "",
      "postcode": "7480-149",
      "city": "AVIS",
      "lon": "-7.851110462415328",
      "lat": "39.05952691842575"
    },
    {
      "id": "pt.ine.add.PTCONT.3521664",
      "street": "MTE TORRINHA",
      "house": "",
      "postcode": "7480-149",
      "city": "AVIS",
      "lon": "-7.872386126765859",
      "lat": "39.053828651490804"
    },
    {
      "id": "pt.ine.add.PTCONT.3521665",
      "street": "MTE SERRA",
      "house": "",
      "postcode": "7480-149",
      "city": "AVIS",
      "lon": "-7.860707565056878",
      "lat": "39.05150590174296"
    },
    {
      "id": "pt.ine.add.PTCONT.3525342",
      "street": "MTE SERRA",
      "house": "",
      "postcode": "7480-149",
      "city": "AVIS",
      "lon": "-7.865350899436777",
      "lat": "39.048616189278036"
    },
    {
      "id": "pt.ine.add.PTCONT.3531011",
      "street": "MTE SERRA",
      "house": "",
      "postcode": "7480-149",
      "city": "AVIS",
      "lon": "-7.867614916238319",
      "lat": "39.054818629680454"
    },
    {
      "id": "pt.ine.add.PTCONT.3532346",
      "street": "MTE QUINTA DAS ROSAS",
      "house": "",
      "postcode": "7480-149",
      "city": "AVIS",
      "lon": "-7.850587806929891",
      "lat": "39.05441832066039"
    }
  ]
}