{
  "data": {
    "distrito": "Castelo Branco",
    "concelho": "Fundão",
    "freguesia": "Alcaide",
    "OBJECTID": 485,
    "BGRI2021": "05040100126",
    "DT21": "05",
    "DTMN21": "0504",
    "DTMNFR21": "050401",
    "DTMNFRSEC21": "050401001",
    "SECNUM21": "001",
    "SSNUM21": "26",
    "SECSSNUM21": "00126",
    "OBJECTID_1": 43507,
    "DT": "05",
    "CC": "04",
    "fr": "01",
    "SEC": "001",
    "SS": "26"
  },
  "addresses": [
    {
      "id": "pt.ine.add.PTCONT.958957",
      "street": "R ADEGAS",
      "house": "4",
      "postcode": "6230-002",
      "city": "ALCAIDE",
      "lon": "-7.443163392560888",
      "lat": "40.13165145262687"
    },
    {
      "id": "pt.ine.add.PTCONT.989263",
      "street": "R ADEGAS",
      "house": "8",
      "postcode": "6230-002",
      "city": "ALCAIDE",
      "lon": "-7.443180391473856",
      "lat": "40.132290971478014"
    },
    {
      "id": "pt.ine.add.PTCONT.1047197",
      "street": "R FONTE DO LUGAR",
      "house": "9",
      "postcode": "6230-002",
      "city": "ALCAIDE",
      "lon": "-7.4423043624954826",
      "lat": "40.13306025470692"
    },
    {
      "id": "pt.ine.add.PTCONT.1072699",
      "street": "SIT LADEIRAS",
      "house": "",
      "postcode": "6230-003",
      "city": "ALCAIDE",
      "lon": "-7.442470047284634",
      "lat": "40.134078907238184"
    },
    {
      "id": "pt.ine.add.PTCONT.1085893",
      "street": "R FONTE DO LUGAR",
      "house": "17",
      "postcode": "6230-002",
      "city": "ALCAIDE",
      "lon": "-7.442639953960555",
      "lat": "40.13352155596483"
    },
    {
      "id": "pt.ine.add.PTCONT.1098440",
      "street": "LG ESTAÇÃO DO ALCAIDE",
      "house": "1",
      "postcode": "6230-003",
      "city": "ALCAIDE",
      "lon": "-7.447403523445743",
      "lat": "40.133531848675986"
    }
  ]
}