{
  "data": {
    "distrito": "Porto",
    "concelho": "Penafiel",
    "freguesia": "Sebolido",
    "OBJECTID": 416,
    "BGRI2021": "13113400110",
    "DT21": "13",
    "DTMN21": "1311",
    "DTMNFR21": "131134",
    "DTMNFRSEC21": "131134001",
    "SECNUM21": "001",
    "SSNUM21": "10",
    "SECSSNUM21": "00110",
    "OBJECTID_1": 136487,
    "DT": "13",
    "CC": "11",
    "fr": "34",
    "SEC": "001",
    "SS": "10"
  },
  "addresses": [
    {
      "id": "pt.ine.add.PTCONT.3593233",
      "street": "VLA VALEMOURISCO",
      "house": "73",
      "postcode": "4575-543",
      "city": "SEBOLIDO",
      "lon": "-8.34581139255194",
      "lat": "41.05105774843139"
    },
    {
      "id": "pt.ine.add.PTCONT.3709999",
      "street": "AV MARGINAL",
      "house": "2097",
      "postcode": "4575-530",
      "city": "SEBOLIDO",
      "lon": "-8.345444190093623",
      "lat": "41.0515356665486"
    },
    {
      "id": "pt.ine.add.PTCONT.3871120",
      "street": "AV IGREJA",
      "house": "13",
      "postcode": "4575-544",
      "city": "SEBOLIDO",
      "lon": "-8.345405090162542",
      "lat": "41.05047320200294"
    },
    {
      "id": "pt.ine.add.PTCONT.3968415",
      "street": "AV IGREJA",
      "house": "10",
      "postcode": "4575-544",
      "city": "SEBOLIDO",
      "lon": "-8.344849679942921",
      "lat": "41.051608796742386"
    },
    {
      "id": "pt.ine.add.PTCONT.3968416",
      "street": "AV IGREJA",
      "house": "10",
      "postcode": "4575-544",
      "city": "SEBOLIDO",
      "lon": "-8.344849679942921",
      "lat": "41.051608796742386"
    },
    {
      "id": "pt.ine.add.PTCONT.3968417",
      "street": "AV IGREJA",
      "house": "10",
      "postcode": "4575-544",
      "city": "SEBOLIDO",
      "lon": "-8.344849679942921",
      "lat": "41.051608796742386"
    },
    {
      "id": "pt.ine.add.PTCONT.3968418",
      "street": "AV IGREJA",
      "house": "10",
      "postcode": "4575-544",
      "city": "SEBOLIDO",
      "lon": "-8.344849679942921",
      "lat": "41.051608796742386"
    },
    {
      "id": "pt.ine.add.PTCONT.4098909",
      "street": "R VALMOURISCO",
      "house": "77",
      "postcode": "4575-543",
      "city": "SEBOLIDO",
      "lon": "-8.346072350843828",
      "lat": "41.05083215281979"
    },
    {
      "id": "pt.ine.add.PTCONT.4131130",
      "street": "AV IGREJA",
      "house": "4",
      "postcode": "4575-544",
      "city": "SEBOLIDO",
      "lon": "-8.344647179322894",
      "lat": "41.05151912315281"
    },
    {
      "id": "pt.ine.add.PTCONT.4131131",
      "street": "AV IGREJA",
      "house": "4",
      "postcode": "4575-544",
      "city": "SEBOLIDO",
      "lon": "-8.344647179322894",
      "lat": "41.05151912315281"
    },
    {
      "id": "pt.ine.add.PTCONT.4131132",
      "street": "AV IGREJA",
      "house": "4",
      "postcode": "4575-544",
      "city": "SEBOLIDO",
      "lon": "-8.344647179322894",
      "lat": "41.05151912315281"
    },
    {
      "id": "pt.ine.add.PTCONT.4131133",
      "street": "AV IGREJA",
      "house": "4",
      "postcode": "4575-544",
      "city": "SEBOLIDO",
      "lon": "-8.344647179322894",
      "lat": "41.05151912315281"
    }
  ]
}