{
  "data": {
    "distrito": "Guarda",
    "concelho": "Almeida",
    "freguesia": "União das freguesias de Amoreira, Parada e Cabreira",
    "OBJECTID": 31,
    "BGRI2021": "09023000152",
    "DT21": "09",
    "DTMN21": "0902",
    "DTMNFR21": "090230",
    "DTMNFRSEC21": "090230001",
    "SECNUM21": "001",
    "SSNUM21": "52",
    "SECSSNUM21": "00152",
    "OBJECTID_1": 75276,
    "DT": "09",
    "CC": "02",
    "fr": "30",
    "SEC": "001",
    "SS": "52"
  },
  "addresses": [
    {
      "id": "pt.ine.add.PTCONT.1918896",
      "street": "R DA ESCOLA NOVA",
      "house": "",
      "postcode": "6355-020",
      "city": "AMOREIRA ALD",
      "lon": "-7.013574259704561",
      "lat": "40.586739987547645"
    },
    {
      "id": "pt.ine.add.PTCONT.1958771",
      "street": "R DE STA BÁRBARA",
      "house": "",
      "postcode": "6355-020",
      "city": "AMOREIRA ALD",
      "lon": "-7.012821070380499",
      "lat": "40.5872819904373"
    },
    {
      "id": "pt.ine.add.PTCONT.1973555",
      "street": "R DA ESCOLA NOVA",
      "house": "",
      "postcode": "6355-020",
      "city": "AMOREIRA ALD",
      "lon": "-7.013311888636546",
      "lat": "40.58689052938541"
    },
    {
      "id": "pt.ine.add.PTCONT.1974595",
      "street": "ESTR MUNICIPAL",
      "house": "",
      "postcode": "6355-020",
      "city": "AMOREIRA ALD",
      "lon": "-7.0146019390201975",
      "lat": "40.58815472642211"
    },
    {
      "id": "pt.ine.add.PTCONT.1976162",
      "street": "R DAS LAGES BAGANHOS",
      "house": "",
      "postcode": "6355-020",
      "city": "AMOREIRA ALD",
      "lon": "-7.014545054142677",
      "lat": "40.589441892359545"
    },
    {
      "id": "pt.ine.add.PTCONT.1855918",
      "street": "R DA FONTE GRANDE",
      "house": "",
      "postcode": "6355-020",
      "city": "AMOREIRA ALD",
      "lon": "-7.014996997304546",
      "lat": "40.58642058355409"
    },
    {
      "id": "pt.ine.add.PTCONT.1864913",
      "street": "TV DA ESCOLA NOVA",
      "house": "",
      "postcode": "6355-020",
      "city": "AMOREIRA ALD",
      "lon": "-7.013013485617287",
      "lat": "40.587076741255615"
    },
    {
      "id": "pt.ine.add.PTCONT.1870945",
      "street": "R DA ESTRADA",
      "house": "",
      "postcode": "6355-020",
      "city": "AMOREIRA ALD",
      "lon": "-7.014840913749",
      "lat": "40.58940873720752"
    },
    {
      "id": "pt.ine.add.PTCONT.1878528",
      "street": "R DE STA BÁRBARA",
      "house": "",
      "postcode": "6355-020",
      "city": "AMOREIRA ALD",
      "lon": "-7.01118007835157",
      "lat": "40.588643829049076"
    },
    {
      "id": "pt.ine.add.PTCONT.1879823",
      "street": "R DA ESTRADA",
      "house": "",
      "postcode": "6355-020",
      "city": "AMOREIRA ALD",
      "lon": "-7.014833003278405",
      "lat": "40.589174530301804"
    },
    {
      "id": "pt.ine.add.PTCONT.1895333",
      "street": "R DAS LAGES BAGANHOS",
      "house": "",
      "postcode": "6355-020",
      "city": "AMOREIRA ALD",
      "lon": "-7.014358939152764",
      "lat": "40.58926899453985"
    }
  ]
}