{
  "data": {
    "distrito": "Braga",
    "concelho": "Esposende",
    "freguesia": "Antas",
    "OBJECTID": 398,
    "BGRI2021": "03060100211",
    "DT21": "03",
    "DTMN21": "0306",
    "DTMNFR21": "030601",
    "DTMNFRSEC21": "030601002",
    "SECNUM21": "002",
    "SSNUM21": "11",
    "SECSSNUM21": "00211",
    "OBJECTID_1": 24753,
    "DT": "03",
    "CC": "06",
    "fr": "01",
    "SEC": "002",
    "SS": "11"
  },
  "addresses": [
    {
      "id": "pt.ine.add.PTCONT.569365",
      "street": "R OUTEIRO",
      "house": "2",
      "postcode": "4740-013",
      "city": "ANTAS EPS",
      "lon": "-8.788563173829262",
      "lat": "41.60692052333542"
    },
    {
      "id": "pt.ine.add.PTCONT.592646",
      "street": "R FOZ DO NEIVA",
      "house": "82",
      "postcode": "4740-013",
      "city": "ANTAS EPS",
      "lon": "-8.788107797709177",
      "lat": "41.606968136823355"
    },
    {
      "id": "pt.ine.add.PTCONT.625538",
      "street": "TV PEDREIRAS",
      "house": "9",
      "postcode": "4740-013",
      "city": "ANTAS EPS",
      "lon": "-8.78796694628428",
      "lat": "41.6072750620612"
    },
    {
      "id": "pt.ine.add.PTCONT.817424",
      "street": "R OUTEIRO",
      "house": "4",
      "postcode": "4740-013",
      "city": "ANTAS EPS",
      "lon": "-8.788649330068484",
      "lat": "41.60713611877788"
    },
    {
      "id": "pt.ine.add.PTCONT.831346",
      "street": "R GUILHETA",
      "house": "59",
      "postcode": "4740-013",
      "city": "ANTAS EPS",
      "lon": "-8.78899003977554",
      "lat": "41.60761136687762"
    },
    {
      "id": "pt.ine.add.PTCONT.831347",
      "street": "TV PEDREIRAS",
      "house": "5",
      "postcode": "4740-013",
      "city": "ANTAS EPS",
      "lon": "-8.788061363364818",
      "lat": "41.60712146278594"
    },
    {
      "id": "pt.ine.add.PTCONT.841521",
      "street": "R GUILHETA",
      "house": "51",
      "postcode": "4740-013",
      "city": "ANTAS EPS",
      "lon": "-8.787836450756672",
      "lat": "41.60741986312298"
    }
  ]
}