{
  "data": {
    "distrito": "Braga",
    "concelho": "Esposende",
    "freguesia": "Antas",
    "OBJECTID": 189,
    "BGRI2021": "03060100216",
    "DT21": "03",
    "DTMN21": "0306",
    "DTMNFR21": "030601",
    "DTMNFRSEC21": "030601002",
    "SECNUM21": "002",
    "SSNUM21": "16",
    "SECSSNUM21": "00216",
    "OBJECTID_1": 24591,
    "DT": "03",
    "CC": "06",
    "fr": "01",
    "SEC": "002",
    "SS": "16"
  },
  "addresses": [
    {
      "id": "pt.ine.add.PTCONT.489533",
      "street": "R COTORELA",
      "house": "",
      "postcode": "4740-013",
      "city": "ANTAS EPS",
      "lon": "-8.797276642715063",
      "lat": "41.606159227960454"
    },
    {
      "id": "pt.ine.add.PTCONT.554502",
      "street": "R COTORELA",
      "house": "6",
      "postcode": "4740-013",
      "city": "ANTAS EPS",
      "lon": "-8.79727461137437",
      "lat": "41.60596116023424"
    },
    {
      "id": "pt.ine.add.PTCONT.635291",
      "street": "R INSUA",
      "house": "",
      "postcode": "4740-013",
      "city": "ANTAS EPS",
      "lon": "-8.798093277324213",
      "lat": "41.60741501261304"
    },
    {
      "id": "pt.ine.add.PTCONT.680917",
      "street": "R COTORELA",
      "house": "5",
      "postcode": "4740-013",
      "city": "ANTAS EPS",
      "lon": "-8.797611220602041",
      "lat": "41.60603124395713"
    },
    {
      "id": "pt.ine.add.PTCONT.701811",
      "street": "R COTORELA",
      "house": "3",
      "postcode": "4740-013",
      "city": "ANTAS EPS",
      "lon": "-8.797706259679774",
      "lat": "41.60594065845454"
    },
    {
      "id": "pt.ine.add.PTCONT.773599",
      "street": "R BOUCA",
      "house": "19",
      "postcode": "4740-013",
      "city": "ANTAS EPS",
      "lon": "-8.796642820331241",
      "lat": "41.607522433219806"
    },
    {
      "id": "pt.ine.add.PTCONT.825663",
      "street": "R BOUCA",
      "house": "9",
      "postcode": "4740-013",
      "city": "ANTAS EPS",
      "lon": "-8.796249002305952",
      "lat": "41.60655231563934"
    },
    {
      "id": "pt.ine.add.PTCONT.836600",
      "street": "R COTORELA",
      "house": "13",
      "postcode": "4740-013",
      "city": "ANTAS EPS",
      "lon": "-8.797638629575655",
      "lat": "41.60636421915419"
    },
    {
      "id": "pt.ine.add.PTCONT.847757",
      "street": "R FOZ DO NEIVA",
      "house": "168",
      "postcode": "4740-013",
      "city": "ANTAS EPS",
      "lon": "-8.797823625814946",
      "lat": "41.6056878787585"
    }
  ]
}