{
  "data": {
    "distrito": "Leiria",
    "concelho": "Alvaiázere",
    "freguesia": "Alvaiázere",
    "OBJECTID": 257,
    "BGRI2021": "10020800117",
    "DT21": "10",
    "DTMN21": "1002",
    "DTMNFR21": "100208",
    "DTMNFRSEC21": "100208001",
    "SECNUM21": "001",
    "SSNUM21": "17",
    "SECSSNUM21": "00117",
    "OBJECTID_1": 85396,
    "DT": "10",
    "CC": "02",
    "fr": "08",
    "SEC": "001",
    "SS": "17"
  },
  "addresses": [
    {
      "id": "pt.ine.add.PTCONT.1988648",
      "street": "CAM BARROCA",
      "house": "",
      "postcode": "3250-154",
      "city": "ALVAIÁZERE",
      "lon": "-8.408962719903704",
      "lat": "39.8025342906779"
    },
    {
      "id": "pt.ine.add.PTCONT.2010598",
      "street": "R TECEDEIRAS",
      "house": "",
      "postcode": "3250-142",
      "city": "ALVAIÁZERE",
      "lon": "-8.40617771355382",
      "lat": "39.80399092218165"
    },
    {
      "id": "pt.ine.add.PTCONT.2021423",
      "street": "ESTR NSA SRA COVOES",
      "house": "",
      "postcode": "3250-153",
      "city": "ALVAIÁZERE",
      "lon": "-8.407973316457461",
      "lat": "39.80332020285746"
    },
    {
      "id": "pt.ine.add.PTCONT.2052608",
      "street": "R VALE MATA",
      "house": "",
      "postcode": "3250-142",
      "city": "ALVAIÁZERE",
      "lon": "-8.406103270764321",
      "lat": "39.802883299492315"
    },
    {
      "id": "pt.ine.add.PTCONT.2083775",
      "street": "R VALE MATA",
      "house": "",
      "postcode": "3250-142",
      "city": "ALVAIÁZERE",
      "lon": "-8.406244675250232",
      "lat": "39.80320720027895"
    },
    {
      "id": "pt.ine.add.PTCONT.2094574",
      "street": "ESTR NSA SRA COVOES",
      "house": "",
      "postcode": "3250-153",
      "city": "ALVAIÁZERE",
      "lon": "-8.40825334611891",
      "lat": "39.80326550029546"
    },
    {
      "id": "pt.ine.add.PTCONT.2124273",
      "street": "R TECEDEIRAS",
      "house": "",
      "postcode": "3250-142",
      "city": "ALVAIÁZERE",
      "lon": "-8.405370331564013",
      "lat": "39.803569514482106"
    },
    {
      "id": "pt.ine.add.PTCONT.2201456",
      "street": "ESTR NSA SRA COVOES",
      "house": "",
      "postcode": "3250-153",
      "city": "ALVAIÁZERE",
      "lon": "-8.407529451914693",
      "lat": "39.80328522744249"
    },
    {
      "id": "pt.ine.add.PTCONT.2256286",
      "street": "ESTR NSA SRA COVOES",
      "house": "",
      "postcode": "3250-153",
      "city": "ALVAIÁZERE",
      "lon": "-8.407155470240946",
      "lat": "39.80320505287765"
    }
  ]
}