{
  "data": {
    "distrito": "Guarda",
    "concelho": "Sabugal",
    "freguesia": "União das freguesias de Aldeia da Ribeira, Vilar Maior e Badamalos",
    "OBJECTID": 684,
    "BGRI2021": "09114100133",
    "DT21": "09",
    "DTMN21": "0911",
    "DTMNFR21": "091141",
    "DTMNFRSEC21": "091141001",
    "SECNUM21": "001",
    "SSNUM21": "33",
    "SECSSNUM21": "00133",
    "OBJECTID_1": 80816,
    "DT": "09",
    "CC": "11",
    "fr": "41",
    "SEC": "001",
    "SS": "33"
  },
  "addresses": [
    {
      "id": "pt.ine.add.PTCONT.1898784",
      "street": "",
      "house": "",
      "postcode": "6320-601",
      "city": "VILAR MAIOR",
      "lon": "-6.939640299883471",
      "lat": "40.47455302447433"
    },
    {
      "id": "pt.ine.add.PTCONT.1899241",
      "street": "TV TALAINHA",
      "house": "2",
      "postcode": "6320-601",
      "city": "VILAR MAIOR",
      "lon": "-6.938961415048696",
      "lat": "40.47493323297897"
    },
    {
      "id": "pt.ine.add.PTCONT.1908441",
      "street": "TV CEMITÉRIO",
      "house": "6",
      "postcode": "6320-601",
      "city": "VILAR MAIOR",
      "lon": "-6.9387141445548846",
      "lat": "40.47491266742424"
    },
    {
      "id": "pt.ine.add.PTCONT.1923368",
      "street": "R ARCO",
      "house": "1",
      "postcode": "6320-601",
      "city": "VILAR MAIOR",
      "lon": "-6.93898134072021",
      "lat": "40.47447417641074"
    },
    {
      "id": "pt.ine.add.PTCONT.1926204",
      "street": "R ARCO",
      "house": "",
      "postcode": "6320-601",
      "city": "VILAR MAIOR",
      "lon": "-6.938732795462809",
      "lat": "40.474525638900175"
    },
    {
      "id": "pt.ine.add.PTCONT.1928152",
      "street": "R TALAINHA",
      "house": "2",
      "postcode": "6320-601",
      "city": "VILAR MAIOR",
      "lon": "-6.939752300553199",
      "lat": "40.47488737146326"
    },
    {
      "id": "pt.ine.add.PTCONT.1936215",
      "street": "TV ESCADAS",
      "house": "2",
      "postcode": "6320-601",
      "city": "VILAR MAIOR",
      "lon": "-6.93891951967047",
      "lat": "40.47463563025586"
    },
    {
      "id": "pt.ine.add.PTCONT.1941523",
      "street": "TV CEMITÉRIO",
      "house": "4",
      "postcode": "6320-601",
      "city": "VILAR MAIOR",
      "lon": "-6.938760347144825",
      "lat": "40.474967175790574"
    },
    {
      "id": "pt.ine.add.PTCONT.1944572",
      "street": "LG LARGO DAS PORTAS",
      "house": "4",
      "postcode": "6320-601",
      "city": "VILAR MAIOR",
      "lon": "-6.939372321158989",
      "lat": "40.4743701538363"
    },
    {
      "id": "pt.ine.add.PTCONT.1978474",
      "street": "R EIRAS",
      "house": "2",
      "postcode": "6320-601",
      "city": "VILAR MAIOR",
      "lon": "-6.939862554904443",
      "lat": "40.47465437608303"
    },
    {
      "id": "pt.ine.add.PTCONT.1852507",
      "street": "TV CEMITÉRIO",
      "house": "2",
      "postcode": "6320-601",
      "city": "VILAR MAIOR",
      "lon": "-6.938887963030653",
      "lat": "40.47508556146626"
    },
    {
      "id": "pt.ine.add.PTCONT.1853534",
      "street": "",
      "house": "",
      "postcode": "6320-601",
      "city": "VILAR MAIOR",
      "lon": "-6.938522951554839",
      "lat": "40.4750547736246"
    },
    {
      "id": "pt.ine.add.PTCONT.1859497",
      "street": "R ARCO",
      "house": "",
      "postcode": "6320-601",
      "city": "VILAR MAIOR",
      "lon": "-6.938886383368591",
      "lat": "40.474509215800154"
    },
    {
      "id": "pt.ine.add.PTCONT.1863536",
      "street": "TV TALAINHA",
      "house": "1",
      "postcode": "6320-601",
      "city": "VILAR MAIOR",
      "lon": "-6.939053661219894",
      "lat": "40.47505125299926"
    },
    {
      "id": "pt.ine.add.PTCONT.1876333",
      "street": "TV CEMITÉRIO",
      "house": "1",
      "postcode": "6320-601",
      "city": "VILAR MAIOR",
      "lon": "-6.938663633744231",
      "lat": "40.475101253443164"
    },
    {
      "id": "pt.ine.add.PTCONT.1882231",
      "street": "TV ESCADAS",
      "house": "1",
      "postcode": "6320-601",
      "city": "VILAR MAIOR",
      "lon": "-6.93876529327723",
      "lat": "40.4746880673845"
    }
  ]
}