{
  "data": {
    "distrito": "Lisboa",
    "concelho": "Lisboa",
    "freguesia": "Lumiar",
    "OBJECTID": 1446,
    "BGRI2021": "11061803205",
    "DT21": "11",
    "DTMN21": "1106",
    "DTMNFR21": "110618",
    "DTMNFRSEC21": "110618032",
    "SECNUM21": "032",
    "SSNUM21": "05",
    "SECSSNUM21": "03205",
    "OBJECTID_1": 103075,
    "DT": "11",
    "CC": "06",
    "fr": "18",
    "SEC": "032",
    "SS": "05"
  },
  "addresses": [
    {
      "id": "pt.ine.add.PTCONT.2445501",
      "street": "R ALQUEIDﾃグ",
      "house": "214",
      "postcode": "1600-408",
      "city": "LISBOA",
      "lon": "-9.163220007897104",
      "lat": "38.77567828339689"
    },
    {
      "id": "pt.ine.add.PTCONT.2445502",
      "street": "R ALQUEIDﾃグ",
      "house": "214",
      "postcode": "1600-408",
      "city": "LISBOA",
      "lon": "-9.163220007897104",
      "lat": "38.77567828339689"
    },
    {
      "id": "pt.ine.add.PTCONT.2471832",
      "street": "R DO LUMIAR",
      "house": "93",
      "postcode": "1750-162",
      "city": "LISBOA",
      "lon": "-9.163618590165708",
      "lat": "38.77618821277887"
    },
    {
      "id": "pt.ine.add.PTCONT.2471833",
      "street": "R DO LUMIAR",
      "house": "93",
      "postcode": "1750-162",
      "city": "LISBOA",
      "lon": "-9.163618590165708",
      "lat": "38.77618821277887"
    },
    {
      "id": "pt.ine.add.PTCONT.2471834",
      "street": "R DO LUMIAR",
      "house": "93",
      "postcode": "1750-162",
      "city": "LISBOA",
      "lon": "-9.163618590165708",
      "lat": "38.77618821277887"
    },
    {
      "id": "pt.ine.add.PTCONT.2542593",
      "street": "R LUMIAR",
      "house": "121",
      "postcode": "1750-162",
      "city": "LISBOA",
      "lon": "-9.1639813638932",
      "lat": "38.77660837881863"
    },
    {
      "id": "pt.ine.add.PTCONT.2547811",
      "street": "R LUMIAR",
      "house": "123",
      "postcode": "1750-162",
      "city": "LISBOA",
      "lon": "-9.1639813638932",
      "lat": "38.77660837881863"
    },
    {
      "id": "pt.ine.add.PTCONT.2740790",
      "street": "R LUMIAR",
      "house": "127",
      "postcode": "1750-162",
      "city": "LISBOA",
      "lon": "-9.164039800892748",
      "lat": "38.77667091776112"
    },
    {
      "id": "pt.ine.add.PTCONT.2740791",
      "street": "R LUMIAR",
      "house": "127",
      "postcode": "1750-162",
      "city": "LISBOA",
      "lon": "-9.164039800892748",
      "lat": "38.77667091776112"
    },
    {
      "id": "pt.ine.add.PTCONT.2740792",
      "street": "R LUMIAR",
      "house": "127",
      "postcode": "1750-162",
      "city": "LISBOA",
      "lon": "-9.164039800892748",
      "lat": "38.77667091776112"
    },
    {
      "id": "pt.ine.add.PTCONT.2740793",
      "street": "R LUMIAR",
      "house": "127",
      "postcode": "1750-162",
      "city": "LISBOA",
      "lon": "-9.164039800892748",
      "lat": "38.77667091776112"
    },
    {
      "id": "pt.ine.add.PTCONT.2799353",
      "street": "TV MORAIS",
      "house": "2",
      "postcode": "1600-525",
      "city": "LISBOA",
      "lon": "-9.163583295111401",
      "lat": "38.77613447733205"
    },
    {
      "id": "pt.ine.add.PTCONT.2861632",
      "street": "TV MORAIS",
      "house": "4",
      "postcode": "1600-525",
      "city": "LISBOA",
      "lon": "-9.163696797437495",
      "lat": "38.77602538302099"
    },
    {
      "id": "pt.ine.add.PTCONT.2861633",
      "street": "TV MORAIS",
      "house": "4",
      "postcode": "1600-525",
      "city": "LISBOA",
      "lon": "-9.163696797437495",
      "lat": "38.77602538302099"
    },
    {
      "id": "pt.ine.add.PTCONT.2861634",
      "street": "TV MORAIS",
      "house": "4",
      "postcode": "1600-525",
      "city": "LISBOA",
      "lon": "-9.163696797437495",
      "lat": "38.77602538302099"
    },
    {
      "id": "pt.ine.add.PTCONT.2955534",
      "street": "R PENA MONTEIRO",
      "house": "1",
      "postcode": "1600-568",
      "city": "LISBOA",
      "lon": "-9.16367689687673",
      "lat": "38.77624174527816"
    },
    {
      "id": "pt.ine.add.PTCONT.2955535",
      "street": "R PENA MONTEIRO",
      "house": "1",
      "postcode": "1600-568",
      "city": "LISBOA",
      "lon": "-9.16367689687673",
      "lat": "38.77624174527816"
    },
    {
      "id": "pt.ine.add.PTCONT.2955536",
      "street": "R PENA MONTEIRO",
      "house": "1",
      "postcode": "1600-568",
      "city": "LISBOA",
      "lon": "-9.16367689687673",
      "lat": "38.77624174527816"
    },
    {
      "id": "pt.ine.add.PTCONT.2955537",
      "street": "R PENA MONTEIRO",
      "house": "1",
      "postcode": "1600-568",
      "city": "LISBOA",
      "lon": "-9.16367689687673",
      "lat": "38.77624174527816"
    },
    {
      "id": "pt.ine.add.PTCONT.2955538",
      "street": "R PENA MONTEIRO",
      "house": "1",
      "postcode": "1600-568",
      "city": "LISBOA",
      "lon": "-9.16367689687673",
      "lat": "38.77624174527816"
    },
    {
      "id": "pt.ine.add.PTCONT.3085332",
      "street": "TV ALQUEIDﾃグ",
      "house": "4",
      "postcode": "1600-409",
      "city": "LISBOA",
      "lon": "-9.163487749634681",
      "lat": "38.77589210971907"
    },
    {
      "id": "pt.ine.add.PTCONT.3094207",
      "street": "TV MORAIS",
      "house": "13",
      "postcode": "1600-525",
      "city": "LISBOA",
      "lon": "-9.16361444245218",
      "lat": "38.77590000034428"
    },
    {
      "id": "pt.ine.add.PTCONT.3139685",
      "street": "TV MORAIS",
      "house": "1",
      "postcode": "1600-525",
      "city": "LISBOA",
      "lon": "-9.16346629330184",
      "lat": "38.77600039228582"
    },
    {
      "id": "pt.ine.add.PTCONT.3309234",
      "street": "TV ALQUEIDAO",
      "house": "81 2",
      "postcode": "1600-409",
      "city": "LISBOA",
      "lon": "-9.163407727767876",
      "lat": "38.775928846395715"
    },
    {
      "id": "pt.ine.add.PTCONT.3309235",
      "street": "R LUMIAR",
      "house": "81",
      "postcode": "1750-162",
      "city": "LISBOA",
      "lon": "-9.163407727767876",
      "lat": "38.775928846395715"
    },
    {
      "id": "pt.ine.add.PTCONT.3309236",
      "street": "R ALQUEIDﾃグ",
      "house": "6",
      "postcode": "1600-408",
      "city": "LISBOA",
      "lon": "-9.163345922831011",
      "lat": "38.77563213447865"
    },
    {
      "id": "pt.ine.add.PTCONT.3327412",
      "street": "R LUMIAR",
      "house": "73",
      "postcode": "1750-161",
      "city": "LISBOA",
      "lon": "-9.163232420572653",
      "lat": "38.77574122845489"
    },
    {
      "id": "pt.ine.add.PTCONT.3327413",
      "street": "R LUMIAR",
      "house": "73",
      "postcode": "1750-161",
      "city": "LISBOA",
      "lon": "-9.163232420572653",
      "lat": "38.77574122845489"
    },
    {
      "id": "pt.ine.add.PTCONT.3332883",
      "street": "R LUMIAR",
      "house": "73",
      "postcode": "1750-161",
      "city": "LISBOA",
      "lon": "-9.163232420572653",
      "lat": "38.77574122845489"
    }
  ]
}