{
  "data": {
    "distrito": "Vila Real",
    "concelho": "Chaves",
    "freguesia": "Nogueira da Montanha",
    "OBJECTID": 1411,
    "BGRI2021": "17031800125",
    "DT21": "17",
    "DTMN21": "1703",
    "DTMNFR21": "170318",
    "DTMNFRSEC21": "170318001",
    "SECNUM21": "001",
    "SSNUM21": "25",
    "SECSSNUM21": "00125",
    "OBJECTID_1": 182295,
    "DT": "17",
    "CC": "03",
    "fr": "18",
    "SEC": "001",
    "SS": "25"
  },
  "addresses": [
    {
      "id": "pt.ine.add.PTCONT.5292083",
      "street": "R DE STA CATARINA",
      "house": "3",
      "postcode": "5400-646",
      "city": "NOGUEIRA DA MONTANHA",
      "lon": "-7.444653014385417",
      "lat": "41.67108504967145"
    },
    {
      "id": "pt.ine.add.PTCONT.5300197",
      "street": "R DA ESCOLA",
      "house": "2",
      "postcode": "5400-646",
      "city": "NOGUEIRA DA MONTANHA",
      "lon": "-7.445694304720035",
      "lat": "41.67140640510892"
    },
    {
      "id": "pt.ine.add.PTCONT.5305403",
      "street": "R DE STA CATARINA",
      "house": "3 A",
      "postcode": "5400-646",
      "city": "NOGUEIRA DA MONTANHA",
      "lon": "-7.445394789302386",
      "lat": "41.671341588758544"
    },
    {
      "id": "pt.ine.add.PTCONT.5320092",
      "street": "R DAS CASAS DE BAIXO",
      "house": "2",
      "postcode": "5400-646",
      "city": "NOGUEIRA DA MONTANHA",
      "lon": "-7.443662933030722",
      "lat": "41.671592314493246"
    },
    {
      "id": "pt.ine.add.PTCONT.5336423",
      "street": "R CASTELAR",
      "house": "1",
      "postcode": "5400-646",
      "city": "NOGUEIRA DA MONTANHA",
      "lon": "-7.445012948358001",
      "lat": "41.671114215673036"
    },
    {
      "id": "pt.ine.add.PTCONT.5356059",
      "street": "R DAS CASAS DE BAIXO",
      "house": "35",
      "postcode": "5400-646",
      "city": "NOGUEIRA DA MONTANHA",
      "lon": "-7.443867444323356",
      "lat": "41.671557527103666"
    },
    {
      "id": "pt.ine.add.PTCONT.5373447",
      "street": "R DA ESCOLA",
      "house": "4",
      "postcode": "5400-646",
      "city": "NOGUEIRA DA MONTANHA",
      "lon": "-7.445618907186522",
      "lat": "41.67172107680936"
    },
    {
      "id": "pt.ine.add.PTCONT.5400258",
      "street": "R DE STA CATARINA",
      "house": "",
      "postcode": "5400-646",
      "city": "NOGUEIRA DA MONTANHA",
      "lon": "-7.444472519780444",
      "lat": "41.671119982368054"
    },
    {
      "id": "pt.ine.add.PTCONT.5425209",
      "street": "R DA ESCOLA",
      "house": "8",
      "postcode": "5400-646",
      "city": "NOGUEIRA DA MONTANHA",
      "lon": "-7.445279821697139",
      "lat": "41.67198915313206"
    }
  ]
}