{
  "data": {
    "distrito": "Aveiro",
    "concelho": "Santa Maria da Feira",
    "freguesia": "São João de Ver",
    "OBJECTID": 1150,
    "BGRI2021": "01092600209",
    "DT21": "01",
    "DTMN21": "0109",
    "DTMNFR21": "010926",
    "DTMNFRSEC21": "010926002",
    "SECNUM21": "002",
    "SSNUM21": "09",
    "SECSSNUM21": "00209",
    "OBJECTID_1": 6299,
    "DT": "01",
    "CC": "09",
    "fr": "26",
    "SEC": "002",
    "SS": "09"
  },
  "addresses": [
    {
      "id": "pt.ine.add.PTCONT.296152",
      "street": "TV S SEBASTIÃO",
      "house": "9",
      "postcode": "4520-606",
      "city": "SÃO JOÃO DE VER",
      "lon": "-8.571115497936782",
      "lat": "40.95305498821144"
    },
    {
      "id": "pt.ine.add.PTCONT.19669",
      "street": "R S ANA",
      "house": "29",
      "postcode": "4520-606",
      "city": "SÃO JOÃO DE VER",
      "lon": "-8.570701769756694",
      "lat": "40.953353713336966"
    },
    {
      "id": "pt.ine.add.PTCONT.20815",
      "street": "R S ANA",
      "house": "29",
      "postcode": "4520-606",
      "city": "SÃO JOÃO DE VER",
      "lon": "-8.570701769756694",
      "lat": "40.953353713336966"
    },
    {
      "id": "pt.ine.add.PTCONT.38610",
      "street": "TV S ANA",
      "house": "23",
      "postcode": "4520-606",
      "city": "SÃO JOÃO DE VER",
      "lon": "-8.57070361290794",
      "lat": "40.95363285114856"
    },
    {
      "id": "pt.ine.add.PTCONT.62778",
      "street": "R CALFADA",
      "house": "44",
      "postcode": "4520-606",
      "city": "SÃO JOÃO DE VER",
      "lon": "-8.571602449290552",
      "lat": "40.95305313731337"
    },
    {
      "id": "pt.ine.add.PTCONT.68883",
      "street": "R S ANA",
      "house": "27",
      "postcode": "4520-606",
      "city": "SÃO JOÃO DE VER",
      "lon": "-8.570783778300086",
      "lat": "40.95318231330197"
    },
    {
      "id": "pt.ine.add.PTCONT.79111",
      "street": "R BEIRE",
      "house": "1843",
      "postcode": "4520-606",
      "city": "SÃO JOÃO DE VER",
      "lon": "-8.568057176099021",
      "lat": "40.95396703300738"
    },
    {
      "id": "pt.ine.add.PTCONT.84724",
      "street": "TV S SEBASTIÃO",
      "house": "129",
      "postcode": "4520-606",
      "city": "SÃO JOÃO DE VER",
      "lon": "-8.571621952540488",
      "lat": "40.95420566100397"
    },
    {
      "id": "pt.ine.add.PTCONT.84725",
      "street": "TV S SEBASTIÃO",
      "house": "129",
      "postcode": "4520-606",
      "city": "SÃO JOÃO DE VER",
      "lon": "-8.571621952540488",
      "lat": "40.95420566100397"
    },
    {
      "id": "pt.ine.add.PTCONT.87186",
      "street": "R S ANA",
      "house": "55",
      "postcode": "4520-606",
      "city": "SÃO JOÃO DE VER",
      "lon": "-8.568505072065166",
      "lat": "40.95344307157602"
    },
    {
      "id": "pt.ine.add.PTCONT.87187",
      "street": "R S ANA",
      "house": "55",
      "postcode": "4520-606",
      "city": "SÃO JOÃO DE VER",
      "lon": "-8.568505072065166",
      "lat": "40.95344307157602"
    },
    {
      "id": "pt.ine.add.PTCONT.132405",
      "street": "AV SANTIAGO",
      "house": "406",
      "postcode": "4520-606",
      "city": "SÃO JOÃO DE VER",
      "lon": "-8.569858907648094",
      "lat": "40.95702180932648"
    },
    {
      "id": "pt.ine.add.PTCONT.159041",
      "street": "TV S ANA",
      "house": "45",
      "postcode": "4520-606",
      "city": "SÃO JOÃO DE VER",
      "lon": "-8.570729388502192",
      "lat": "40.95393891212395"
    },
    {
      "id": "pt.ine.add.PTCONT.220689",
      "street": "R BEIRE",
      "house": "159",
      "postcode": "4520-606",
      "city": "SÃO JOÃO DE VER",
      "lon": "-8.568124773658322",
      "lat": "40.9534084883621"
    },
    {
      "id": "pt.ine.add.PTCONT.269372",
      "street": "R CALÇADA",
      "house": "106",
      "postcode": "4520-606",
      "city": "SÃO JOÃO DE VER",
      "lon": "-8.571886838184058",
      "lat": "40.95295300401293"
    },
    {
      "id": "pt.ine.add.PTCONT.285241",
      "street": "TV S SEBASTIÃO",
      "house": "4",
      "postcode": "4520-606",
      "city": "SÃO JOÃO DE VER",
      "lon": "-8.571107013190419",
      "lat": "40.95356828671373"
    }
  ]
}