{
  "data": {
    "distrito": "Leiria",
    "concelho": "Leiria",
    "freguesia": "Caranguejeira",
    "OBJECTID": 2015,
    "BGRI2021": "10090700229",
    "DT21": "10",
    "DTMN21": "1009",
    "DTMNFR21": "100907",
    "DTMNFRSEC21": "100907002",
    "SECNUM21": "002",
    "SSNUM21": "29",
    "SECSSNUM21": "00229",
    "OBJECTID_1": 91653,
    "DT": "10",
    "CC": "09",
    "fr": "07",
    "SEC": "002",
    "SS": "29"
  },
  "addresses": [
    {
      "id": "pt.ine.add.PTCONT.2017807",
      "street": "TV VALES FERREIROS",
      "house": "10",
      "postcode": "2420-124",
      "city": "CARANGUEJEIRA",
      "lon": "-8.712400395472718",
      "lat": "39.75705940512302"
    },
    {
      "id": "pt.ine.add.PTCONT.2061893",
      "street": "TV VALES FERREIROS",
      "house": "6",
      "postcode": "2420-124",
      "city": "CARANGUEJEIRA",
      "lon": "-8.712129302713672",
      "lat": "39.75673652403772"
    },
    {
      "id": "pt.ine.add.PTCONT.2160195",
      "street": "R VALES FERREIROS",
      "house": "6",
      "postcode": "2420-124",
      "city": "CARANGUEJEIRA",
      "lon": "-8.712378567267166",
      "lat": "39.75723964391063"
    },
    {
      "id": "pt.ine.add.PTCONT.2160196",
      "street": "TV VALES FERREIROS",
      "house": "8",
      "postcode": "2420-124",
      "city": "CARANGUEJEIRA",
      "lon": "-8.712108228031028",
      "lat": "39.75700682395503"
    },
    {
      "id": "pt.ine.add.PTCONT.2181781",
      "street": "R CLEMENCIA",
      "house": "2",
      "postcode": "2420-124",
      "city": "CARANGUEJEIRA",
      "lon": "-8.712298471099071",
      "lat": "39.75742917995011"
    },
    {
      "id": "pt.ine.add.PTCONT.2184089",
      "street": "R CLEMENCIA",
      "house": "10",
      "postcode": "2420-124",
      "city": "CARANGUEJEIRA",
      "lon": "-8.711442146394406",
      "lat": "39.75828906651859"
    },
    {
      "id": "pt.ine.add.PTCONT.2188573",
      "street": "R CLEMENCIA",
      "house": "4",
      "postcode": "2420-124",
      "city": "CARANGUEJEIRA",
      "lon": "-8.712194584551051",
      "lat": "39.757564795672465"
    },
    {
      "id": "pt.ine.add.PTCONT.2213405",
      "street": "R CLEMENCIA",
      "house": "6",
      "postcode": "2420-124",
      "city": "CARANGUEJEIRA",
      "lon": "-8.711858152674715",
      "lat": "39.75780064245181"
    },
    {
      "id": "pt.ine.add.PTCONT.2254199",
      "street": "R CARRIGO",
      "house": "1",
      "postcode": "2420-124",
      "city": "CARANGUEJEIRA",
      "lon": "-8.711756135392982",
      "lat": "39.75676540445418"
    },
    {
      "id": "pt.ine.add.PTCONT.2266906",
      "street": "R CLEMENCIA",
      "house": "12",
      "postcode": "2420-124",
      "city": "CARANGUEJEIRA",
      "lon": "-8.711338482838626",
      "lat": "39.75845169982259"
    }
  ]
}