{
  "data": {
    "distrito": "Guarda",
    "concelho": "Sabugal",
    "freguesia": "Rendo",
    "OBJECTID": 442,
    "BGRI2021": "09112700108",
    "DT21": "09",
    "DTMN21": "0911",
    "DTMNFR21": "091127",
    "DTMNFRSEC21": "091127001",
    "SECNUM21": "001",
    "SSNUM21": "08",
    "SECSSNUM21": "00108",
    "OBJECTID_1": 81452,
    "DT": "09",
    "CC": "11",
    "fr": "27",
    "SEC": "001",
    "SS": "08"
  },
  "addresses": [
    {
      "id": "pt.ine.add.PTCONT.1924224",
      "street": "R CAMPO",
      "house": "27",
      "postcode": "6320-281",
      "city": "RENDO",
      "lon": "-7.026127416447713",
      "lat": "40.36722448303616"
    },
    {
      "id": "pt.ine.add.PTCONT.1925172",
      "street": "R CAMPO",
      "house": "23",
      "postcode": "6320-281",
      "city": "RENDO",
      "lon": "-7.026380351795432",
      "lat": "40.367596123444585"
    },
    {
      "id": "pt.ine.add.PTCONT.1933212",
      "street": "R CIMEIRA",
      "house": "9",
      "postcode": "6320-283",
      "city": "RENDO",
      "lon": "-7.026839003338555",
      "lat": "40.3676275281244"
    },
    {
      "id": "pt.ine.add.PTCONT.1934260",
      "street": "R CIMEIRA",
      "house": "7",
      "postcode": "6320-283",
      "city": "RENDO",
      "lon": "-7.027027938203234",
      "lat": "40.367593314020006"
    },
    {
      "id": "pt.ine.add.PTCONT.1957040",
      "street": "R FERREIROS",
      "house": "4",
      "postcode": "6320-281",
      "city": "RENDO",
      "lon": "-7.028612991961672",
      "lat": "40.36786061392991"
    },
    {
      "id": "pt.ine.add.PTCONT.1963557",
      "street": "R CIMEIRA",
      "house": "1",
      "postcode": "6320-283",
      "city": "RENDO",
      "lon": "-7.027380203950504",
      "lat": "40.367650714987846"
    },
    {
      "id": "pt.ine.add.PTCONT.1873289",
      "street": "R AMOREIRAS",
      "house": "8",
      "postcode": "6320-282",
      "city": "RENDO",
      "lon": "-7.0206492888482455",
      "lat": "40.37388089412186"
    },
    {
      "id": "pt.ine.add.PTCONT.1883082",
      "street": "R CIMEIRA",
      "house": "25",
      "postcode": "6320-281",
      "city": "RENDO",
      "lon": "-7.026337978786175",
      "lat": "40.367307546658246"
    },
    {
      "id": "pt.ine.add.PTCONT.1891923",
      "street": "R FERREIROS",
      "house": "6",
      "postcode": "6320-281",
      "city": "RENDO",
      "lon": "-7.028327825184616",
      "lat": "40.36801998621692"
    }
  ]
}