{
  "data": {
    "distrito": "Guarda",
    "concelho": "Sabugal",
    "freguesia": "Rendo",
    "OBJECTID": 487,
    "BGRI2021": "09112700110",
    "DT21": "09",
    "DTMN21": "0911",
    "DTMNFR21": "091127",
    "DTMNFRSEC21": "091127001",
    "SECNUM21": "001",
    "SSNUM21": "10",
    "SECSSNUM21": "00110",
    "OBJECTID_1": 80786,
    "DT": "09",
    "CC": "11",
    "fr": "27",
    "SEC": "001",
    "SS": "10"
  },
  "addresses": [
    {
      "id": "pt.ine.add.PTCONT.1901022",
      "street": "R AMOREIRAS",
      "house": "3",
      "postcode": "6320-282",
      "city": "RENDO",
      "lon": "-7.020927836107619",
      "lat": "40.37412671768226"
    },
    {
      "id": "pt.ine.add.PTCONT.1901023",
      "street": "TV FORNO",
      "house": "4",
      "postcode": "6320-282",
      "city": "RENDO",
      "lon": "-7.021124123964242",
      "lat": "40.37436274422441"
    },
    {
      "id": "pt.ine.add.PTCONT.1904859",
      "street": "TV CRUZEIRO",
      "house": "2",
      "postcode": "6320-282",
      "city": "RENDO",
      "lon": "-7.020078637295798",
      "lat": "40.374929027333415"
    },
    {
      "id": "pt.ine.add.PTCONT.1906251",
      "street": "TV CRUZEIRO",
      "house": "3",
      "postcode": "6320-282",
      "city": "RENDO",
      "lon": "-7.01980978792582",
      "lat": "40.37480936984954"
    },
    {
      "id": "pt.ine.add.PTCONT.1933203",
      "street": "LG EIRA",
      "house": "2",
      "postcode": "6320-282",
      "city": "RENDO",
      "lon": "-7.0188757282231276",
      "lat": "40.375043517274754"
    },
    {
      "id": "pt.ine.add.PTCONT.1937383",
      "street": "R CANTO",
      "house": "3",
      "postcode": "6320-282",
      "city": "RENDO",
      "lon": "-7.020284109144843",
      "lat": "40.37460681275634"
    },
    {
      "id": "pt.ine.add.PTCONT.1945321",
      "street": "R CANTO",
      "house": "5",
      "postcode": "6320-282",
      "city": "RENDO",
      "lon": "-7.0198492559947105",
      "lat": "40.374557600385046"
    },
    {
      "id": "pt.ine.add.PTCONT.1954402",
      "street": "R CRUZEIRO",
      "house": "1",
      "postcode": "6320-282",
      "city": "RENDO",
      "lon": "-7.019405952933698",
      "lat": "40.3750216092075"
    },
    {
      "id": "pt.ine.add.PTCONT.1967124",
      "street": "R CHAFARIZ",
      "house": "6",
      "postcode": "6320-282",
      "city": "RENDO",
      "lon": "-7.020358597377573",
      "lat": "40.37437339079391"
    },
    {
      "id": "pt.ine.add.PTCONT.1972148",
      "street": "LG FORNO",
      "house": "2",
      "postcode": "6320-282",
      "city": "RENDO",
      "lon": "-7.021110722885347",
      "lat": "40.374461674076564"
    },
    {
      "id": "pt.ine.add.PTCONT.1972149",
      "street": "TV CHAFARIZES",
      "house": "2",
      "postcode": "6320-282",
      "city": "RENDO",
      "lon": "-7.020815662728554",
      "lat": "40.374503862953055"
    },
    {
      "id": "pt.ine.add.PTCONT.1850475",
      "street": "R CANTO",
      "house": "3",
      "postcode": "6320-282",
      "city": "RENDO",
      "lon": "-7.020210361128689",
      "lat": "40.37479521509708"
    },
    {
      "id": "pt.ine.add.PTCONT.1852443",
      "street": "LG CHAFARIZ",
      "house": "4",
      "postcode": "6320-282",
      "city": "RENDO",
      "lon": "-7.020158904669283",
      "lat": "40.37434445296982"
    },
    {
      "id": "pt.ine.add.PTCONT.1858369",
      "street": "R CHAFARIZ",
      "house": "5",
      "postcode": "6320-282",
      "city": "RENDO",
      "lon": "-7.020136988854208",
      "lat": "40.374245183315594"
    },
    {
      "id": "pt.ine.add.PTCONT.1869458",
      "street": "R EIRAS",
      "house": "3",
      "postcode": "6320-282",
      "city": "RENDO",
      "lon": "-7.018956006133405",
      "lat": "40.37445894389846"
    },
    {
      "id": "pt.ine.add.PTCONT.1872420",
      "street": "R EIRAS",
      "house": "5",
      "postcode": "6320-282",
      "city": "RENDO",
      "lon": "-7.0184732244059544",
      "lat": "40.375174718153865"
    },
    {
      "id": "pt.ine.add.PTCONT.1887744",
      "street": "R CANTO",
      "house": "4",
      "postcode": "6320-282",
      "city": "RENDO",
      "lon": "-7.020386213227372",
      "lat": "40.3748419341"
    },
    {
      "id": "pt.ine.add.PTCONT.1888918",
      "street": "R CANTO",
      "house": "4",
      "postcode": "6320-282",
      "city": "RENDO",
      "lon": "-7.019933888405578",
      "lat": "40.37442333507775"
    },
    {
      "id": "pt.ine.add.PTCONT.1890863",
      "street": "R CANTO",
      "house": "2",
      "postcode": "6320-282",
      "city": "RENDO",
      "lon": "-7.02003939893799",
      "lat": "40.37445136675604"
    },
    {
      "id": "pt.ine.add.PTCONT.1890864",
      "street": "TV FORNO",
      "house": "3",
      "postcode": "6320-282",
      "city": "RENDO",
      "lon": "-7.020959601194554",
      "lat": "40.374343151321845"
    },
    {
      "id": "pt.ine.add.PTCONT.1891914",
      "street": "TV CRUZEIRO",
      "house": "1",
      "postcode": "6320-282",
      "city": "RENDO",
      "lon": "-7.019893679785677",
      "lat": "40.37472012413579"
    }
  ]
}