{
  "data": {
    "distrito": "Leiria",
    "concelho": "Leiria",
    "freguesia": "União das freguesias de Santa Catarina da Serra e Chainça",
    "OBJECTID": 52,
    "BGRI2021": "10093800228",
    "DT21": "10",
    "DTMN21": "1009",
    "DTMNFR21": "100938",
    "DTMNFRSEC21": "100938002",
    "SECNUM21": "002",
    "SSNUM21": "28",
    "SECSSNUM21": "00228",
    "OBJECTID_1": 91109,
    "DT": "10",
    "CC": "09",
    "fr": "38",
    "SEC": "002",
    "SS": "28"
  },
  "addresses": [
    {
      "id": "pt.ine.add.PTCONT.1996440",
      "street": "R NOVA DA LAGOA",
      "house": "",
      "postcode": "2495-183",
      "city": "SANTA CATARINA DA SERRA",
      "lon": "-8.676518954277954",
      "lat": "39.675453321482685"
    },
    {
      "id": "pt.ine.add.PTCONT.1997603",
      "street": "R COVOES",
      "house": "1",
      "postcode": "2495-183",
      "city": "SANTA CATARINA DA SERRA",
      "lon": "-8.67486594947058",
      "lat": "39.67720833027882"
    },
    {
      "id": "pt.ine.add.PTCONT.2009376",
      "street": "R CENTRO CULTURAL",
      "house": "7",
      "postcode": "2495-183",
      "city": "SANTA CATARINA DA SERRA",
      "lon": "-8.676538241271544",
      "lat": "39.67493985338027"
    },
    {
      "id": "pt.ine.add.PTCONT.2022854",
      "street": "R ERMIDA",
      "house": "14",
      "postcode": "2495-183",
      "city": "SANTA CATARINA DA SERRA",
      "lon": "-8.676107416368241",
      "lat": "39.67648200201634"
    },
    {
      "id": "pt.ine.add.PTCONT.2026942",
      "street": "R ESTRADA VELHA",
      "house": "1",
      "postcode": "2495-183",
      "city": "SANTA CATARINA DA SERRA",
      "lon": "-8.675164197946522",
      "lat": "39.67659448793406"
    },
    {
      "id": "pt.ine.add.PTCONT.2046560",
      "street": "R ERMIDA",
      "house": "1",
      "postcode": "2495-183",
      "city": "SANTA CATARINA DA SERRA",
      "lon": "-8.676520506921623",
      "lat": "39.67565146004338"
    },
    {
      "id": "pt.ine.add.PTCONT.2049026",
      "street": "R CENTRO CULTURAL",
      "house": "",
      "postcode": "2495-183",
      "city": "SANTA CATARINA DA SERRA",
      "lon": "-8.675934797935954",
      "lat": "39.67527592083615"
    },
    {
      "id": "pt.ine.add.PTCONT.2051688",
      "street": "LG TERREIRO",
      "house": "1",
      "postcode": "2495-183",
      "city": "SANTA CATARINA DA SERRA",
      "lon": "-8.676410955294415",
      "lat": "39.675057535111115"
    },
    {
      "id": "pt.ine.add.PTCONT.2052072",
      "street": "R CENTRAL",
      "house": "30",
      "postcode": "2495-183",
      "city": "SANTA CATARINA DA SERRA",
      "lon": "-8.675299763870912",
      "lat": "39.676044450803936"
    },
    {
      "id": "pt.ine.add.PTCONT.2108163",
      "street": "R CENTRAL",
      "house": "26",
      "postcode": "2495-183",
      "city": "SANTA CATARINA DA SERRA",
      "lon": "-8.674628554664439",
      "lat": "39.67666003325638"
    },
    {
      "id": "pt.ine.add.PTCONT.2135113",
      "street": "R DA MITRA PEDROME",
      "house": "",
      "postcode": "2495-186",
      "city": "SANTA CATARINA DA SERRA",
      "lon": "-8.678251769300275",
      "lat": "39.677931029153086"
    },
    {
      "id": "pt.ine.add.PTCONT.2136395",
      "street": "R ERMIDA",
      "house": "2",
      "postcode": "2495-183",
      "city": "SANTA CATARINA DA SERRA",
      "lon": "-8.676159767372694",
      "lat": "39.67572520049938"
    },
    {
      "id": "pt.ine.add.PTCONT.2136406",
      "street": "R COVOES",
      "house": "3",
      "postcode": "2495-183",
      "city": "SANTA CATARINA DA SERRA",
      "lon": "-8.675101095410492",
      "lat": "39.677468425230764"
    },
    {
      "id": "pt.ine.add.PTCONT.2162562",
      "street": "R CENTRO CULTURAL",
      "house": "9",
      "postcode": "2495-183",
      "city": "SANTA CATARINA DA SERRA",
      "lon": "-8.676455387223523",
      "lat": "39.674778121724536"
    },
    {
      "id": "pt.ine.add.PTCONT.2164791",
      "street": "R CENTRAL",
      "house": "34",
      "postcode": "2495-183",
      "city": "SANTA CATARINA DA SERRA",
      "lon": "-8.675610926747318",
      "lat": "39.67559266623168"
    },
    {
      "id": "pt.ine.add.PTCONT.2184321",
      "street": "R COVOES",
      "house": "17",
      "postcode": "2495-183",
      "city": "SANTA CATARINA DA SERRA",
      "lon": "-8.675682633331876",
      "lat": "39.67879869014765"
    },
    {
      "id": "pt.ine.add.PTCONT.2192018",
      "street": "LG TERREIRO",
      "house": "1",
      "postcode": "2495-183",
      "city": "SANTA CATARINA DA SERRA",
      "lon": "-8.67610821099377",
      "lat": "39.67509497755812"
    },
    {
      "id": "pt.ine.add.PTCONT.2218029",
      "street": "LG TERREIRO",
      "house": "4",
      "postcode": "2495-183",
      "city": "SANTA CATARINA DA SERRA",
      "lon": "-8.676470711508173",
      "lat": "39.67524639474976"
    }
  ]
}