{
  "data": {
    "distrito": "Braga",
    "concelho": "Vizela",
    "freguesia": "União das freguesias de Caldas de Vizela (São Miguel e São João)",
    "OBJECTID": 16,
    "BGRI2021": "03140800715",
    "DT21": "03",
    "DTMN21": "0314",
    "DTMNFR21": "031408",
    "DTMNFRSEC21": "031408007",
    "SECNUM21": "007",
    "SSNUM21": "15",
    "SECSSNUM21": "00715",
    "OBJECTID_1": 33067,
    "DT": "03",
    "CC": "14",
    "fr": "08",
    "SEC": "007",
    "SS": "15"
  },
  "addresses": [
    {
      "id": "pt.ine.add.PTCONT.461408",
      "street": "R NOVA DOS CASAIS",
      "house": "1127",
      "postcode": "4815-436",
      "city": "VIZELA",
      "lon": "-8.316750251155987",
      "lat": "41.37010303447945"
    },
    {
      "id": "pt.ine.add.PTCONT.464170",
      "street": "R AMARO DE SOUSA",
      "house": "338",
      "postcode": "4815-565",
      "city": "VIZELA",
      "lon": "-8.319869900877634",
      "lat": "41.370098013950674"
    },
    {
      "id": "pt.ine.add.PTCONT.466899",
      "street": "R AMARO SOUSA",
      "house": "318",
      "postcode": "4815-565",
      "city": "VIZELA",
      "lon": "-8.319594372156143",
      "lat": "41.3698823635865"
    },
    {
      "id": "pt.ine.add.PTCONT.466900",
      "street": "R AMARO SOUSA",
      "house": "308",
      "postcode": "4815-565",
      "city": "VIZELA",
      "lon": "-8.319594372156143",
      "lat": "41.3698823635865"
    },
    {
      "id": "pt.ine.add.PTCONT.472998",
      "street": "R S PAULO",
      "house": "1",
      "postcode": "4815-443",
      "city": "VIZELA",
      "lon": "-8.319207243525176",
      "lat": "41.368253257074365"
    },
    {
      "id": "pt.ine.add.PTCONT.476152",
      "street": "R LIBERDADE",
      "house": "423",
      "postcode": "4815-410",
      "city": "VIZELA",
      "lon": "-8.320252257598115",
      "lat": "41.370052372551065"
    },
    {
      "id": "pt.ine.add.PTCONT.488012",
      "street": "R NOVA",
      "house": "975 A",
      "postcode": "4815-436",
      "city": "VIZELA",
      "lon": "-8.316007217860612",
      "lat": "41.369401901895564"
    },
    {
      "id": "pt.ine.add.PTCONT.488013",
      "street": "R NOVA",
      "house": "975 B",
      "postcode": "4815-436",
      "city": "VIZELA",
      "lon": "-8.316007217860612",
      "lat": "41.369401901895564"
    },
    {
      "id": "pt.ine.add.PTCONT.488014",
      "street": "R NOVA",
      "house": "975 D",
      "postcode": "4815-436",
      "city": "VIZELA",
      "lon": "-8.316007217860612",
      "lat": "41.369401901895564"
    },
    {
      "id": "pt.ine.add.PTCONT.488015",
      "street": "R NOVA",
      "house": "975 E",
      "postcode": "4815-436",
      "city": "VIZELA",
      "lon": "-8.316007217860612",
      "lat": "41.369401901895564"
    },
    {
      "id": "pt.ine.add.PTCONT.488016",
      "street": "R NOVA",
      "house": "975 F",
      "postcode": "4815-436",
      "city": "VIZELA",
      "lon": "-8.316007217860612",
      "lat": "41.369401901895564"
    },
    {
      "id": "pt.ine.add.PTCONT.488017",
      "street": "R NOVA",
      "house": "975 G",
      "postcode": "4815-436",
      "city": "VIZELA",
      "lon": "-8.316007217860612",
      "lat": "41.369401901895564"
    },
    {
      "id": "pt.ine.add.PTCONT.488018",
      "street": "R NOVA",
      "house": "975 H",
      "postcode": "4815-436",
      "city": "VIZELA",
      "lon": "-8.316007217860612",
      "lat": "41.369401901895564"
    },
    {
      "id": "pt.ine.add.PTCONT.488019",
      "street": "R NOVA DOS CASAIS",
      "house": "975",
      "postcode": "4815-436",
      "city": "VIZELA",
      "lon": "-8.316007217860612",
      "lat": "41.369401901895564"
    },
    {
      "id": "pt.ine.add.PTCONT.488020",
      "street": "R NOVA DOS CASAIS",
      "house": "975",
      "postcode": "4815-436",
      "city": "VIZELA",
      "lon": "-8.316007217860612",
      "lat": "41.369401901895564"
    },
    {
      "id": "pt.ine.add.PTCONT.488021",
      "street": "R NOVA",
      "house": "975 J",
      "postcode": "4815-436",
      "city": "VIZELA",
      "lon": "-8.316007217860612",
      "lat": "41.369401901895564"
    },
    {
      "id": "pt.ine.add.PTCONT.508851",
      "street": "R LIBERDADE",
      "house": "385",
      "postcode": "4815-410",
      "city": "VIZELA",
      "lon": "-8.320145173535675",
      "lat": "41.370223623573764"
    },
    {
      "id": "pt.ine.add.PTCONT.508852",
      "street": "R LIBERDADE",
      "house": "385",
      "postcode": "4815-410",
      "city": "VIZELA",
      "lon": "-8.320145173535675",
      "lat": "41.370223623573764"
    },
    {
      "id": "pt.ine.add.PTCONT.588114",
      "street": "R AMARO DE SOUSA",
      "house": "565",
      "postcode": "4815-565",
      "city": "VIZELA",
      "lon": "-8.317814472783635",
      "lat": "41.37025440014118"
    },
    {
      "id": "pt.ine.add.PTCONT.596458",
      "street": "R AMARO SOUSA",
      "house": "248",
      "postcode": "4815-565",
      "city": "VIZELA",
      "lon": "-8.319140684813364",
      "lat": "41.370063178872705"
    },
    {
      "id": "pt.ine.add.PTCONT.596459",
      "street": "R AMARO SOUSA",
      "house": "248",
      "postcode": "4815-565",
      "city": "VIZELA",
      "lon": "-8.319140684813364",
      "lat": "41.370063178872705"
    },
    {
      "id": "pt.ine.add.PTCONT.605810",
      "street": "R AMARO DE SOUSA",
      "house": "288",
      "postcode": "4815-565",
      "city": "VIZELA",
      "lon": "-8.319367503118563",
      "lat": "41.369963767445405"
    },
    {
      "id": "pt.ine.add.PTCONT.605811",
      "street": "R AMARO SOUSA",
      "house": "278",
      "postcode": "4815-565",
      "city": "VIZELA",
      "lon": "-8.319367503118563",
      "lat": "41.369963767445405"
    },
    {
      "id": "pt.ine.add.PTCONT.611334",
      "street": "R LIBERDADE",
      "house": "443",
      "postcode": "4815-410",
      "city": "VIZELA",
      "lon": "-8.320275879072367",
      "lat": "41.369953289593376"
    },
    {
      "id": "pt.ine.add.PTCONT.630682",
      "street": "R NOVA DOS CASAIS",
      "house": "395",
      "postcode": "4815-436",
      "city": "VIZELA",
      "lon": "-8.31544245625391",
      "lat": "41.36833131597747"
    },
    {
      "id": "pt.ine.add.PTCONT.647013",
      "street": "R S JOÃO",
      "house": "1",
      "postcode": "4815-441",
      "city": "VIZELA",
      "lon": "-8.319493971251823",
      "lat": "41.368207772787066"
    },
    {
      "id": "pt.ine.add.PTCONT.661357",
      "street": "R AMARO DE SOUSA",
      "house": "11",
      "postcode": "4815-565",
      "city": "VIZELA",
      "lon": "-8.316989710452614",
      "lat": "41.370246716895764"
    },
    {
      "id": "pt.ine.add.PTCONT.676261",
      "street": "R S JOAO",
      "house": "1042",
      "postcode": "4815-441",
      "city": "VIZELA",
      "lon": "-8.321021849114379",
      "lat": "41.3675029719931"
    },
    {
      "id": "pt.ine.add.PTCONT.676506",
      "street": "R S ROMAO",
      "house": "1042",
      "postcode": "4815-455",
      "city": "VIZELA",
      "lon": "-8.321021849114379",
      "lat": "41.3675029719931"
    },
    {
      "id": "pt.ine.add.PTCONT.745067",
      "street": "R AMARO SOUSA",
      "house": "138",
      "postcode": "4815-565",
      "city": "VIZELA",
      "lon": "-8.318149429287764",
      "lat": "41.3703529065805"
    },
    {
      "id": "pt.ine.add.PTCONT.745068",
      "street": "R AMARO SOUSA",
      "house": "128",
      "postcode": "4815-565",
      "city": "VIZELA",
      "lon": "-8.318149429287764",
      "lat": "41.3703529065805"
    },
    {
      "id": "pt.ine.add.PTCONT.745069",
      "street": "R AMARO DE SOUSA",
      "house": "138",
      "postcode": "4815-565",
      "city": "VIZELA",
      "lon": "-8.318436192526887",
      "lat": "41.370316428932426"
    },
    {
      "id": "pt.ine.add.PTCONT.745070",
      "street": "R AMARO SOUSA",
      "house": "128",
      "postcode": "4815-565",
      "city": "VIZELA",
      "lon": "-8.318436192526887",
      "lat": "41.370316428932426"
    },
    {
      "id": "pt.ine.add.PTCONT.751048",
      "street": "R S JOAO",
      "house": "1194",
      "postcode": "4815-441",
      "city": "VIZELA",
      "lon": "-8.321798768342642",
      "lat": "41.3675107048152"
    },
    {
      "id": "pt.ine.add.PTCONT.774953",
      "street": "R LIBERDADE",
      "house": "503",
      "postcode": "4815-410",
      "city": "VIZELA",
      "lon": "-8.32035877311814",
      "lat": "41.369683033257495"
    },
    {
      "id": "pt.ine.add.PTCONT.774954",
      "street": "R LIBERDADE",
      "house": "535",
      "postcode": "4815-410",
      "city": "VIZELA",
      "lon": "-8.32035877311814",
      "lat": "41.369683033257495"
    },
    {
      "id": "pt.ine.add.PTCONT.777921",
      "street": "R CASAL DA BOUCA",
      "house": "5",
      "postcode": "4815-399",
      "city": "VIZELA",
      "lon": "-8.31807182196219",
      "lat": "41.36827309567632"
    },
    {
      "id": "pt.ine.add.PTCONT.783753",
      "street": "R AMARO DE SOUSA",
      "house": "198",
      "postcode": "4815-565",
      "city": "VIZELA",
      "lon": "-8.31867501666097",
      "lat": "41.370235007636424"
    },
    {
      "id": "pt.ine.add.PTCONT.783754",
      "street": "R AMARO SOUSA",
      "house": "188",
      "postcode": "4815-565",
      "city": "VIZELA",
      "lon": "-8.31867501666097",
      "lat": "41.370235007636424"
    },
    {
      "id": "pt.ine.add.PTCONT.808277",
      "street": "R AMARO SOUSA",
      "house": "228",
      "postcode": "4815-565",
      "city": "VIZELA",
      "lon": "-8.318901861891044",
      "lat": "41.37014460113499"
    },
    {
      "id": "pt.ine.add.PTCONT.808278",
      "street": "R AMARO SOUSA",
      "house": "218",
      "postcode": "4815-565",
      "city": "VIZELA",
      "lon": "-8.318901861891044",
      "lat": "41.37014460113499"
    },
    {
      "id": "pt.ine.add.PTCONT.839712",
      "street": "R NOVA",
      "house": "975 C",
      "postcode": "4815-436",
      "city": "VIZELA",
      "lon": "-8.316007217860612",
      "lat": "41.369401901895564"
    }
  ]
}