{
  "data": {
    "distrito": "Viseu",
    "concelho": "Penalva do Castelo",
    "freguesia": "União das freguesias de Vila Cova do Covelo/Mareco",
    "OBJECTID": 119,
    "BGRI2021": "18111500120",
    "DT21": "18",
    "DTMN21": "1811",
    "DTMNFR21": "181115",
    "DTMNFRSEC21": "181115001",
    "SECNUM21": "001",
    "SSNUM21": "20",
    "SECSSNUM21": "00120",
    "OBJECTID_1": 194635,
    "DT": "18",
    "CC": "11",
    "fr": "15",
    "SEC": "001",
    "SS": "20"
  },
  "addresses": [
    {
      "id": "pt.ine.add.PTCONT.5431931",
      "street": "R CIMA",
      "house": "6",
      "postcode": "3550-350",
      "city": "VILA COVA DO COVELO",
      "lon": "-7.606199167121286",
      "lat": "40.66408559670764"
    },
    {
      "id": "pt.ine.add.PTCONT.5435753",
      "street": "R CALÇADA",
      "house": "10",
      "postcode": "3550-350",
      "city": "VILA COVA DO COVELO",
      "lon": "-7.606197749807743",
      "lat": "40.66426569230985"
    },
    {
      "id": "pt.ine.add.PTCONT.5441933",
      "street": "R CIMA",
      "house": "4",
      "postcode": "3550-350",
      "city": "VILA COVA DO COVELO",
      "lon": "-7.606210496372024",
      "lat": "40.66414868413144"
    },
    {
      "id": "pt.ine.add.PTCONT.5595014",
      "street": "R CIMA",
      "house": "2",
      "postcode": "3550-350",
      "city": "VILA COVA DO COVELO",
      "lon": "-7.606174524362942",
      "lat": "40.66421155570116"
    },
    {
      "id": "pt.ine.add.PTCONT.5600078",
      "street": "R PRINCIPAL",
      "house": "12",
      "postcode": "3550-350",
      "city": "VILA COVA DO COVELO",
      "lon": "-7.6078868650251765",
      "lat": "40.6645165257864"
    },
    {
      "id": "pt.ine.add.PTCONT.5664083",
      "street": "ESTR PRINCIPAL",
      "house": "37",
      "postcode": "3550-350",
      "city": "VILA COVA DO COVELO",
      "lon": "-7.606336825938043",
      "lat": "40.66312267863759"
    }
  ]
}