{
  "data": {
    "distrito": "Porto",
    "concelho": "Gondomar",
    "freguesia": "Lomba",
    "OBJECTID": 720,
    "BGRI2021": "13040500121",
    "DT21": "13",
    "DTMN21": "1304",
    "DTMNFR21": "130405",
    "DTMNFRSEC21": "130405001",
    "SECNUM21": "001",
    "SSNUM21": "21",
    "SECSSNUM21": "00121",
    "OBJECTID_1": 129279,
    "DT": "13",
    "CC": "04",
    "fr": "05",
    "SEC": "001",
    "SS": "21"
  },
  "addresses": [
    {
      "id": "pt.ine.add.PTCONT.3688157",
      "street": "AV FEYZIN",
      "house": "",
      "postcode": "4515-232",
      "city": "LOMBA GDM",
      "lon": "-8.4194582715098",
      "lat": "41.03876015832727"
    },
    {
      "id": "pt.ine.add.PTCONT.3878219",
      "street": "R BARRAO DE CIMA",
      "house": "291",
      "postcode": "4515-257",
      "city": "LOMBA GDM",
      "lon": "-8.421809211173452",
      "lat": "41.03517047771976"
    },
    {
      "id": "pt.ine.add.PTCONT.3897828",
      "street": "R BARRAO DE CIMA",
      "house": "72",
      "postcode": "4515-257",
      "city": "LOMBA GDM",
      "lon": "-8.421679030451095",
      "lat": "41.03531487676843"
    },
    {
      "id": "pt.ine.add.PTCONT.4253722",
      "street": "R PENEDO",
      "house": "46",
      "postcode": "4515-296",
      "city": "LOMBA GDM",
      "lon": "-8.424168382774424",
      "lat": "41.03350770401"
    },
    {
      "id": "pt.ine.add.PTCONT.4307380",
      "street": "R BARRAO",
      "house": "258",
      "postcode": "4515-256",
      "city": "LOMBA GDM",
      "lon": "-8.421608937451268",
      "lat": "41.035603198300315"
    },
    {
      "id": "pt.ine.add.PTCONT.4313905",
      "street": "R BARRAO DE CIMA",
      "house": "",
      "postcode": "4515-257",
      "city": "LOMBA GDM",
      "lon": "-8.422449752192623",
      "lat": "41.03479968429271"
    }
  ]
}