{
  "data": {
    "distrito": "Porto",
    "concelho": "Paredes",
    "freguesia": "Rebordosa",
    "OBJECTID": 656,
    "BGRI2021": "13101800112",
    "DT21": "13",
    "DTMN21": "1310",
    "DTMNFR21": "131018",
    "DTMNFRSEC21": "131018001",
    "SECNUM21": "001",
    "SSNUM21": "12",
    "SECSSNUM21": "00112",
    "OBJECTID_1": 134692,
    "DT": "13",
    "CC": "10",
    "fr": "18",
    "SEC": "001",
    "SS": "12"
  },
  "addresses": [
    {
      "id": "pt.ine.add.PTCONT.3574315",
      "street": "TV ALDEIA NOVA",
      "house": "2",
      "postcode": "4585-345",
      "city": "REBORDOSA",
      "lon": "-8.400970337090758",
      "lat": "41.23031043173529"
    },
    {
      "id": "pt.ine.add.PTCONT.3586921",
      "street": "R CENTRAL DA QUINTA",
      "house": "74",
      "postcode": "4585-379",
      "city": "REBORDOSA",
      "lon": "-8.40236159835987",
      "lat": "41.22928070111201"
    },
    {
      "id": "pt.ine.add.PTCONT.3586922",
      "street": "R ALDEIA NOVA",
      "house": "9",
      "postcode": "4585-346",
      "city": "REBORDOSA",
      "lon": "-8.401816941173726",
      "lat": "41.23025443370109"
    },
    {
      "id": "pt.ine.add.PTCONT.3632135",
      "street": "R STO ANTONIO",
      "house": "160A",
      "postcode": "4585-352",
      "city": "REBORDOSA",
      "lon": "-8.400840204065927",
      "lat": "41.230571857954445"
    },
    {
      "id": "pt.ine.add.PTCONT.3632136",
      "street": "R STO ANTONIO",
      "house": "160A",
      "postcode": "4585-352",
      "city": "REBORDOSA",
      "lon": "-8.400840204065927",
      "lat": "41.230571857954445"
    },
    {
      "id": "pt.ine.add.PTCONT.3736193",
      "street": "R LUIS DE CAMÕES",
      "house": "174",
      "postcode": "4585-444",
      "city": "REBORDOSA",
      "lon": "-8.401579319910676",
      "lat": "41.23048009448796"
    },
    {
      "id": "pt.ine.add.PTCONT.3800752",
      "street": "R CENTRAL DA QUINTA",
      "house": "38",
      "postcode": "4585-379",
      "city": "REBORDOSA",
      "lon": "-8.40170605945918",
      "lat": "41.22939028321652"
    },
    {
      "id": "pt.ine.add.PTCONT.3823240",
      "street": "R SANTO ANTÓNIO",
      "house": "162",
      "postcode": "4585-352",
      "city": "REBORDOSA",
      "lon": "-8.400863654291522",
      "lat": "41.230472756555315"
    },
    {
      "id": "pt.ine.add.PTCONT.3864948",
      "street": "TV ALDEIA NOVA",
      "house": "3",
      "postcode": "4585-345",
      "city": "REBORDOSA",
      "lon": "-8.40098130864292",
      "lat": "41.23007629540745"
    },
    {
      "id": "pt.ine.add.PTCONT.3933168",
      "street": "R SANTO ANTÓNIO",
      "house": "194",
      "postcode": "4585-352",
      "city": "REBORDOSA",
      "lon": "-8.400909231801242",
      "lat": "41.22995040338663"
    },
    {
      "id": "pt.ine.add.PTCONT.3933181",
      "street": "R SANTO ANTÓNIO",
      "house": "194",
      "postcode": "4585-352",
      "city": "REBORDOSA",
      "lon": "-8.400909231801242",
      "lat": "41.22995040338663"
    },
    {
      "id": "pt.ine.add.PTCONT.4072485",
      "street": "R LUIS DE CAMÕES",
      "house": "190",
      "postcode": "4585-444",
      "city": "REBORDOSA",
      "lon": "-8.401114859796643",
      "lat": "41.23065225738783"
    },
    {
      "id": "pt.ine.add.PTCONT.4150787",
      "street": "R CENTRAL DA QUINTA",
      "house": "4",
      "postcode": "4585-379",
      "city": "REBORDOSA",
      "lon": "-8.400644744426291",
      "lat": "41.22943777522031"
    },
    {
      "id": "pt.ine.add.PTCONT.4196487",
      "street": "TV ALDEIA NOVA",
      "house": "23",
      "postcode": "4585-345",
      "city": "REBORDOSA",
      "lon": "-8.401398609010444",
      "lat": "41.23003930684942"
    },
    {
      "id": "pt.ine.add.PTCONT.4378763",
      "street": "TV ALDEIA NOVA",
      "house": "30",
      "postcode": "4585-345",
      "city": "REBORDOSA",
      "lon": "-8.401494762005813",
      "lat": "41.23021916801888"
    }
  ]
}