{
  "data": {
    "distrito": "Braga",
    "concelho": "Fafe",
    "freguesia": "União de freguesias de Ardegão, Arnozela e Seidões",
    "OBJECTID": 331,
    "BGRI2021": "03074000133",
    "DT21": "03",
    "DTMN21": "0307",
    "DTMNFR21": "030740",
    "DTMNFRSEC21": "030740001",
    "SECNUM21": "001",
    "SSNUM21": "33",
    "SECSSNUM21": "00133",
    "OBJECTID_1": 25744,
    "DT": "03",
    "CC": "07",
    "fr": "40",
    "SEC": "001",
    "SS": "33"
  },
  "addresses": [
    {
      "id": "pt.ine.add.PTCONT.535669",
      "street": "R FELGUEIRA",
      "house": "33",
      "postcode": "4820-007",
      "city": "ARDEGÃO FAF",
      "lon": "-8.132701758007386",
      "lat": "41.39933258280278"
    },
    {
      "id": "pt.ine.add.PTCONT.540396",
      "street": "R FELGUEIRA",
      "house": "141",
      "postcode": "4820-007",
      "city": "ARDEGÃO FAF",
      "lon": "-8.131864672964987",
      "lat": "41.40028700171675"
    },
    {
      "id": "pt.ine.add.PTCONT.551271",
      "street": "AV SANTA MARINHA",
      "house": "1140",
      "postcode": "4820-007",
      "city": "ARDEGÃO FAF",
      "lon": "-8.133359453803507",
      "lat": "41.3994406313588"
    },
    {
      "id": "pt.ine.add.PTCONT.570845",
      "street": "R COUTO",
      "house": "50",
      "postcode": "4820-007",
      "city": "ARDEGÃO FAF",
      "lon": "-8.133431205183049",
      "lat": "41.399980871707974"
    },
    {
      "id": "pt.ine.add.PTCONT.590009",
      "street": "R COUTO",
      "house": "62",
      "postcode": "4820-007",
      "city": "ARDEGÃO FAF",
      "lon": "-8.133419247738832",
      "lat": "41.400142943889435"
    },
    {
      "id": "pt.ine.add.PTCONT.593000",
      "street": "R COUTO",
      "house": "86",
      "postcode": "4820-007",
      "city": "ARDEGÃO FAF",
      "lon": "-8.133299665908979",
      "lat": "41.40035904034132"
    },
    {
      "id": "pt.ine.add.PTCONT.650703",
      "street": "AV SANTA MARINHA",
      "house": "1154",
      "postcode": "4820-007",
      "city": "ARDEGÃO FAF",
      "lon": "-8.133431203133144",
      "lat": "41.39956668730762"
    },
    {
      "id": "pt.ine.add.PTCONT.684192",
      "street": "R POCINHO",
      "house": "72",
      "postcode": "4820-007",
      "city": "ARDEGÃO FAF",
      "lon": "-8.132199499459471",
      "lat": "41.400656169160406"
    },
    {
      "id": "pt.ine.add.PTCONT.717065",
      "street": "R COUTO",
      "house": "",
      "postcode": "4820-007",
      "city": "ARDEGÃO FAF",
      "lon": "-8.133431203623337",
      "lat": "41.399665731406095"
    },
    {
      "id": "pt.ine.add.PTCONT.725971",
      "street": "AV SANTA MARINHA",
      "house": "1118",
      "postcode": "4820-007",
      "city": "ARDEGÃO FAF",
      "lon": "-8.133156165744428",
      "lat": "41.399359595539266"
    },
    {
      "id": "pt.ine.add.PTCONT.844474",
      "street": "R BELICOVO",
      "house": "36",
      "postcode": "4820-007",
      "city": "ARDEGÃO FAF",
      "lon": "-8.131278708255651",
      "lat": "41.40062014217403"
    }
  ]
}