{
  "data": {
    "distrito": "Coimbra",
    "concelho": "Figueira da Foz",
    "freguesia": "Buarcos e São Julião",
    "OBJECTID": 909,
    "BGRI2021": "06052000313",
    "DT21": "06",
    "DTMN21": "0605",
    "DTMNFR21": "060520",
    "DTMNFRSEC21": "060520003",
    "SECNUM21": "003",
    "SSNUM21": "13",
    "SECSSNUM21": "00313",
    "OBJECTID_1": 50915,
    "DT": "06",
    "CC": "05",
    "fr": "20",
    "SEC": "003",
    "SS": "13"
  },
  "addresses": [
    {
      "id": "pt.ine.add.PTCONT.1102713",
      "street": "LG SERRADO",
      "house": "4",
      "postcode": "3080-268",
      "city": "FIGUEIRA DA FOZ",
      "lon": "-8.874231101160548",
      "lat": "40.16504408988944"
    },
    {
      "id": "pt.ine.add.PTCONT.1127556",
      "street": "R PROF JOAQUIM COSTA E SILVA",
      "house": "11",
      "postcode": "3080-225",
      "city": "FIGUEIRA DA FOZ",
      "lon": "-8.874351025554716",
      "lat": "40.16527747332446"
    },
    {
      "id": "pt.ine.add.PTCONT.1127557",
      "street": "R PROF JOAQUIM COSTA E SILVA",
      "house": "13",
      "postcode": "3080-225",
      "city": "FIGUEIRA DA FOZ",
      "lon": "-8.874351025554716",
      "lat": "40.16527747332446"
    },
    {
      "id": "pt.ine.add.PTCONT.1173238",
      "street": "R 5 DE OUTUBRO",
      "house": "",
      "postcode": "3080-271",
      "city": "FIGUEIRA DA FOZ",
      "lon": "-8.874422094750656",
      "lat": "40.16463918157103"
    },
    {
      "id": "pt.ine.add.PTCONT.1173239",
      "street": "R 5 DE OUTUBRO",
      "house": "",
      "postcode": "3080-271",
      "city": "FIGUEIRA DA FOZ",
      "lon": "-8.874422094750656",
      "lat": "40.16463918157103"
    },
    {
      "id": "pt.ine.add.PTCONT.1176000",
      "street": "R 5 DE OUTUBRO",
      "house": "",
      "postcode": "3080-271",
      "city": "FIGUEIRA DA FOZ",
      "lon": "-8.874269334682682",
      "lat": "40.16462453085929"
    },
    {
      "id": "pt.ine.add.PTCONT.1176001",
      "street": "R 5 DE OUTUBRO",
      "house": "",
      "postcode": "3080-271",
      "city": "FIGUEIRA DA FOZ",
      "lon": "-8.874269334682682",
      "lat": "40.16462453085929"
    },
    {
      "id": "pt.ine.add.PTCONT.1176002",
      "street": "R 5 DE OUTUBRO",
      "house": "",
      "postcode": "3080-271",
      "city": "FIGUEIRA DA FOZ",
      "lon": "-8.874269334682682",
      "lat": "40.16462453085929"
    },
    {
      "id": "pt.ine.add.PTCONT.1176903",
      "street": "R 5 DE OUTUBRO",
      "house": "",
      "postcode": "3080-271",
      "city": "FIGUEIRA DA FOZ",
      "lon": "-8.874269334682682",
      "lat": "40.16462453085929"
    },
    {
      "id": "pt.ine.add.PTCONT.1209830",
      "street": "R CAP GUERRA",
      "house": "8",
      "postcode": "3080-273",
      "city": "FIGUEIRA DA FOZ",
      "lon": "-8.874574631823847",
      "lat": "40.16533007643121"
    },
    {
      "id": "pt.ine.add.PTCONT.1224033",
      "street": "R CAP GUERRA",
      "house": "12A",
      "postcode": "3080-273",
      "city": "FIGUEIRA DA FOZ",
      "lon": "-8.874619721370145",
      "lat": "40.16515867722048"
    },
    {
      "id": "pt.ine.add.PTCONT.1224034",
      "street": "R CAP GUERRA",
      "house": "12A",
      "postcode": "3080-273",
      "city": "FIGUEIRA DA FOZ",
      "lon": "-8.874619721370145",
      "lat": "40.16515867722048"
    },
    {
      "id": "pt.ine.add.PTCONT.1244390",
      "street": "LG SERRADO",
      "house": "8",
      "postcode": "3080-268",
      "city": "FIGUEIRA DA FOZ",
      "lon": "-8.874264845403689",
      "lat": "40.16490878668281"
    },
    {
      "id": "pt.ine.add.PTCONT.1244391",
      "street": "LG SERRADO",
      "house": "8",
      "postcode": "3080-268",
      "city": "FIGUEIRA DA FOZ",
      "lon": "-8.874264845403689",
      "lat": "40.16490878668281"
    },
    {
      "id": "pt.ine.add.PTCONT.1263434",
      "street": "R PROF JOAQUIM COSTA E SILVA",
      "house": "9",
      "postcode": "3080-225",
      "city": "FIGUEIRA DA FOZ",
      "lon": "-8.87415099315227",
      "lat": "40.16523372471796"
    },
    {
      "id": "pt.ine.add.PTCONT.1263435",
      "street": "R PROF JOAQUIM COSTA E SILVA",
      "house": "9",
      "postcode": "3080-225",
      "city": "FIGUEIRA DA FOZ",
      "lon": "-8.87415099315227",
      "lat": "40.16523372471796"
    },
    {
      "id": "pt.ine.add.PTCONT.1263436",
      "street": "R PROF JOAQUIM COSTA E SILVA",
      "house": "9",
      "postcode": "3080-225",
      "city": "FIGUEIRA DA FOZ",
      "lon": "-8.87415099315227",
      "lat": "40.16523372471796"
    },
    {
      "id": "pt.ine.add.PTCONT.1315749",
      "street": "R CAP GUERRA",
      "house": "4",
      "postcode": "3080-273",
      "city": "FIGUEIRA DA FOZ",
      "lon": "-8.874580098917082",
      "lat": "40.16475366937011"
    },
    {
      "id": "pt.ine.add.PTCONT.1315750",
      "street": "R CAP GUERRA",
      "house": "4",
      "postcode": "3080-273",
      "city": "FIGUEIRA DA FOZ",
      "lon": "-8.874580098917082",
      "lat": "40.16475366937011"
    },
    {
      "id": "pt.ine.add.PTCONT.1315751",
      "street": "R CAP GUERRA",
      "house": "4",
      "postcode": "3080-273",
      "city": "FIGUEIRA DA FOZ",
      "lon": "-8.874580098917082",
      "lat": "40.16475366937011"
    },
    {
      "id": "pt.ine.add.PTCONT.1358948",
      "street": "R CAP GUERRA",
      "house": "2",
      "postcode": "3080-273",
      "city": "FIGUEIRA DA FOZ",
      "lon": "-8.874590758856849",
      "lat": "40.164654537150845"
    },
    {
      "id": "pt.ine.add.PTCONT.1359921",
      "street": "R CAP GUERRA",
      "house": "2",
      "postcode": "3080-273",
      "city": "FIGUEIRA DA FOZ",
      "lon": "-8.874590758856849",
      "lat": "40.164654537150845"
    },
    {
      "id": "pt.ine.add.PTCONT.1361984",
      "street": "TV PROFESSOR JOAQUIM COSTA E SILVA ( LARGO DO SERRADO)",
      "house": "10",
      "postcode": "3080-268",
      "city": "FIGUEIRA DA FOZ",
      "lon": "-8.874193047928715",
      "lat": "40.164783164870386"
    }
  ]
}