{
  "data": {
    "distrito": "Santarém",
    "concelho": "Abrantes",
    "freguesia": "União das freguesias de Alvega e Concavada",
    "OBJECTID": 543,
    "BGRI2021": "14012200117",
    "DT21": "14",
    "DTMN21": "1401",
    "DTMNFR21": "140122",
    "DTMNFRSEC21": "140122001",
    "SECNUM21": "001",
    "SSNUM21": "17",
    "SECSSNUM21": "00117",
    "OBJECTID_1": 146612,
    "DT": "14",
    "CC": "01",
    "fr": "22",
    "SEC": "001",
    "SS": "17"
  },
  "addresses": [
    {
      "id": "pt.ine.add.PTCONT.4515761",
      "street": "R S JOÃO",
      "house": "95",
      "postcode": "2205-134",
      "city": "ALVEGA",
      "lon": "-8.012231173318225",
      "lat": "39.46010966753851"
    },
    {
      "id": "pt.ine.add.PTCONT.4565408",
      "street": "TV FIGUEIRA",
      "house": "4",
      "postcode": "2205-134",
      "city": "ALVEGA",
      "lon": "-8.012591127056252",
      "lat": "39.4602541536622"
    },
    {
      "id": "pt.ine.add.PTCONT.4582114",
      "street": "LG SOBRAL",
      "house": "11",
      "postcode": "2205-134",
      "city": "ALVEGA",
      "lon": "-8.013661394457337",
      "lat": "39.459507673846275"
    },
    {
      "id": "pt.ine.add.PTCONT.4592565",
      "street": "R S JOÃO",
      "house": "21",
      "postcode": "2205-134",
      "city": "ALVEGA",
      "lon": "-8.01271846001079",
      "lat": "39.460533503622194"
    },
    {
      "id": "pt.ine.add.PTCONT.4615240",
      "street": "R S JOÃO",
      "house": "13",
      "postcode": "2205-134",
      "city": "ALVEGA",
      "lon": "-8.01220807470375",
      "lat": "39.46002858021084"
    },
    {
      "id": "pt.ine.add.PTCONT.4626958",
      "street": "R S JOÃO",
      "house": "19",
      "postcode": "2205-134",
      "city": "ALVEGA",
      "lon": "-8.01243973202291",
      "lat": "39.46045215144707"
    },
    {
      "id": "pt.ine.add.PTCONT.4631776",
      "street": "LG SOBRAL",
      "house": "11",
      "postcode": "2205-134",
      "city": "ALVEGA",
      "lon": "-8.012208168197564",
      "lat": "39.459974538095516"
    },
    {
      "id": "pt.ine.add.PTCONT.4633983",
      "street": "TV FIGUEIRA",
      "house": "2",
      "postcode": "2205-134",
      "city": "ALVEGA",
      "lon": "-8.012718785862472",
      "lat": "39.46034435622929"
    },
    {
      "id": "pt.ine.add.PTCONT.4639772",
      "street": "LG SOBRAL",
      "house": "6",
      "postcode": "2205-134",
      "city": "ALVEGA",
      "lon": "-8.012731274168502",
      "lat": "39.4598399751786"
    },
    {
      "id": "pt.ine.add.PTCONT.4651077",
      "street": "R BOAVISTA",
      "house": "17",
      "postcode": "2205-134",
      "city": "ALVEGA",
      "lon": "-8.012277370707295",
      "lat": "39.460271842176915"
    }
  ]
}