{
  "data": {
    "distrito": "Guarda",
    "concelho": "Sabugal",
    "freguesia": "Souto",
    "OBJECTID": 307,
    "BGRI2021": "09113400228",
    "DT21": "09",
    "DTMN21": "0911",
    "DTMNFR21": "091134",
    "DTMNFRSEC21": "091134002",
    "SECNUM21": "002",
    "SSNUM21": "28",
    "SECSSNUM21": "00228",
    "OBJECTID_1": 81465,
    "DT": "09",
    "CC": "11",
    "fr": "34",
    "SEC": "002",
    "SS": "28"
  },
  "addresses": [
    {
      "id": "pt.ine.add.PTCONT.1906615",
      "street": "QTA OLIVEIRA",
      "house": "",
      "postcode": "6320-656",
      "city": "SOUTO SBG",
      "lon": "-6.966597490365307",
      "lat": "40.359245921531674"
    },
    {
      "id": "pt.ine.add.PTCONT.1906616",
      "street": "BR QUINTA DA OLIVEIRA",
      "house": "11",
      "postcode": "6320-626",
      "city": "SOUTO SBG",
      "lon": "-6.964869997324567",
      "lat": "40.358390987130136"
    },
    {
      "id": "pt.ine.add.PTCONT.1949496",
      "street": "AV STA BARBARA",
      "house": "",
      "postcode": "6320-656",
      "city": "SOUTO SBG",
      "lon": "-6.963394730765121",
      "lat": "40.35861021313385"
    },
    {
      "id": "pt.ine.add.PTCONT.1975609",
      "street": "AV S BARBARA",
      "house": "52",
      "postcode": "6320-656",
      "city": "SOUTO SBG",
      "lon": "-6.962279958251824",
      "lat": "40.35908521992951"
    },
    {
      "id": "pt.ine.add.PTCONT.1882017",
      "street": "QTA OLIVEIRA",
      "house": "19",
      "postcode": "6320-656",
      "city": "SOUTO SBG",
      "lon": "-6.965544255789428",
      "lat": "40.358884084587366"
    }
  ]
}