{
  "data": {
    "distrito": "Porto",
    "concelho": "Penafiel",
    "freguesia": "Galegos",
    "OBJECTID": 1066,
    "BGRI2021": "13111300225",
    "DT21": "13",
    "DTMN21": "1311",
    "DTMNFR21": "131113",
    "DTMNFRSEC21": "131113002",
    "SECNUM21": "002",
    "SSNUM21": "25",
    "SECSSNUM21": "00225",
    "OBJECTID_1": 136889,
    "DT": "13",
    "CC": "11",
    "fr": "13",
    "SEC": "002",
    "SS": "25"
  },
  "addresses": [
    {
      "id": "pt.ine.add.PTCONT.3548599",
      "street": "TV D DINIZ",
      "house": "9",
      "postcode": "4560-125",
      "city": "GALEGOS PNF",
      "lon": "-8.31089573266637",
      "lat": "41.16858905554799"
    },
    {
      "id": "pt.ine.add.PTCONT.3639035",
      "street": "R D DINIZ",
      "house": "85",
      "postcode": "4560-125",
      "city": "GALEGOS PNF",
      "lon": "-8.311480666256523",
      "lat": "41.1689753389199"
    },
    {
      "id": "pt.ine.add.PTCONT.3639036",
      "street": "R D DINIZ",
      "house": "85",
      "postcode": "4560-125",
      "city": "GALEGOS PNF",
      "lon": "-8.311480666256523",
      "lat": "41.1689753389199"
    },
    {
      "id": "pt.ine.add.PTCONT.3704711",
      "street": "TV D DINIZ",
      "house": "21",
      "postcode": "4560-125",
      "city": "GALEGOS PNF",
      "lon": "-8.310955483055944",
      "lat": "41.16865199386631"
    },
    {
      "id": "pt.ine.add.PTCONT.3784333",
      "street": "ALMINHAS",
      "house": "",
      "postcode": "4560-121",
      "city": "GALEGOS PNF",
      "lon": "-8.31064644478844",
      "lat": "41.16894061030667"
    },
    {
      "id": "pt.ine.add.PTCONT.3876815",
      "street": "R ALMINHAS",
      "house": "79",
      "postcode": "4560-125",
      "city": "GALEGOS PNF",
      "lon": "-8.310705563092691",
      "lat": "41.16876943623"
    },
    {
      "id": "pt.ine.add.PTCONT.3884378",
      "street": "TV D DINIZ",
      "house": "37",
      "postcode": "4560-125",
      "city": "GALEGOS PNF",
      "lon": "-8.311051103406372",
      "lat": "41.16875989857141"
    },
    {
      "id": "pt.ine.add.PTCONT.3908490",
      "street": "TV D DINIZ",
      "house": "51",
      "postcode": "4560-125",
      "city": "GALEGOS PNF",
      "lon": "-8.311170507397355",
      "lat": "41.16884975769992"
    },
    {
      "id": "pt.ine.add.PTCONT.3908491",
      "street": "TV D DINIZ",
      "house": "51",
      "postcode": "4560-125",
      "city": "GALEGOS PNF",
      "lon": "-8.311170507397355",
      "lat": "41.16884975769992"
    },
    {
      "id": "pt.ine.add.PTCONT.4048690",
      "street": "R ALMINHAS",
      "house": "57",
      "postcode": "4560-125",
      "city": "GALEGOS PNF",
      "lon": "-8.31087153563701",
      "lat": "41.16845402740754"
    },
    {
      "id": "pt.ine.add.PTCONT.4112756",
      "street": "R PENA",
      "house": "34",
      "postcode": "4560-125",
      "city": "GALEGOS PNF",
      "lon": "-8.311633986364429",
      "lat": "41.16838981763347"
    },
    {
      "id": "pt.ine.add.PTCONT.4150925",
      "street": "R D DINIZ",
      "house": "67",
      "postcode": "4560-125",
      "city": "GALEGOS PNF",
      "lon": "-8.311254261109998",
      "lat": "41.16897568930642"
    },
    {
      "id": "pt.ine.add.PTCONT.4150967",
      "street": "R D DINIZ",
      "house": "67",
      "postcode": "4560-125",
      "city": "GALEGOS PNF",
      "lon": "-8.311254261109998",
      "lat": "41.16897568930642"
    },
    {
      "id": "pt.ine.add.PTCONT.4249932",
      "street": "AV EGAS MONIZ",
      "house": "",
      "postcode": "4560-125",
      "city": "GALEGOS PNF",
      "lon": "-8.311561928729946",
      "lat": "41.16818282887464"
    },
    {
      "id": "pt.ine.add.PTCONT.4249933",
      "street": "AV EGAS MONIZ",
      "house": "",
      "postcode": "4560-125",
      "city": "GALEGOS PNF",
      "lon": "-8.311561928729946",
      "lat": "41.16818282887464"
    },
    {
      "id": "pt.ine.add.PTCONT.4379359",
      "street": "TV D DINIZ",
      "house": "44",
      "postcode": "4560-125",
      "city": "GALEGOS PNF",
      "lon": "-8.310825185604491",
      "lat": "41.16894033466611"
    },
    {
      "id": "pt.ine.add.PTCONT.4380499",
      "street": "R ALMINHAS",
      "house": "23",
      "postcode": "4560-125",
      "city": "GALEGOS PNF",
      "lon": "-8.310989964720218",
      "lat": "41.168183713593294"
    }
  ]
}