{
  "data": {
    "distrito": "Castelo Branco",
    "concelho": "Castelo Branco",
    "freguesia": "Almaceda",
    "OBJECTID": 91,
    "BGRI2021": "05020200132",
    "DT21": "05",
    "DTMN21": "0502",
    "DTMNFR21": "050202",
    "DTMNFRSEC21": "050202001",
    "SECNUM21": "001",
    "SSNUM21": "32",
    "SECSSNUM21": "00132",
    "OBJECTID_1": 40800,
    "DT": "05",
    "CC": "02",
    "fr": "02",
    "SEC": "001",
    "SS": "32"
  },
  "addresses": [
    {
      "id": "pt.ine.add.PTCONT.966151",
      "street": "R PADARIA",
      "house": "1",
      "postcode": "6000-001",
      "city": "ALMACEDA",
      "lon": "-7.66213277299293",
      "lat": "40.004259843651845"
    },
    {
      "id": "pt.ine.add.PTCONT.1013273",
      "street": "R PADARIA",
      "house": "5",
      "postcode": "6000-001",
      "city": "ALMACEDA",
      "lon": "-7.662425727923036",
      "lat": "40.004234015375104"
    },
    {
      "id": "pt.ine.add.PTCONT.1026138",
      "street": "EN CORRELANCHA",
      "house": "",
      "postcode": "6000-001",
      "city": "ALMACEDA",
      "lon": "-7.661284835729303",
      "lat": "40.001545546316905"
    },
    {
      "id": "pt.ine.add.PTCONT.1038642",
      "street": "R IGREJA",
      "house": "27",
      "postcode": "6000-001",
      "city": "ALMACEDA",
      "lon": "-7.661901777012025",
      "lat": "40.00379058546084"
    },
    {
      "id": "pt.ine.add.PTCONT.1043003",
      "street": "EN CORRELANCHA",
      "house": "3",
      "postcode": "6000-001",
      "city": "ALMACEDA",
      "lon": "-7.661361977206443",
      "lat": "40.000546178387175"
    },
    {
      "id": "pt.ine.add.PTCONT.1050494",
      "street": "R FONTE",
      "house": "11",
      "postcode": "6000-001",
      "city": "ALMACEDA",
      "lon": "-7.662888907086646",
      "lat": "40.00500141732029"
    },
    {
      "id": "pt.ine.add.PTCONT.1056790",
      "street": "R IGREJA",
      "house": "29",
      "postcode": "6000-001",
      "city": "ALMACEDA",
      "lon": "-7.661935547102049",
      "lat": "40.00398885782523"
    },
    {
      "id": "pt.ine.add.PTCONT.1063660",
      "street": "R PADARIA",
      "house": "7",
      "postcode": "6000-001",
      "city": "ALMACEDA",
      "lon": "-7.662681448734798",
      "lat": "40.00451424394917"
    },
    {
      "id": "pt.ine.add.PTCONT.1082530",
      "street": "R PADARIA",
      "house": "15",
      "postcode": "6000-001",
      "city": "ALMACEDA",
      "lon": "-7.66307362577485",
      "lat": "40.00538943055082"
    },
    {
      "id": "pt.ine.add.PTCONT.1093066",
      "street": "R NOVA DA PADARIA",
      "house": "13",
      "postcode": "6000-001",
      "city": "ALMACEDA",
      "lon": "-7.662992019625744",
      "lat": "40.00533506272688"
    }
  ]
}