{
  "data": {
    "distrito": "Lisboa",
    "concelho": "Oeiras",
    "freguesia": "Porto Salvo",
    "OBJECTID": 1097,
    "BGRI2021": "11100901002",
    "DT21": "11",
    "DTMN21": "1110",
    "DTMNFR21": "111009",
    "DTMNFRSEC21": "111009010",
    "SECNUM21": "010",
    "SSNUM21": "02",
    "SECSSNUM21": "01002",
    "OBJECTID_1": 111080,
    "DT": "11",
    "CC": "10",
    "fr": "09",
    "SEC": "010",
    "SS": "02"
  },
  "addresses": [
    {
      "id": "pt.ine.add.PTCONT.2270199",
      "street": "R CONDE DE RIO MAIOR",
      "house": "27",
      "postcode": "2740-039",
      "city": "PORTO SALVO",
      "lon": "-9.302708390860136",
      "lat": "38.71852648820577"
    },
    {
      "id": "pt.ine.add.PTCONT.2290388",
      "street": "R JOSE FRANCISCO MANANGAO",
      "house": "26",
      "postcode": "2740-077",
      "city": "PORTO SALVO",
      "lon": "-9.303141861203372",
      "lat": "38.718314971882094"
    },
    {
      "id": "pt.ine.add.PTCONT.2399879",
      "street": "R CONDE DE RIO MAIOR",
      "house": "19",
      "postcode": "2740-039",
      "city": "PORTO SALVO",
      "lon": "-9.302542602859468",
      "lat": "38.71823089013278"
    },
    {
      "id": "pt.ine.add.PTCONT.2444351",
      "street": "PCT GONÃ‡ALVES ZARCO",
      "house": "15",
      "postcode": "2740-250",
      "city": "PORTO SALVO",
      "lon": "-9.30286448966774",
      "lat": "38.7182276698091"
    },
    {
      "id": "pt.ine.add.PTCONT.2500874",
      "street": "R JOSE FRANCISCO MANANGAO",
      "house": "24",
      "postcode": "2740-077",
      "city": "PORTO SALVO",
      "lon": "-9.303185642099125",
      "lat": "38.71817941707191"
    },
    {
      "id": "pt.ine.add.PTCONT.2502762",
      "street": "R CONDE DE RIO MAIOR",
      "house": "25",
      "postcode": "2740-039",
      "city": "PORTO SALVO",
      "lon": "-9.302638534040819",
      "lat": "38.71847314042118"
    },
    {
      "id": "pt.ine.add.PTCONT.2581169",
      "street": "TV ESCONDIDINHO",
      "house": "11",
      "postcode": "2740-058",
      "city": "PORTO SALVO",
      "lon": "-9.302784605230109",
      "lat": "38.71826450020002"
    },
    {
      "id": "pt.ine.add.PTCONT.2581170",
      "street": "TV ESCONDIDINHO",
      "house": "11",
      "postcode": "2740-058",
      "city": "PORTO SALVO",
      "lon": "-9.302784605230109",
      "lat": "38.71826450020002"
    },
    {
      "id": "pt.ine.add.PTCONT.2581171",
      "street": "TV ESCONDIDINHO",
      "house": "11",
      "postcode": "2740-058",
      "city": "PORTO SALVO",
      "lon": "-9.302784605230109",
      "lat": "38.71826450020002"
    },
    {
      "id": "pt.ine.add.PTCONT.2581172",
      "street": "TV ESCONDIDINHO",
      "house": "11",
      "postcode": "2740-058",
      "city": "PORTO SALVO",
      "lon": "-9.302784605230109",
      "lat": "38.71826450020002"
    },
    {
      "id": "pt.ine.add.PTCONT.2642832",
      "street": "R CONDE DE RIO MAIOR",
      "house": "23A",
      "postcode": "2740-039",
      "city": "PORTO SALVO",
      "lon": "-9.30260287170455",
      "lat": "38.71840143497718"
    },
    {
      "id": "pt.ine.add.PTCONT.2643026",
      "street": "R NSA SRA PORTO SALVO",
      "house": "6",
      "postcode": "2740-109",
      "city": "PORTO SALVO",
      "lon": "-9.303228247880027",
      "lat": "38.71797181179937"
    },
    {
      "id": "pt.ine.add.PTCONT.2643027",
      "street": "R NSA SRA PORTO SALVO",
      "house": "6",
      "postcode": "2740-109",
      "city": "PORTO SALVO",
      "lon": "-9.303228247880027",
      "lat": "38.71797181179937"
    },
    {
      "id": "pt.ine.add.PTCONT.2643028",
      "street": "R NSA SRA PORTO SALVO",
      "house": "6",
      "postcode": "2740-109",
      "city": "PORTO SALVO",
      "lon": "-9.303228247880027",
      "lat": "38.71797181179937"
    },
    {
      "id": "pt.ine.add.PTCONT.2769995",
      "street": "R CONDE DE RIO MAIOR",
      "house": "21",
      "postcode": "2740-039",
      "city": "PORTO SALVO",
      "lon": "-9.302578558625665",
      "lat": "38.71832060821409"
    },
    {
      "id": "pt.ine.add.PTCONT.2979585",
      "street": "R NSA SRA DE PORTO SALVO",
      "house": "4",
      "postcode": "2740-109",
      "city": "PORTO SALVO",
      "lon": "-9.303090590610712",
      "lat": "38.71799120508045"
    },
    {
      "id": "pt.ine.add.PTCONT.2979586",
      "street": "R NSA SRA DE PORTO SALVO",
      "house": "4",
      "postcode": "2740-109",
      "city": "PORTO SALVO",
      "lon": "-9.303090590610712",
      "lat": "38.71799120508045"
    },
    {
      "id": "pt.ine.add.PTCONT.2979587",
      "street": "R NSA SRA DE PORTO SALVO",
      "house": "4",
      "postcode": "2740-109",
      "city": "PORTO SALVO",
      "lon": "-9.303090590610712",
      "lat": "38.71799120508045"
    },
    {
      "id": "pt.ine.add.PTCONT.2979588",
      "street": "R NSA SRA DE PORTO SALVO",
      "house": "4",
      "postcode": "2740-109",
      "city": "PORTO SALVO",
      "lon": "-9.303090590610712",
      "lat": "38.71799120508045"
    },
    {
      "id": "pt.ine.add.PTCONT.2979589",
      "street": "R NSA SRA DE PORTO SALVO",
      "house": "4",
      "postcode": "2740-109",
      "city": "PORTO SALVO",
      "lon": "-9.303090590610712",
      "lat": "38.71799120508045"
    },
    {
      "id": "pt.ine.add.PTCONT.2979590",
      "street": "R NSA SRA DE PORTO SALVO",
      "house": "4",
      "postcode": "2740-109",
      "city": "PORTO SALVO",
      "lon": "-9.303090590610712",
      "lat": "38.71799120508045"
    },
    {
      "id": "pt.ine.add.PTCONT.2979591",
      "street": "R NSA SRA DE PORTO SALVO",
      "house": "4",
      "postcode": "2740-109",
      "city": "PORTO SALVO",
      "lon": "-9.303090590610712",
      "lat": "38.71799120508045"
    },
    {
      "id": "pt.ine.add.PTCONT.2979592",
      "street": "R NSA SRA DE PORTO SALVO",
      "house": "4",
      "postcode": "2740-109",
      "city": "PORTO SALVO",
      "lon": "-9.303090590610712",
      "lat": "38.71799120508045"
    },
    {
      "id": "pt.ine.add.PTCONT.3021694",
      "street": "R CONDESSA CUBA",
      "house": "9",
      "postcode": "2740-040",
      "city": "PORTO SALVO",
      "lon": "-9.303133008701094",
      "lat": "38.71847720043347"
    },
    {
      "id": "pt.ine.add.PTCONT.3021695",
      "street": "R CONDESSA CUBA",
      "house": "9",
      "postcode": "2740-040",
      "city": "PORTO SALVO",
      "lon": "-9.303133008701094",
      "lat": "38.71847720043347"
    },
    {
      "id": "pt.ine.add.PTCONT.3123954",
      "street": "R CONDESSA DE CUBA",
      "house": "7",
      "postcode": "2740-040",
      "city": "PORTO SALVO",
      "lon": "-9.30294936644019",
      "lat": "38.71849705377092"
    },
    {
      "id": "pt.ine.add.PTCONT.3123955",
      "street": "R CONDESSA DE CUBA",
      "house": "7",
      "postcode": "2740-040",
      "city": "PORTO SALVO",
      "lon": "-9.30294936644019",
      "lat": "38.71849705377092"
    },
    {
      "id": "pt.ine.add.PTCONT.3123956",
      "street": "R CONDESSA DE CUBA",
      "house": "7",
      "postcode": "2740-040",
      "city": "PORTO SALVO",
      "lon": "-9.30294936644019",
      "lat": "38.71849705377092"
    },
    {
      "id": "pt.ine.add.PTCONT.3193275",
      "street": "TV ESCONDIDINHO",
      "house": "9",
      "postcode": "2740-058",
      "city": "PORTO SALVO",
      "lon": "-9.3027924308014",
      "lat": "38.71803922750847"
    },
    {
      "id": "pt.ine.add.PTCONT.3193276",
      "street": "TV ESCONDIDINHO",
      "house": "9",
      "postcode": "2740-058",
      "city": "PORTO SALVO",
      "lon": "-9.3027924308014",
      "lat": "38.71803922750847"
    },
    {
      "id": "pt.ine.add.PTCONT.3193277",
      "street": "TV ESCONDIDINHO",
      "house": "9",
      "postcode": "2740-058",
      "city": "PORTO SALVO",
      "lon": "-9.3027924308014",
      "lat": "38.71803922750847"
    },
    {
      "id": "pt.ine.add.PTCONT.3193278",
      "street": "TV ESCONDIDINHO",
      "house": "9",
      "postcode": "2740-058",
      "city": "PORTO SALVO",
      "lon": "-9.3027924308014",
      "lat": "38.71803922750847"
    },
    {
      "id": "pt.ine.add.PTCONT.3193279",
      "street": "TV ESCONDIDINHO",
      "house": "9",
      "postcode": "2740-058",
      "city": "PORTO SALVO",
      "lon": "-9.3027924308014",
      "lat": "38.71803922750847"
    },
    {
      "id": "pt.ine.add.PTCONT.3193280",
      "street": "TV ESCONDIDINHO",
      "house": "9",
      "postcode": "2740-058",
      "city": "PORTO SALVO",
      "lon": "-9.3027924308014",
      "lat": "38.71803922750847"
    },
    {
      "id": "pt.ine.add.PTCONT.3193284",
      "street": "TV ESCONDIDINHO",
      "house": "9",
      "postcode": "2740-058",
      "city": "PORTO SALVO",
      "lon": "-9.3027924308014",
      "lat": "38.71803922750847"
    },
    {
      "id": "pt.ine.add.PTCONT.3307180",
      "street": "TV ESCONDIDINHO",
      "house": "17",
      "postcode": "2740-058",
      "city": "PORTO SALVO",
      "lon": "-9.30247201257793",
      "lat": "38.71813251070061"
    },
    {
      "id": "pt.ine.add.PTCONT.3337131",
      "street": "R CONDE DE RIO MAIOR",
      "house": "29",
      "postcode": "2740-039",
      "city": "PORTO SALVO",
      "lon": "-9.30273241053977",
      "lat": "38.718589302322975"
    }
  ]
}