{
  "data": {
    "distrito": "Viseu",
    "concelho": "Lamego",
    "freguesia": "Ferreirim",
    "OBJECTID": 71,
    "BGRI2021": "18050700116",
    "DT21": "18",
    "DTMN21": "1805",
    "DTMNFR21": "180507",
    "DTMNFRSEC21": "180507001",
    "SECNUM21": "001",
    "SSNUM21": "16",
    "SECSSNUM21": "00116",
    "OBJECTID_1": 191512,
    "DT": "18",
    "CC": "05",
    "fr": "07",
    "SEC": "001",
    "SS": "16"
  },
  "addresses": [
    {
      "id": "pt.ine.add.PTCONT.5452910",
      "street": "R BAIRRO NOVO",
      "house": "",
      "postcode": "5100-490",
      "city": "FERREIRIM LMG",
      "lon": "-7.775089535838239",
      "lat": "41.04831173118959"
    },
    {
      "id": "pt.ine.add.PTCONT.5456443",
      "street": "R BAIRRO NOVO",
      "house": "",
      "postcode": "5100-490",
      "city": "FERREIRIM LMG",
      "lon": "-7.775220517200968",
      "lat": "41.04828512440583"
    },
    {
      "id": "pt.ine.add.PTCONT.5497610",
      "street": "BR NOVO",
      "house": "",
      "postcode": "5100-490",
      "city": "FERREIRIM LMG",
      "lon": "-7.775352034943245",
      "lat": "41.04815946924451"
    },
    {
      "id": "pt.ine.add.PTCONT.5512126",
      "street": "BR NOVO",
      "house": "",
      "postcode": "5100-490",
      "city": "FERREIRIM LMG",
      "lon": "-7.775673613204063",
      "lat": "41.04807942623141"
    },
    {
      "id": "pt.ine.add.PTCONT.5541829",
      "street": "R BAIRRO NOVO",
      "house": "9",
      "postcode": "5100-490",
      "city": "FERREIRIM LMG",
      "lon": "-7.775494958710236",
      "lat": "41.04812389468332"
    },
    {
      "id": "pt.ine.add.PTCONT.5543478",
      "street": "R LUGAR DA EIRA",
      "house": "",
      "postcode": "5100-490",
      "city": "FERREIRIM LMG",
      "lon": "-7.774946513795772",
      "lat": "41.04836531401177"
    },
    {
      "id": "pt.ine.add.PTCONT.5617351",
      "street": "R CIMO DO POVO",
      "house": "",
      "postcode": "5100-490",
      "city": "FERREIRIM LMG",
      "lon": "-7.774959482044004",
      "lat": "41.04816725452959"
    }
  ]
}