{
  "data": {
    "distrito": "Castelo Branco",
    "concelho": "Proença-A-Nova",
    "freguesia": "União das freguesias de Sobreira Formosa e Alvito da Beira",
    "OBJECTID": 194,
    "BGRI2021": "05080800121",
    "DT21": "05",
    "DTMN21": "0508",
    "DTMNFR21": "050808",
    "DTMNFRSEC21": "050808001",
    "SECNUM21": "001",
    "SSNUM21": "21",
    "SECSSNUM21": "00121",
    "OBJECTID_1": 45784,
    "DT": "05",
    "CC": "08",
    "fr": "08",
    "SEC": "001",
    "SS": "21"
  },
  "addresses": [
    {
      "id": "pt.ine.add.PTCONT.959064",
      "street": "R ENG AMÉRICO RODRIGUESLEITE",
      "house": "",
      "postcode": "6150-011",
      "city": "ALVITO DA BEIRA",
      "lon": "-7.800594427037379",
      "lat": "39.82506403647507"
    },
    {
      "id": "pt.ine.add.PTCONT.963616",
      "street": "TV FONTE VELHA",
      "house": "",
      "postcode": "6150-011",
      "city": "ALVITO DA BEIRA",
      "lon": "-7.801445717464302",
      "lat": "39.82535467926662"
    },
    {
      "id": "pt.ine.add.PTCONT.1010040",
      "street": "R TAPADA",
      "house": "",
      "postcode": "6150-011",
      "city": "ALVITO DA BEIRA",
      "lon": "-7.800757953960514",
      "lat": "39.8250645050111"
    },
    {
      "id": "pt.ine.add.PTCONT.1020843",
      "street": "R TAPADA",
      "house": "",
      "postcode": "6150-011",
      "city": "ALVITO DA BEIRA",
      "lon": "-7.801072460277987",
      "lat": "39.82524553436226"
    },
    {
      "id": "pt.ine.add.PTCONT.1038201",
      "street": "TV FONTE",
      "house": "",
      "postcode": "6150-011",
      "city": "ALVITO DA BEIRA",
      "lon": "-7.801213016594017",
      "lat": "39.8251648785237"
    },
    {
      "id": "pt.ine.add.PTCONT.1038250",
      "street": "R ENG AMÉRICO RODRIGUESLEITE",
      "house": "",
      "postcode": "6150-011",
      "city": "ALVITO DA BEIRA",
      "lon": "-7.800874715529959",
      "lat": "39.82507384585838"
    },
    {
      "id": "pt.ine.add.PTCONT.1040856",
      "street": "TV FONTE VELHA",
      "house": "",
      "postcode": "6150-011",
      "city": "ALVITO DA BEIRA",
      "lon": "-7.8013880077231965",
      "lat": "39.82521041118511"
    },
    {
      "id": "pt.ine.add.PTCONT.1046160",
      "street": "R ENG AMÉRICO RODRIGUESLEITE",
      "house": "",
      "postcode": "6150-011",
      "city": "ALVITO DA BEIRA",
      "lon": "-7.80085100748821",
      "lat": "39.825145829519926"
    },
    {
      "id": "pt.ine.add.PTCONT.1048437",
      "street": "R EIRA",
      "house": "",
      "postcode": "6150-011",
      "city": "ALVITO DA BEIRA",
      "lon": "-7.801340419293137",
      "lat": "39.82539040399163"
    },
    {
      "id": "pt.ine.add.PTCONT.1057453",
      "street": "R TAPADA",
      "house": "",
      "postcode": "6150-011",
      "city": "ALVITO DA BEIRA",
      "lon": "-7.80115405059092",
      "lat": "39.825281793602066"
    },
    {
      "id": "pt.ine.add.PTCONT.1067726",
      "street": "R BARROCA DA FONTE",
      "house": "",
      "postcode": "6150-011",
      "city": "ALVITO DA BEIRA",
      "lon": "-7.801562782642684",
      "lat": "39.82530097518364"
    },
    {
      "id": "pt.ine.add.PTCONT.1071274",
      "street": "R TAPADA",
      "house": "",
      "postcode": "6150-011",
      "city": "ALVITO DA BEIRA",
      "lon": "-7.800885658623377",
      "lat": "39.825226986739175"
    },
    {
      "id": "pt.ine.add.PTCONT.1078033",
      "street": "R ENG AMÉRICO RODRIGUESLEITE",
      "house": "",
      "postcode": "6150-011",
      "city": "ALVITO DA BEIRA",
      "lon": "-7.800466028463132",
      "lat": "39.82504565553903"
    },
    {
      "id": "pt.ine.add.PTCONT.1099598",
      "street": "R TAPADA",
      "house": "",
      "postcode": "6150-011",
      "city": "ALVITO DA BEIRA",
      "lon": "-7.800827386165286",
      "lat": "39.825199800536446"
    }
  ]
}