{
  "data": {
    "distrito": "Lisboa",
    "concelho": "Lourinhã",
    "freguesia": "União das freguesias de Lourinhã e Atalaia",
    "OBJECTID": 733,
    "BGRI2021": "11081201104",
    "DT21": "11",
    "DTMN21": "1108",
    "DTMNFR21": "110812",
    "DTMNFRSEC21": "110812011",
    "SECNUM21": "011",
    "SSNUM21": "04",
    "SECSSNUM21": "01104",
    "OBJECTID_1": 107604,
    "DT": "11",
    "CC": "08",
    "fr": "12",
    "SEC": "011",
    "SS": "04"
  },
  "addresses": [
    {
      "id": "pt.ine.add.PTCONT.2369757",
      "street": "R MIGUEL BOMBARDA",
      "house": "15",
      "postcode": "2530-161",
      "city": "LOURINHÃ",
      "lon": "-9.311104240465985",
      "lat": "39.24163596424942"
    },
    {
      "id": "pt.ine.add.PTCONT.2564303",
      "street": "R MIGUEL BOMBARDA",
      "house": "39",
      "postcode": "2530-161",
      "city": "LOURINHÃ",
      "lon": "-9.311821952930673",
      "lat": "39.24161068829043"
    },
    {
      "id": "pt.ine.add.PTCONT.2564304",
      "street": "R MIGUEL BOMBARDA",
      "house": "39",
      "postcode": "2530-161",
      "city": "LOURINHÃ",
      "lon": "-9.311821952930673",
      "lat": "39.24161068829043"
    },
    {
      "id": "pt.ine.add.PTCONT.2564305",
      "street": "R MIGUEL BOMBARDA",
      "house": "39",
      "postcode": "2530-161",
      "city": "LOURINHÃ",
      "lon": "-9.311821952930673",
      "lat": "39.24161068829043"
    },
    {
      "id": "pt.ine.add.PTCONT.2564306",
      "street": "R MIGUEL BOMBARDA",
      "house": "39",
      "postcode": "2530-161",
      "city": "LOURINHÃ",
      "lon": "-9.311821952930673",
      "lat": "39.24161068829043"
    },
    {
      "id": "pt.ine.add.PTCONT.2564307",
      "street": "R MIGUEL BOMBARDA",
      "house": "39",
      "postcode": "2530-161",
      "city": "LOURINHÃ",
      "lon": "-9.311821952930673",
      "lat": "39.24161068829043"
    },
    {
      "id": "pt.ine.add.PTCONT.2566072",
      "street": "R MIGUEL BOMBARDA",
      "house": "39",
      "postcode": "2530-161",
      "city": "LOURINHÃ",
      "lon": "-9.311821952930673",
      "lat": "39.24161068829043"
    },
    {
      "id": "pt.ine.add.PTCONT.2637822",
      "street": "R MIGUEL BOMBARDA",
      "house": "5",
      "postcode": "2530-161",
      "city": "LOURINHÃ",
      "lon": "-9.310722824623532",
      "lat": "39.241684856668186"
    },
    {
      "id": "pt.ine.add.PTCONT.2677502",
      "street": "R VISC PALMA DE ALMEIDA",
      "house": "4",
      "postcode": "2530-166",
      "city": "LOURINHÃ",
      "lon": "-9.310871869948368",
      "lat": "39.2415932795078"
    },
    {
      "id": "pt.ine.add.PTCONT.2722012",
      "street": "R GAGO COUTINHO",
      "house": "4",
      "postcode": "2530-153",
      "city": "LOURINHÃ",
      "lon": "-9.311698306957286",
      "lat": "39.241143576009115"
    },
    {
      "id": "pt.ine.add.PTCONT.2722013",
      "street": "R GAGO COUTINHO",
      "house": "4",
      "postcode": "2530-153",
      "city": "LOURINHÃ",
      "lon": "-9.311698306957286",
      "lat": "39.241143576009115"
    },
    {
      "id": "pt.ine.add.PTCONT.2722014",
      "street": "R GAGO COUTINHO",
      "house": "4",
      "postcode": "2530-153",
      "city": "LOURINHÃ",
      "lon": "-9.311698306957286",
      "lat": "39.241143576009115"
    },
    {
      "id": "pt.ine.add.PTCONT.2722015",
      "street": "R GAGO COUTINHO",
      "house": "4",
      "postcode": "2530-153",
      "city": "LOURINHÃ",
      "lon": "-9.311698306957286",
      "lat": "39.241143576009115"
    },
    {
      "id": "pt.ine.add.PTCONT.2722016",
      "street": "R GAGO COUTINHO",
      "house": "4",
      "postcode": "2530-153",
      "city": "LOURINHÃ",
      "lon": "-9.311698306957286",
      "lat": "39.241143576009115"
    },
    {
      "id": "pt.ine.add.PTCONT.2722017",
      "street": "R GAGO COUTINHO",
      "house": "4",
      "postcode": "2530-153",
      "city": "LOURINHÃ",
      "lon": "-9.311698306957286",
      "lat": "39.241143576009115"
    },
    {
      "id": "pt.ine.add.PTCONT.2722018",
      "street": "R GAGO COUTINHO",
      "house": "4",
      "postcode": "2530-153",
      "city": "LOURINHÃ",
      "lon": "-9.311698306957286",
      "lat": "39.241143576009115"
    },
    {
      "id": "pt.ine.add.PTCONT.2722019",
      "street": "R GAGO COUTINHO",
      "house": "4",
      "postcode": "2530-153",
      "city": "LOURINHÃ",
      "lon": "-9.311698306957286",
      "lat": "39.241143576009115"
    },
    {
      "id": "pt.ine.add.PTCONT.2722025",
      "street": "R GAGO COUTINHO",
      "house": "4",
      "postcode": "2530-153",
      "city": "LOURINHÃ",
      "lon": "-9.311698306957286",
      "lat": "39.241143576009115"
    },
    {
      "id": "pt.ine.add.PTCONT.2722026",
      "street": "R GAGO COUTINHO",
      "house": "4",
      "postcode": "2530-153",
      "city": "LOURINHÃ",
      "lon": "-9.311698306957286",
      "lat": "39.241143576009115"
    },
    {
      "id": "pt.ine.add.PTCONT.2722027",
      "street": "R GAGO COUTINHO",
      "house": "4",
      "postcode": "2530-153",
      "city": "LOURINHÃ",
      "lon": "-9.311698306957286",
      "lat": "39.241143576009115"
    },
    {
      "id": "pt.ine.add.PTCONT.3048049",
      "street": "R MIGUEL BOMBARDA",
      "house": "9",
      "postcode": "2530-161",
      "city": "LOURINHÃ",
      "lon": "-9.310954592866105",
      "lat": "39.24169151982206"
    },
    {
      "id": "pt.ine.add.PTCONT.3086846",
      "street": "R MIGUEL BOMBARDA",
      "house": "19",
      "postcode": "2530-161",
      "city": "LOURINHÃ",
      "lon": "-9.311335857892212",
      "lat": "39.24163362117689"
    },
    {
      "id": "pt.ine.add.PTCONT.3086847",
      "street": "R MIGUEL BOMBARDA",
      "house": "19",
      "postcode": "2530-161",
      "city": "LOURINHÃ",
      "lon": "-9.311335857892212",
      "lat": "39.24163362117689"
    },
    {
      "id": "pt.ine.add.PTCONT.3264285",
      "street": "R CARMO",
      "house": "12",
      "postcode": "2530-141",
      "city": "LOURINHÃ",
      "lon": "-9.311854434451664",
      "lat": "39.24147525462998"
    },
    {
      "id": "pt.ine.add.PTCONT.3264286",
      "street": "R CARMO",
      "house": "12",
      "postcode": "2530-141",
      "city": "LOURINHÃ",
      "lon": "-9.311854434451664",
      "lat": "39.24147525462998"
    },
    {
      "id": "pt.ine.add.PTCONT.3264287",
      "street": "R CARMO",
      "house": "12",
      "postcode": "2530-141",
      "city": "LOURINHÃ",
      "lon": "-9.311854434451664",
      "lat": "39.24147525462998"
    },
    {
      "id": "pt.ine.add.PTCONT.3264288",
      "street": "R CARMO",
      "house": "12",
      "postcode": "2530-141",
      "city": "LOURINHÃ",
      "lon": "-9.311854434451664",
      "lat": "39.24147525462998"
    },
    {
      "id": "pt.ine.add.PTCONT.3297882",
      "street": "R CARMO",
      "house": "4",
      "postcode": "2530-141",
      "city": "LOURINHÃ",
      "lon": "-9.311805397920155",
      "lat": "39.24131362506101"
    },
    {
      "id": "pt.ine.add.PTCONT.3297879",
      "street": "R CARMO",
      "house": "4",
      "postcode": "2530-141",
      "city": "LOURINHÃ",
      "lon": "-9.311805397920155",
      "lat": "39.24131362506101"
    },
    {
      "id": "pt.ine.add.PTCONT.3297880",
      "street": "R CARMO",
      "house": "4",
      "postcode": "2530-141",
      "city": "LOURINHÃ",
      "lon": "-9.311805397920155",
      "lat": "39.24131362506101"
    },
    {
      "id": "pt.ine.add.PTCONT.3297881",
      "street": "R CARMO",
      "house": "4",
      "postcode": "2530-141",
      "city": "LOURINHÃ",
      "lon": "-9.311805397920155",
      "lat": "39.24131362506101"
    },
    {
      "id": "pt.ine.add.PTCONT.3297883",
      "street": "R CARMO",
      "house": "4",
      "postcode": "2530-141",
      "city": "LOURINHÃ",
      "lon": "-9.311805397920155",
      "lat": "39.24131362506101"
    },
    {
      "id": "pt.ine.add.PTCONT.3297884",
      "street": "R CARMO",
      "house": "4",
      "postcode": "2530-141",
      "city": "LOURINHÃ",
      "lon": "-9.311805397920155",
      "lat": "39.24131362506101"
    },
    {
      "id": "pt.ine.add.PTCONT.3297885",
      "street": "R CARMO",
      "house": "4",
      "postcode": "2530-141",
      "city": "LOURINHÃ",
      "lon": "-9.311805397920155",
      "lat": "39.24131362506101"
    },
    {
      "id": "pt.ine.add.PTCONT.3297886",
      "street": "R CARMO",
      "house": "4",
      "postcode": "2530-141",
      "city": "LOURINHÃ",
      "lon": "-9.311805397920155",
      "lat": "39.24131362506101"
    },
    {
      "id": "pt.ine.add.PTCONT.3345285",
      "street": "R VISC PALMA DE ALMEIDA",
      "house": "16",
      "postcode": "2530-166",
      "city": "LOURINHÃ",
      "lon": "-9.311376154301398",
      "lat": "39.241272933733086"
    },
    {
      "id": "pt.ine.add.PTCONT.3345286",
      "street": "R VISC PALMA DE ALMEIDA",
      "house": "16",
      "postcode": "2530-166",
      "city": "LOURINHÃ",
      "lon": "-9.311376154301398",
      "lat": "39.241272933733086"
    },
    {
      "id": "pt.ine.add.PTCONT.3436263",
      "street": "R GAGO COUTINHO",
      "house": "4",
      "postcode": "2530-153",
      "city": "LOURINHÃ",
      "lon": "-9.311698306957286",
      "lat": "39.241143576009115"
    }
  ]
}