{
  "data": {
    "distrito": "Santarém",
    "concelho": "Rio Maior",
    "freguesia": "União das freguesias de Azambujeira e Malaqueijo",
    "OBJECTID": 191,
    "BGRI2021": "14141500130",
    "DT21": "14",
    "DTMN21": "1414",
    "DTMNFR21": "141415",
    "DTMNFRSEC21": "141415001",
    "SECNUM21": "001",
    "SSNUM21": "30",
    "SECSSNUM21": "00130",
    "OBJECTID_1": 153103,
    "DT": "14",
    "CC": "14",
    "fr": "15",
    "SEC": "001",
    "SS": "30"
  },
  "addresses": [
    {
      "id": "pt.ine.add.PTCONT.4469443",
      "street": "R EIRAS",
      "house": "14",
      "postcode": "2040-535",
      "city": "MALAQUEIJO",
      "lon": "-8.818312562484515",
      "lat": "39.2959461547304"
    },
    {
      "id": "pt.ine.add.PTCONT.4491353",
      "street": "R EIRAS",
      "house": "18",
      "postcode": "2040-535",
      "city": "MALAQUEIJO",
      "lon": "-8.818831365566691",
      "lat": "39.295654870959055"
    },
    {
      "id": "pt.ine.add.PTCONT.4518882",
      "street": "R HEIRAS",
      "house": "4",
      "postcode": "2040-535",
      "city": "MALAQUEIJO",
      "lon": "-8.816647218483753",
      "lat": "39.297541204880105"
    },
    {
      "id": "pt.ine.add.PTCONT.4549452",
      "street": "R COVOES",
      "house": "7",
      "postcode": "2040-535",
      "city": "MALAQUEIJO",
      "lon": "-8.819071642244177",
      "lat": "39.29770708884839"
    },
    {
      "id": "pt.ine.add.PTCONT.4557947",
      "street": "R COVO",
      "house": "13",
      "postcode": "2040-535",
      "city": "MALAQUEIJO",
      "lon": "-8.818820652796232",
      "lat": "39.29574500570701"
    },
    {
      "id": "pt.ine.add.PTCONT.4566338",
      "street": "R EIRAS",
      "house": "10",
      "postcode": "2040-535",
      "city": "MALAQUEIJO",
      "lon": "-8.817978341340947",
      "lat": "39.296146278886376"
    },
    {
      "id": "pt.ine.add.PTCONT.4587130",
      "street": "R EIRAS",
      "house": "12",
      "postcode": "2040-535",
      "city": "MALAQUEIJO",
      "lon": "-8.818047539121318",
      "lat": "39.296109843151925"
    },
    {
      "id": "pt.ine.add.PTCONT.4626807",
      "street": "R EIRAS",
      "house": "8",
      "postcode": "2040-535",
      "city": "MALAQUEIJO",
      "lon": "-8.817932501946363",
      "lat": "39.2962005915157"
    },
    {
      "id": "pt.ine.add.PTCONT.4655515",
      "street": "R EIRAS",
      "house": "16",
      "postcode": "2040-535",
      "city": "MALAQUEIJO",
      "lon": "-8.818578023766186",
      "lat": "39.29582749895223"
    },
    {
      "id": "pt.ine.add.PTCONT.4657617",
      "street": "R EIRAS",
      "house": "2",
      "postcode": "2040-535",
      "city": "MALAQUEIJO",
      "lon": "-8.815901062029964",
      "lat": "39.29710423221765"
    }
  ]
}