{
  "data": {
    "distrito": "Portalegre",
    "concelho": "Campo Maior",
    "freguesia": "São João Baptista",
    "OBJECTID": 17,
    "BGRI2021": "12040300330",
    "DT21": "12",
    "DTMN21": "1204",
    "DTMNFR21": "120403",
    "DTMNFRSEC21": "120403003",
    "SECNUM21": "003",
    "SSNUM21": "30",
    "SECSSNUM21": "00330",
    "OBJECTID_1": 121060,
    "DT": "12",
    "CC": "04",
    "fr": "03",
    "SEC": "003",
    "SS": "30"
  },
  "addresses": [
    {
      "id": "pt.ine.add.PTCONT.3535377",
      "street": "R GEN MOURA AZEVEDO",
      "house": "27",
      "postcode": "7370-084",
      "city": "CAMPO MAIOR",
      "lon": "-7.062605884081441",
      "lat": "39.0206095258816"
    },
    {
      "id": "pt.ine.add.PTCONT.3538023",
      "street": "R HENRIQUE SANTOS",
      "house": "28",
      "postcode": "7370-124",
      "city": "CAMPO MAIOR",
      "lon": "-7.062838824119448",
      "lat": "39.020476552560496"
    },
    {
      "id": "pt.ine.add.PTCONT.3477293",
      "street": "R GEN MOURA AZEVEDO",
      "house": "23",
      "postcode": "7370-084",
      "city": "CAMPO MAIOR",
      "lon": "-7.062683576405911",
      "lat": "39.02081740886641"
    },
    {
      "id": "pt.ine.add.PTCONT.3478711",
      "street": "R MOÇAMBIQUE",
      "house": "4",
      "postcode": "7370-124",
      "city": "CAMPO MAIOR",
      "lon": "-7.062847653370498",
      "lat": "39.020656781401954"
    },
    {
      "id": "pt.ine.add.PTCONT.3481545",
      "street": "R GEN MOURA AZEVEDO",
      "house": "25",
      "postcode": "7370-084",
      "city": "CAMPO MAIOR",
      "lon": "-7.062604797477911",
      "lat": "39.0206815750392"
    },
    {
      "id": "pt.ine.add.PTCONT.3487011",
      "street": "R HENRIQUE SANTOS",
      "house": "26",
      "postcode": "7370-084",
      "city": "CAMPO MAIOR",
      "lon": "-7.062851591392817",
      "lat": "39.020395603179345"
    },
    {
      "id": "pt.ine.add.PTCONT.3502798",
      "street": "R GEN MOURA AZEVEDO",
      "house": "21",
      "postcode": "7370-084",
      "city": "CAMPO MAIOR",
      "lon": "-7.062798892495214",
      "lat": "39.02082747442738"
    },
    {
      "id": "pt.ine.add.PTCONT.3508620",
      "street": "R DR HENRIQUE SANTOS",
      "house": "22",
      "postcode": "7370-092",
      "city": "CAMPO MAIOR",
      "lon": "-7.062607921452573",
      "lat": "39.02047443370858"
    },
    {
      "id": "pt.ine.add.PTCONT.3510967",
      "street": "R MOÇAMBIQUE",
      "house": "2",
      "postcode": "7370-124",
      "city": "CAMPO MAIOR",
      "lon": "-7.062825649423544",
      "lat": "39.02058452037514"
    },
    {
      "id": "pt.ine.add.PTCONT.3522352",
      "street": "R GEN MOURA AZEVEDO",
      "house": "31",
      "postcode": "7370-084",
      "city": "CAMPO MAIOR",
      "lon": "-7.062609143868685",
      "lat": "39.02039337840323"
    }
  ]
}