{
  "data": {
    "distrito": "Bragança",
    "concelho": "Mirandela",
    "freguesia": "União das freguesias de Franco e Vila Boa",
    "OBJECTID": 485,
    "BGRI2021": "04074100114",
    "DT21": "04",
    "DTMN21": "0407",
    "DTMNFR21": "040741",
    "DTMNFRSEC21": "040741001",
    "SECNUM21": "001",
    "SSNUM21": "14",
    "SECSSNUM21": "00114",
    "OBJECTID_1": 37429,
    "DT": "04",
    "CC": "07",
    "fr": "41",
    "SEC": "001",
    "SS": "14"
  },
  "addresses": [
    {
      "id": "pt.ine.add.PTCONT.850430",
      "street": "TV FEIRA",
      "house": "3",
      "postcode": "5370-120",
      "city": "FRANCO",
      "lon": "-7.342196386792274",
      "lat": "41.43339516662914"
    },
    {
      "id": "pt.ine.add.PTCONT.858892",
      "street": "CANELHA DA CERCA",
      "house": "1",
      "postcode": "5370-120",
      "city": "FRANCO",
      "lon": "-7.344325293028358",
      "lat": "41.43345480233897"
    },
    {
      "id": "pt.ine.add.PTCONT.866663",
      "street": "R TERREIRO",
      "house": "1",
      "postcode": "5370-120",
      "city": "FRANCO",
      "lon": "-7.342376162657721",
      "lat": "41.433369390899635"
    },
    {
      "id": "pt.ine.add.PTCONT.871098",
      "street": "R MIRGANDEIRA",
      "house": "6",
      "postcode": "5370-120",
      "city": "FRANCO",
      "lon": "-7.3418866554618525",
      "lat": "41.43328499064698"
    },
    {
      "id": "pt.ine.add.PTCONT.882041",
      "street": "R TRONCO",
      "house": "1",
      "postcode": "5370-120",
      "city": "FRANCO",
      "lon": "-7.342470120252366",
      "lat": "41.433514098231626"
    },
    {
      "id": "pt.ine.add.PTCONT.882490",
      "street": "TV FEIRA",
      "house": "21",
      "postcode": "5370-120",
      "city": "FRANCO",
      "lon": "-7.342587567827233",
      "lat": "41.43369498228885"
    },
    {
      "id": "pt.ine.add.PTCONT.895739",
      "street": "R TERREIRO",
      "house": "3",
      "postcode": "5370-120",
      "city": "FRANCO",
      "lon": "-7.342326342987187",
      "lat": "41.43353111771373"
    },
    {
      "id": "pt.ine.add.PTCONT.896466",
      "street": "R FEIRA",
      "house": "",
      "postcode": "5370-120",
      "city": "FRANCO",
      "lon": "-7.341896213392725",
      "lat": "41.43348314102844"
    },
    {
      "id": "pt.ine.add.PTCONT.898762",
      "street": "SIT FRANCO",
      "house": "7",
      "postcode": "5370-120",
      "city": "FRANCO",
      "lon": "-7.342157874123776",
      "lat": "41.43361099418722"
    },
    {
      "id": "pt.ine.add.PTCONT.903360",
      "street": "R MIRGANDEIRA",
      "house": "69",
      "postcode": "5370-120",
      "city": "FRANCO",
      "lon": "-7.341736754844914",
      "lat": "41.433806182723444"
    },
    {
      "id": "pt.ine.add.PTCONT.904105",
      "street": "TV TRONCO",
      "house": "15",
      "postcode": "5370-120",
      "city": "FRANCO",
      "lon": "-7.342035727517065",
      "lat": "41.43381724280864"
    },
    {
      "id": "pt.ine.add.PTCONT.916175",
      "street": "R MIRGANDEIRA",
      "house": "53",
      "postcode": "5370-120",
      "city": "FRANCO",
      "lon": "-7.341690542126156",
      "lat": "41.43367080711393"
    },
    {
      "id": "pt.ine.add.PTCONT.929316",
      "street": "TV FEIRA",
      "house": "2",
      "postcode": "5370-120",
      "city": "FRANCO",
      "lon": "-7.34249546692322",
      "lat": "41.433397222407685"
    },
    {
      "id": "pt.ine.add.PTCONT.948952",
      "street": "TV FEIRA",
      "house": "38",
      "postcode": "5370-120",
      "city": "FRANCO",
      "lon": "-7.342779635259727",
      "lat": "41.43364227885113"
    }
  ]
}