{
  "data": {
    "distrito": "Santarém",
    "concelho": "Torres Novas",
    "freguesia": "União das freguesias de Torres Novas (Santa Maria, Salvador e Santiago)",
    "OBJECTID": 879,
    "BGRI2021": "14192000608",
    "DT21": "14",
    "DTMN21": "1419",
    "DTMNFR21": "141920",
    "DTMNFRSEC21": "141920006",
    "SECNUM21": "006",
    "SSNUM21": "08",
    "SECSSNUM21": "00608",
    "OBJECTID_1": 157381,
    "DT": "14",
    "CC": "19",
    "fr": "20",
    "SEC": "006",
    "SS": "08"
  },
  "addresses": [
    {
      "id": "pt.ine.add.PTCONT.4402251",
      "street": "LAD ENFERMARIA MILITAR",
      "house": "5",
      "postcode": "2350-527",
      "city": "TORRES NOVAS",
      "lon": "-8.540560630613815",
      "lat": "39.47694129132175"
    },
    {
      "id": "pt.ine.add.PTCONT.4464183",
      "street": "R VALVERDE",
      "house": "29",
      "postcode": "2350-594",
      "city": "TORRES NOVAS",
      "lon": "-8.540688787535625",
      "lat": "39.47699488401602"
    },
    {
      "id": "pt.ine.add.PTCONT.4465235",
      "street": "TV ENFERMARIA MILITAR",
      "house": "7",
      "postcode": "2350-527",
      "city": "TORRES NOVAS",
      "lon": "-8.540688787535625",
      "lat": "39.47699488401602"
    },
    {
      "id": "pt.ine.add.PTCONT.4468490",
      "street": "LG VALVERDE",
      "house": "2",
      "postcode": "2350-593",
      "city": "TORRES NOVAS",
      "lon": "-8.540596232199059",
      "lat": "39.477067264134384"
    },
    {
      "id": "pt.ine.add.PTCONT.4475806",
      "street": "LAD ENFERMARIA MILITAR",
      "house": "4",
      "postcode": "2350-527",
      "city": "TORRES NOVAS",
      "lon": "-8.540538227386191",
      "lat": "39.47708548131753"
    },
    {
      "id": "pt.ine.add.PTCONT.4477614",
      "street": "LAD ENFERMARIA MILITAR",
      "house": "4",
      "postcode": "2350-527",
      "city": "TORRES NOVAS",
      "lon": "-8.540538227386191",
      "lat": "39.47708548131753"
    },
    {
      "id": "pt.ine.add.PTCONT.4480754",
      "street": "R VALVERDE",
      "house": "21",
      "postcode": "2350-594",
      "city": "TORRES NOVAS",
      "lon": "-8.540676902762852",
      "lat": "39.476949890827704"
    },
    {
      "id": "pt.ine.add.PTCONT.4480755",
      "street": "R VALVERDE",
      "house": "21",
      "postcode": "2350-594",
      "city": "TORRES NOVAS",
      "lon": "-8.540676902762852",
      "lat": "39.476949890827704"
    },
    {
      "id": "pt.ine.add.PTCONT.4561509",
      "street": "LG VALVERDE",
      "house": "27",
      "postcode": "2350-593",
      "city": "TORRES NOVAS",
      "lon": "-8.540758361626555",
      "lat": "39.47696761923235"
    },
    {
      "id": "pt.ine.add.PTCONT.4572048",
      "street": "R VALVERDE",
      "house": "23",
      "postcode": "2350-594",
      "city": "TORRES NOVAS",
      "lon": "-8.540676902762852",
      "lat": "39.476949890827704"
    },
    {
      "id": "pt.ine.add.PTCONT.4659383",
      "street": "TV ENFERMARIA MILITAR",
      "house": "",
      "postcode": "2350-527",
      "city": "TORRES NOVAS",
      "lon": "-8.540456190580011",
      "lat": "39.47696867812763"
    },
    {
      "id": "pt.ine.add.PTCONT.4661024",
      "street": "R VALVERDE",
      "house": "23",
      "postcode": "2350-594",
      "city": "TORRES NOVAS",
      "lon": "-8.540676902762852",
      "lat": "39.476949890827704"
    }
  ]
}