{
  "data": {
    "distrito": "Vila Real",
    "concelho": "Boticas",
    "freguesia": "Dornelas",
    "OBJECTID": 206,
    "BGRI2021": "17021000116",
    "DT21": "17",
    "DTMN21": "1702",
    "DTMNFR21": "170210",
    "DTMNFRSEC21": "170210001",
    "SECNUM21": "001",
    "SSNUM21": "16",
    "SECSSNUM21": "00116",
    "OBJECTID_1": 180485,
    "DT": "17",
    "CC": "02",
    "fr": "10",
    "SEC": "001",
    "SS": "16"
  },
  "addresses": [
    {
      "id": "pt.ine.add.PTCONT.5367035",
      "street": "R DA POÃ‡A NOVA",
      "house": "7",
      "postcode": "5460-413",
      "city": "DORNELAS BTC",
      "lon": "-7.834852852741563",
      "lat": "41.646496530814716"
    },
    {
      "id": "pt.ine.add.PTCONT.5398017",
      "street": "R DA PONTE",
      "house": "2",
      "postcode": "5460-413",
      "city": "DORNELAS BTC",
      "lon": "-7.835896331939405",
      "lat": "41.64667930573457"
    },
    {
      "id": "pt.ine.add.PTCONT.5398018",
      "street": "R DO SENHOR DOS AFLITOS",
      "house": "3",
      "postcode": "5460-411",
      "city": "DORNELAS BTC",
      "lon": "-7.836182541604855",
      "lat": "41.64447416141029"
    },
    {
      "id": "pt.ine.add.PTCONT.5398063",
      "street": "R DO PELOURINHO",
      "house": "5",
      "postcode": "5460-417",
      "city": "DORNELAS BTC",
      "lon": "-7.841819765864337",
      "lat": "41.64010382486294"
    },
    {
      "id": "pt.ine.add.PTCONT.5400276",
      "street": "R DO SENHOR DOS AFLITOS",
      "house": "5",
      "postcode": "5460-411",
      "city": "DORNELAS BTC",
      "lon": "-7.8363730222799495",
      "lat": "41.64481679045354"
    },
    {
      "id": "pt.ine.add.PTCONT.5410009",
      "street": "R DO PELOURINHO",
      "house": "9",
      "postcode": "5460-417",
      "city": "DORNELAS BTC",
      "lon": "-7.841315789176199",
      "lat": "41.64007553581225"
    },
    {
      "id": "pt.ine.add.PTCONT.5423791",
      "street": "TV DO OUTEIRO",
      "house": "5",
      "postcode": "5460-418",
      "city": "DORNELAS BTC",
      "lon": "-7.840213496286246",
      "lat": "41.64759975148091"
    },
    {
      "id": "pt.ine.add.PTCONT.5424749",
      "street": "TV DA CAPELA",
      "house": "2",
      "postcode": "5460-411",
      "city": "DORNELAS BTC",
      "lon": "-7.836207333216054",
      "lat": "41.644303156856715"
    }
  ]
}