{
  "data": {
    "distrito": "Vila Real",
    "concelho": "Boticas",
    "freguesia": "Dornelas",
    "OBJECTID": 209,
    "BGRI2021": "17021000118",
    "DT21": "17",
    "DTMN21": "1702",
    "DTMNFR21": "170210",
    "DTMNFRSEC21": "170210001",
    "SECNUM21": "001",
    "SSNUM21": "18",
    "SECSSNUM21": "00118",
    "OBJECTID_1": 180137,
    "DT": "17",
    "CC": "02",
    "fr": "10",
    "SEC": "001",
    "SS": "18"
  },
  "addresses": [
    {
      "id": "pt.ine.add.PTCONT.5298044",
      "street": "R OUTEIRO",
      "house": "30",
      "postcode": "5460-418",
      "city": "DORNELAS BTC",
      "lon": "-7.840232651338852",
      "lat": "41.648671229229045"
    },
    {
      "id": "pt.ine.add.PTCONT.5298045",
      "street": "R OUTEIRO",
      "house": "7 A",
      "postcode": "5460-418",
      "city": "DORNELAS BTC",
      "lon": "-7.840232651338852",
      "lat": "41.648671229229045"
    },
    {
      "id": "pt.ine.add.PTCONT.5298046",
      "street": "R OUTEIRO",
      "house": "7B",
      "postcode": "5460-418",
      "city": "DORNELAS BTC",
      "lon": "-7.840232651338852",
      "lat": "41.648671229229045"
    },
    {
      "id": "pt.ine.add.PTCONT.5314404",
      "street": "R DE SAINÇA",
      "house": "",
      "postcode": "5460-416",
      "city": "DORNELAS BTC",
      "lon": "-7.84527296156688",
      "lat": "41.64628900186309"
    },
    {
      "id": "pt.ine.add.PTCONT.5344483",
      "street": "R DO OUTEIRO",
      "house": "7",
      "postcode": "5460-418",
      "city": "DORNELAS BTC",
      "lon": "-7.840232080448746",
      "lat": "41.648797278224976"
    },
    {
      "id": "pt.ine.add.PTCONT.5345027",
      "street": "LG DO OUTEIRO",
      "house": "3",
      "postcode": "5460-418",
      "city": "DORNELAS BTC",
      "lon": "-7.83987469715686",
      "lat": "41.648193125615514"
    },
    {
      "id": "pt.ine.add.PTCONT.5371266",
      "street": "R DO FONTÃO",
      "house": "3",
      "postcode": "5460-418",
      "city": "DORNELAS BTC",
      "lon": "-7.842721302902943",
      "lat": "41.65049627090077"
    },
    {
      "id": "pt.ine.add.PTCONT.5375631",
      "street": "R DE SAINÇA",
      "house": "4",
      "postcode": "5460-416",
      "city": "DORNELAS BTC",
      "lon": "-7.841674231570852",
      "lat": "41.64310165975227"
    },
    {
      "id": "pt.ine.add.PTCONT.5398016",
      "street": "R DO OUTEIRO",
      "house": "1",
      "postcode": "5460-418",
      "city": "DORNELAS BTC",
      "lon": "-7.838735151619747",
      "lat": "41.6480101408542"
    }
  ]
}