{
  "data": {
    "distrito": "Porto",
    "concelho": "Maia",
    "freguesia": "Cidade da Maia",
    "OBJECTID": 650,
    "BGRI2021": "13061901009",
    "DT21": "13",
    "DTMN21": "1306",
    "DTMNFR21": "130619",
    "DTMNFRSEC21": "130619010",
    "SECNUM21": "010",
    "SSNUM21": "09",
    "SECSSNUM21": "01009",
    "OBJECTID_1": 130659,
    "DT": "13",
    "CC": "06",
    "fr": "19",
    "SEC": "010",
    "SS": "09"
  },
  "addresses": [
    {
      "id": "pt.ine.add.PTCONT.3547168",
      "street": "R ESTRADA VELHA",
      "house": "294",
      "postcode": "4470-043",
      "city": "MAIA",
      "lon": "-8.612409066911646",
      "lat": "41.209960333278545"
    },
    {
      "id": "pt.ine.add.PTCONT.3650171",
      "street": "R DO AREAL",
      "house": "25",
      "postcode": "4470-044",
      "city": "MAIA",
      "lon": "-8.61220753328174",
      "lat": "41.209824957182256"
    },
    {
      "id": "pt.ine.add.PTCONT.3694809",
      "street": "R ESTRADA VELHA",
      "house": "260",
      "postcode": "4470-043",
      "city": "MAIA",
      "lon": "-8.612409229684877",
      "lat": "41.20978593260327"
    },
    {
      "id": "pt.ine.add.PTCONT.3877896",
      "street": "R ESTRADA VELHA",
      "house": "308",
      "postcode": "4470-043",
      "city": "MAIA",
      "lon": "-8.612394583777363",
      "lat": "41.21011346604969"
    },
    {
      "id": "pt.ine.add.PTCONT.3883168",
      "street": "R SANTANA",
      "house": "684",
      "postcode": "4470-118",
      "city": "MAIA",
      "lon": "-8.61290195387054",
      "lat": "41.21160389270975"
    },
    {
      "id": "pt.ine.add.PTCONT.3897456",
      "street": "R ESTRADA VELHA",
      "house": "344",
      "postcode": "4470-043",
      "city": "MAIA",
      "lon": "-8.612557172920885",
      "lat": "41.2104639555409"
    },
    {
      "id": "pt.ine.add.PTCONT.3915751",
      "street": "R ESTRADA VELHA",
      "house": "344",
      "postcode": "4470-043",
      "city": "MAIA",
      "lon": "-8.61240377964572",
      "lat": "41.210377869502366"
    },
    {
      "id": "pt.ine.add.PTCONT.4143288",
      "street": "R AREAL",
      "house": "41",
      "postcode": "4470-044",
      "city": "MAIA",
      "lon": "-8.612123743836024",
      "lat": "41.20987878927162"
    },
    {
      "id": "pt.ine.add.PTCONT.4314445",
      "street": "R ESTRADA VELHA",
      "house": "344",
      "postcode": "4470-043",
      "city": "MAIA",
      "lon": "-8.612352104171073",
      "lat": "41.210324125613525"
    },
    {
      "id": "pt.ine.add.PTCONT.4370125",
      "street": "R ESTRADA VELHA",
      "house": "344",
      "postcode": "4470-043",
      "city": "MAIA",
      "lon": "-8.612300221010205",
      "lat": "41.21025399930687"
    }
  ]
}