{
  "data": {
    "distrito": "Aveiro",
    "concelho": "Águeda",
    "freguesia": "União das freguesias de Recardães e Espinhel",
    "OBJECTID": 547,
    "BGRI2021": "01012400408",
    "DT21": "01",
    "DTMN21": "0101",
    "DTMNFR21": "010124",
    "DTMNFRSEC21": "010124004",
    "SECNUM21": "004",
    "SSNUM21": "08",
    "SECSSNUM21": "00408",
    "OBJECTID_1": 294,
    "DT": "01",
    "CC": "01",
    "fr": "24",
    "SEC": "004",
    "SS": "08"
  },
  "addresses": [
    {
      "id": "pt.ine.add.PTCONT.325457",
      "street": "R CABECO DAS CUCAS",
      "house": "157",
      "postcode": "3750-404",
      "city": "ESPINHEL",
      "lon": "-8.47622305263286",
      "lat": "40.57425769270844"
    },
    {
      "id": "pt.ine.add.PTCONT.34693",
      "street": "R PRINCIPAL",
      "house": "140",
      "postcode": "3750-404",
      "city": "ESPINHEL",
      "lon": "-8.476611853549143",
      "lat": "40.574076431722965"
    },
    {
      "id": "pt.ine.add.PTCONT.131331",
      "street": "R LAVOURA",
      "house": "388",
      "postcode": "3750-404",
      "city": "ESPINHEL",
      "lon": "-8.475713212037851",
      "lat": "40.573862973657796"
    },
    {
      "id": "pt.ine.add.PTCONT.173898",
      "street": "R ESCOLA",
      "house": "370",
      "postcode": "3750-404",
      "city": "ESPINHEL",
      "lon": "-8.475696579789101",
      "lat": "40.57291746872696"
    },
    {
      "id": "pt.ine.add.PTCONT.211422",
      "street": "R PRI NCIPAL",
      "house": "92",
      "postcode": "3750-404",
      "city": "ESPINHEL",
      "lon": "-8.47612650512982",
      "lat": "40.57385274193703"
    },
    {
      "id": "pt.ine.add.PTCONT.262816",
      "street": "R CABECO DAS CUCAS",
      "house": "139",
      "postcode": "3750-404",
      "city": "ESPINHEL",
      "lon": "-8.476117178697935",
      "lat": "40.574339054612636"
    },
    {
      "id": "pt.ine.add.PTCONT.262817",
      "street": "R CABECO DAS CUCAS",
      "house": "",
      "postcode": "3750-404",
      "city": "ESPINHEL",
      "lon": "-8.47545853948208",
      "lat": "40.574872319699246"
    },
    {
      "id": "pt.ine.add.PTCONT.281601",
      "street": "R PRINCIPAL",
      "house": "62",
      "postcode": "3750-404",
      "city": "ESPINHEL",
      "lon": "-8.475735039965837",
      "lat": "40.57351170307242"
    }
  ]
}