{
  "data": {
    "distrito": "Santarém",
    "concelho": "Ourém",
    "freguesia": "União das freguesias de Freixianda, Ribeira do Fárrio e Formigais",
    "OBJECTID": 90,
    "BGRI2021": "14211900528",
    "DT21": "14",
    "DTMN21": "1421",
    "DTMNFR21": "142119",
    "DTMNFRSEC21": "142119005",
    "SECNUM21": "005",
    "SSNUM21": "28",
    "SECSSNUM21": "00528",
    "OBJECTID_1": 159320,
    "DT": "14",
    "CC": "21",
    "fr": "19",
    "SEC": "005",
    "SS": "28"
  },
  "addresses": [
    {
      "id": "pt.ine.add.PTCONT.4486199",
      "street": "R PESO",
      "house": "28",
      "postcode": "2435-263",
      "city": "FREIXIANDA",
      "lon": "-8.47199911836048",
      "lat": "39.79399128748436"
    },
    {
      "id": "pt.ine.add.PTCONT.4519187",
      "street": "R NSA SRA DO AMPARO",
      "house": "21",
      "postcode": "2435-263",
      "city": "FREIXIANDA",
      "lon": "-8.470756523846674",
      "lat": "39.79296816946748"
    },
    {
      "id": "pt.ine.add.PTCONT.4527302",
      "street": "R OLIVEIRA",
      "house": "3",
      "postcode": "2435-263",
      "city": "FREIXIANDA",
      "lon": "-8.471661110711127",
      "lat": "39.79410935845629"
    },
    {
      "id": "pt.ine.add.PTCONT.4551996",
      "street": "R NSA SRA DO AMPARO",
      "house": "23",
      "postcode": "2435-263",
      "city": "FREIXIANDA",
      "lon": "-8.471000994989826",
      "lat": "39.79282335401818"
    },
    {
      "id": "pt.ine.add.PTCONT.4566674",
      "street": "R PESO",
      "house": "",
      "postcode": "2435-263",
      "city": "FREIXIANDA",
      "lon": "-8.470894113544315",
      "lat": "39.79245439894313"
    },
    {
      "id": "pt.ine.add.PTCONT.4573084",
      "street": "R BARREIRO",
      "house": "8",
      "postcode": "2435-263",
      "city": "FREIXIANDA",
      "lon": "-8.472235762062379",
      "lat": "39.79225234313903"
    },
    {
      "id": "pt.ine.add.PTCONT.4608269",
      "street": "R NSA SRA DO AMPARO",
      "house": "27",
      "postcode": "2435-263",
      "city": "FREIXIANDA",
      "lon": "-8.471132329888533",
      "lat": "39.793417400052185"
    },
    {
      "id": "pt.ine.add.PTCONT.4610384",
      "street": "R NSA SRA DO AMPARO",
      "house": "",
      "postcode": "2435-263",
      "city": "FREIXIANDA",
      "lon": "-8.471075452848858",
      "lat": "39.79372378643532"
    },
    {
      "id": "pt.ine.add.PTCONT.4631483",
      "street": "R NSA SRA DO AMPARO",
      "house": "31",
      "postcode": "2435-263",
      "city": "FREIXIANDA",
      "lon": "-8.471006062766762",
      "lat": "39.79385908587479"
    },
    {
      "id": "pt.ine.add.PTCONT.4637210",
      "street": "R NSA SRA DO AMPARO",
      "house": "",
      "postcode": "2435-263",
      "city": "FREIXIANDA",
      "lon": "-8.470889971489862",
      "lat": "39.79399452121407"
    }
  ]
}