{
  "data": {
    "distrito": "Setúbal",
    "concelho": "Setúbal",
    "freguesia": "União das freguesias de Azeitão (São Lourenço e São Simão)",
    "OBJECTID": 1115,
    "BGRI2021": "15120901613",
    "DT21": "15",
    "DTMN21": "1512",
    "DTMNFR21": "151209",
    "DTMNFRSEC21": "151209016",
    "SECNUM21": "016",
    "SSNUM21": "13",
    "SECSSNUM21": "01613",
    "OBJECTID_1": 170006,
    "DT": "15",
    "CC": "12",
    "fr": "09",
    "SEC": "016",
    "SS": "13"
  },
  "addresses": [
    {
      "id": "pt.ine.add.PTCONT.4746393",
      "street": "R ABEL SALAZAR",
      "house": "16",
      "postcode": "2925-081",
      "city": "AZEITÃO",
      "lon": "-9.0200221500636",
      "lat": "38.53891439991699"
    },
    {
      "id": "pt.ine.add.PTCONT.4788235",
      "street": "R JOSE DIAS COELHO",
      "house": "27",
      "postcode": "2925-175",
      "city": "AZEITÃO",
      "lon": "-9.020264203103366",
      "lat": "38.53901165642979"
    },
    {
      "id": "pt.ine.add.PTCONT.4862811",
      "street": "R ABEL MANTA",
      "house": "17",
      "postcode": "2925-080",
      "city": "AZEITÃO",
      "lon": "-9.019542025906446",
      "lat": "38.53904415120731"
    },
    {
      "id": "pt.ine.add.PTCONT.4921917",
      "street": "R FRANCISCO SA DE MIRANDA",
      "house": "20",
      "postcode": "2925-528",
      "city": "AZEITÃO",
      "lon": "-9.020182154180008",
      "lat": "38.538868146592264"
    },
    {
      "id": "pt.ine.add.PTCONT.4933121",
      "street": "R JOSE DIAS COELHO",
      "house": "21",
      "postcode": "2925-175",
      "city": "AZEITÃO",
      "lon": "-9.01976202659881",
      "lat": "38.539213641491116"
    },
    {
      "id": "pt.ine.add.PTCONT.4939130",
      "street": "R JOSE DIAS COELHO",
      "house": "25",
      "postcode": "2925-175",
      "city": "AZEITÃO",
      "lon": "-9.020093504699645",
      "lat": "38.53912104843553"
    },
    {
      "id": "pt.ine.add.PTCONT.5033106",
      "street": "R ABEL SALAZAR",
      "house": "14",
      "postcode": "2925-081",
      "city": "AZEITÃO",
      "lon": "-9.019862366930068",
      "lat": "38.53897866779249"
    }
  ]
}