{
  "data": {
    "distrito": "Guarda",
    "concelho": "Vila Nova de Foz Côa",
    "freguesia": "Vila Nova de Foz Côa",
    "OBJECTID": 307,
    "BGRI2021": "09141900118",
    "DT21": "09",
    "DTMN21": "0914",
    "DTMNFR21": "091419",
    "DTMNFRSEC21": "091419001",
    "SECNUM21": "001",
    "SSNUM21": "18",
    "SECSSNUM21": "00118",
    "OBJECTID_1": 83595,
    "DT": "09",
    "CC": "14",
    "fr": "19",
    "SEC": "001",
    "SS": "18"
  },
  "addresses": [
    {
      "id": "pt.ine.add.PTCONT.1902570",
      "street": "R DA ESCOLA",
      "house": "",
      "postcode": "5155-670",
      "city": "SANTO AMARO VLF",
      "lon": "-7.170841682233525",
      "lat": "41.102055051696965"
    },
    {
      "id": "pt.ine.add.PTCONT.1913644",
      "street": "R DO MANGUITO",
      "house": "2",
      "postcode": "5155-670",
      "city": "SANTO AMARO VLF",
      "lon": "-7.168313994610484",
      "lat": "41.10396083165799"
    },
    {
      "id": "pt.ine.add.PTCONT.1928316",
      "street": "R DO CIMO DA FORCA",
      "house": "37",
      "postcode": "5155-657",
      "city": "SANTO AMARO VLF",
      "lon": "-7.168668486827868",
      "lat": "41.10495427238329"
    },
    {
      "id": "pt.ine.add.PTCONT.1975439",
      "street": "R DO MANGUITO",
      "house": "8",
      "postcode": "5155-670",
      "city": "SANTO AMARO VLF",
      "lon": "-7.168479314389573",
      "lat": "41.104052258963655"
    },
    {
      "id": "pt.ine.add.PTCONT.1849702",
      "street": "R DO CRUZEIRO",
      "house": "",
      "postcode": "5155-670",
      "city": "SANTO AMARO VLF",
      "lon": "-7.1710507230560765",
      "lat": "41.10159757812608"
    },
    {
      "id": "pt.ine.add.PTCONT.1866864",
      "street": "R DO CAMINHO NOVO",
      "house": "2",
      "postcode": "5155-670",
      "city": "SANTO AMARO VLF",
      "lon": "-7.168530350608928",
      "lat": "41.10381857454894"
    },
    {
      "id": "pt.ine.add.PTCONT.1873319",
      "street": "TV ESCOLA",
      "house": "1",
      "postcode": "5155-670",
      "city": "SANTO AMARO VLF",
      "lon": "-7.170993784465668",
      "lat": "41.10223640802876"
    },
    {
      "id": "pt.ine.add.PTCONT.1873320",
      "street": "R MANUEL FERREIRA",
      "house": "9",
      "postcode": "5155-670",
      "city": "SANTO AMARO VLF",
      "lon": "-7.167987349672207",
      "lat": "41.1043182676095"
    },
    {
      "id": "pt.ine.add.PTCONT.1877409",
      "street": "TV DA ESCOLA",
      "house": "2",
      "postcode": "5155-670",
      "city": "SANTO AMARO VLF",
      "lon": "-7.171175682563388",
      "lat": "41.102823206449116"
    },
    {
      "id": "pt.ine.add.PTCONT.1883323",
      "street": "R DO MANGUITO",
      "house": "2",
      "postcode": "5155-670",
      "city": "SANTO AMARO VLF",
      "lon": "-7.168384883536322",
      "lat": "41.10399744247656"
    },
    {
      "id": "pt.ine.add.PTCONT.1893126",
      "street": "R MANUEL FERREIRA",
      "house": "19",
      "postcode": "5155-670",
      "city": "SANTO AMARO VLF",
      "lon": "-7.168015241579826",
      "lat": "41.10403936806684"
    },
    {
      "id": "pt.ine.add.PTCONT.1897970",
      "street": "R DO CIMO DA FORCA",
      "house": "35",
      "postcode": "5155-670",
      "city": "SANTO AMARO VLF",
      "lon": "-7.168598650676171",
      "lat": "41.10484563618937"
    }
  ]
}