{
  "data": {
    "distrito": "Setúbal",
    "concelho": "Almada",
    "freguesia": "União das freguesias de Caparica e Trafaria",
    "OBJECTID": 1060,
    "BGRI2021": "15031300808",
    "DT21": "15",
    "DTMN21": "1503",
    "DTMNFR21": "150313",
    "DTMNFRSEC21": "150313008",
    "SECNUM21": "008",
    "SSNUM21": "08",
    "SECSSNUM21": "00808",
    "OBJECTID_1": 161844,
    "DT": "15",
    "CC": "03",
    "fr": "13",
    "SEC": "008",
    "SS": "08"
  },
  "addresses": [
    {
      "id": "pt.ine.add.PTCONT.4667027",
      "street": "R STO ANTONIO",
      "house": "2 A",
      "postcode": "2825-048",
      "city": "CAPARICA",
      "lon": "-9.221682424789654",
      "lat": "38.650254621906036"
    },
    {
      "id": "pt.ine.add.PTCONT.4667042",
      "street": "R CAPUCHINHOS",
      "house": "",
      "postcode": "2825-044",
      "city": "CAPARICA",
      "lon": "-9.223584648203545",
      "lat": "38.64919198345439"
    },
    {
      "id": "pt.ine.add.PTCONT.4691841",
      "street": "R STO ANTÓNIO",
      "house": "JS",
      "postcode": "2825-048",
      "city": "CAPARICA",
      "lon": "-9.221869224400427",
      "lat": "38.64969439150885"
    },
    {
      "id": "pt.ine.add.PTCONT.4728614",
      "street": "R SANTO ANTÓNIO",
      "house": "2",
      "postcode": "2825-048",
      "city": "CAPARICA",
      "lon": "-9.221797278863601",
      "lat": "38.650253552968344"
    },
    {
      "id": "pt.ine.add.PTCONT.4782337",
      "street": "R VIEIRA PORTUENSE",
      "house": "5",
      "postcode": "2825-048",
      "city": "CAPARICA",
      "lon": "-9.220192264575717",
      "lat": "38.65122332131632"
    },
    {
      "id": "pt.ine.add.PTCONT.4817675",
      "street": "R CAPUCHINHOS",
      "house": "31",
      "postcode": "2825-044",
      "city": "CAPARICA",
      "lon": "-9.224254890155285",
      "lat": "38.64945597107817"
    },
    {
      "id": "pt.ine.add.PTCONT.4839808",
      "street": "R QUINTA FORMIGA",
      "house": "26",
      "postcode": "2825-048",
      "city": "CAPARICA",
      "lon": "-9.220614507036284",
      "lat": "38.65103923770481"
    },
    {
      "id": "pt.ine.add.PTCONT.4952956",
      "street": "R SANTO ANTÓNIO",
      "house": "",
      "postcode": "2825-048",
      "city": "CAPARICA",
      "lon": "-9.221513762434384",
      "lat": "38.64897706491462"
    },
    {
      "id": "pt.ine.add.PTCONT.4979203",
      "street": "R QUINTA DA FORMIGA",
      "house": "",
      "postcode": "2825-048",
      "city": "CAPARICA",
      "lon": "-9.220316291466172",
      "lat": "38.65106903373573"
    },
    {
      "id": "pt.ine.add.PTCONT.4982987",
      "street": "R VIEIRA PORTUENSE",
      "house": "",
      "postcode": "2825-048",
      "city": "CAPARICA",
      "lon": "-9.220421159013906",
      "lat": "38.651167146213815"
    },
    {
      "id": "pt.ine.add.PTCONT.4982988",
      "street": "R VIEIRA PORTUENSE",
      "house": "",
      "postcode": "2825-048",
      "city": "CAPARICA",
      "lon": "-9.220421159013906",
      "lat": "38.651167146213815"
    },
    {
      "id": "pt.ine.add.PTCONT.5059881",
      "street": "R QUINTA DO ARROZ DOCE",
      "house": "",
      "postcode": "2825-048",
      "city": "CAPARICA",
      "lon": "-9.22047873231304",
      "lat": "38.648896611831915"
    },
    {
      "id": "pt.ine.add.PTCONT.5062536",
      "street": "R QUINTA DO ARROZ DOCE",
      "house": "",
      "postcode": "2825-048",
      "city": "CAPARICA",
      "lon": "-9.22047873231304",
      "lat": "38.648896611831915"
    },
    {
      "id": "pt.ine.add.PTCONT.5063575",
      "street": "R STO ANTONIO L",
      "house": "L 4",
      "postcode": "2825-048",
      "city": "CAPARICA",
      "lon": "-9.221724140814318",
      "lat": "38.64997498776955"
    },
    {
      "id": "pt.ine.add.PTCONT.5094901",
      "street": "R SANTO ANTÓNIO",
      "house": "1",
      "postcode": "2825-048",
      "city": "CAPARICA",
      "lon": "-9.221835279522454",
      "lat": "38.65048740550282"
    }
  ]
}