{
  "data": {
    "distrito": "Guarda",
    "concelho": "Seia",
    "freguesia": "União das freguesias de Carragozela e Várzea de Meruge",
    "OBJECTID": 714,
    "BGRI2021": "09123000116",
    "DT21": "09",
    "DTMN21": "0912",
    "DTMNFR21": "091230",
    "DTMNFRSEC21": "091230001",
    "SECNUM21": "001",
    "SSNUM21": "16",
    "SECSSNUM21": "00116",
    "OBJECTID_1": 82329,
    "DT": "09",
    "CC": "12",
    "fr": "30",
    "SEC": "001",
    "SS": "16"
  },
  "addresses": [
    {
      "id": "pt.ine.add.PTCONT.1916560",
      "street": "R DAS BARREIRAS",
      "house": "13",
      "postcode": "6270-031",
      "city": "CARRAGOZELA",
      "lon": "-7.7568415353999995",
      "lat": "40.409823927917344"
    },
    {
      "id": "pt.ine.add.PTCONT.1925549",
      "street": "R PRINCIPAL",
      "house": "",
      "postcode": "6270-031",
      "city": "CARRAGOZELA",
      "lon": "-7.7513899161771285",
      "lat": "40.405114177188636"
    },
    {
      "id": "pt.ine.add.PTCONT.1930200",
      "street": "R PRINCIPAL",
      "house": "",
      "postcode": "6270-031",
      "city": "CARRAGOZELA",
      "lon": "-7.751602212088914",
      "lat": "40.405069850166434"
    },
    {
      "id": "pt.ine.add.PTCONT.1976798",
      "street": "R DO VALE SALGUEIRO",
      "house": "",
      "postcode": "6270-031",
      "city": "CARRAGOZELA",
      "lon": "-7.751812719801539",
      "lat": "40.4074299941083"
    },
    {
      "id": "pt.ine.add.PTCONT.1860486",
      "street": "R SAPATINHO",
      "house": "S N",
      "postcode": "6270-031",
      "city": "CARRAGOZELA",
      "lon": "-7.750800249153819",
      "lat": "40.405229300982704"
    },
    {
      "id": "pt.ine.add.PTCONT.1882286",
      "street": "R PRINCIPAL",
      "house": "",
      "postcode": "6270-031",
      "city": "CARRAGOZELA",
      "lon": "-7.7521087558298065",
      "lat": "40.40507152036193"
    }
  ]
}