{
  "data": {
    "distrito": "Viseu",
    "concelho": "Viseu",
    "freguesia": "Lordosa",
    "OBJECTID": 1816,
    "BGRI2021": "18231600203",
    "DT21": "18",
    "DTMN21": "1823",
    "DTMNFR21": "182316",
    "DTMNFRSEC21": "182316002",
    "SECNUM21": "002",
    "SSNUM21": "03",
    "SECSSNUM21": "00203",
    "OBJECTID_1": 201069,
    "DT": "18",
    "CC": "23",
    "fr": "16",
    "SEC": "002",
    "SS": "03"
  },
  "addresses": [
    {
      "id": "pt.ine.add.PTCONT.5437879",
      "street": "ESTR STO ANTÓNIO DA SERRA",
      "house": "793",
      "postcode": "3515-774",
      "city": "LORDOSA",
      "lon": "-7.900468459554022",
      "lat": "40.72952996650092"
    },
    {
      "id": "pt.ine.add.PTCONT.5501296",
      "street": "ESTR STO ANTÓNIO DA SERRA",
      "house": "783",
      "postcode": "3515-774",
      "city": "LORDOSA",
      "lon": "-7.901548523807677",
      "lat": "40.72870367373315"
    },
    {
      "id": "pt.ine.add.PTCONT.5505176",
      "street": "TV MUNA",
      "house": "65",
      "postcode": "3515-774",
      "city": "LORDOSA",
      "lon": "-7.900944329273057",
      "lat": "40.72884654088939"
    },
    {
      "id": "pt.ine.add.PTCONT.5547342",
      "street": "TV MUNA",
      "house": "129",
      "postcode": "3515-774",
      "city": "LORDOSA",
      "lon": "-7.901218084354142",
      "lat": "40.72841484878041"
    },
    {
      "id": "pt.ine.add.PTCONT.5572683",
      "street": "ESTR STO ANTÓNIO DA SERRA",
      "house": "745",
      "postcode": "3515-774",
      "city": "LORDOSA",
      "lon": "-7.899675047200036",
      "lat": "40.72961841518648"
    },
    {
      "id": "pt.ine.add.PTCONT.5593097",
      "street": "TV MUNA",
      "house": "63",
      "postcode": "3515-774",
      "city": "LORDOSA",
      "lon": "-7.900967409023495",
      "lat": "40.7290176832436"
    },
    {
      "id": "pt.ine.add.PTCONT.5609338",
      "street": "ALTO DA MUNA",
      "house": "47",
      "postcode": "3515-773",
      "city": "LORDOSA",
      "lon": "-7.9072228666793",
      "lat": "40.72742719505021"
    },
    {
      "id": "pt.ine.add.PTCONT.5613530",
      "street": "TV CAPELA",
      "house": "55",
      "postcode": "3515-774",
      "city": "LORDOSA",
      "lon": "-7.898693626236266",
      "lat": "40.729310254640154"
    }
  ]
}