{
  "data": {
    "distrito": "Guarda",
    "concelho": "Gouveia",
    "freguesia": "São Paio",
    "OBJECTID": 154,
    "BGRI2021": "09061700102",
    "DT21": "09",
    "DTMN21": "0906",
    "DTMNFR21": "090617",
    "DTMNFRSEC21": "090617001",
    "SECNUM21": "001",
    "SSNUM21": "02",
    "SECSSNUM21": "00102",
    "OBJECTID_1": 77397,
    "DT": "09",
    "CC": "06",
    "fr": "17",
    "SEC": "001",
    "SS": "02"
  },
  "addresses": [
    {
      "id": "pt.ine.add.PTCONT.1919002",
      "street": "QTA LADEIRAS",
      "house": "",
      "postcode": "6290-419",
      "city": "SÃO PAIO GVA",
      "lon": "-7.57958092500497",
      "lat": "40.509179378092924"
    },
    {
      "id": "pt.ine.add.PTCONT.1941072",
      "street": "R SEM NOME",
      "house": "",
      "postcode": "6290-417",
      "city": "SÃO PAIO GVA",
      "lon": "-7.577179563250817",
      "lat": "40.508510461103725"
    },
    {
      "id": "pt.ine.add.PTCONT.1969434",
      "street": "AV EMIGRANTES",
      "house": "8",
      "postcode": "6290-415",
      "city": "SÃO PAIO GVA",
      "lon": "-7.577522444680113",
      "lat": "40.50842205671622"
    },
    {
      "id": "pt.ine.add.PTCONT.1972667",
      "street": "R SEM NOME",
      "house": "",
      "postcode": "6290-417",
      "city": "SÃO PAIO GVA",
      "lon": "-7.57695540369155",
      "lat": "40.50850938251945"
    },
    {
      "id": "pt.ine.add.PTCONT.1972668",
      "street": "R SEM NOME",
      "house": "",
      "postcode": "6290-417",
      "city": "SÃO PAIO GVA",
      "lon": "-7.578186910138776",
      "lat": "40.507965977104824"
    },
    {
      "id": "pt.ine.add.PTCONT.1977636",
      "street": "R BRAS",
      "house": "4",
      "postcode": "6290-419",
      "city": "SÃO PAIO GVA",
      "lon": "-7.581320976253692",
      "lat": "40.509926137415874"
    },
    {
      "id": "pt.ine.add.PTCONT.1851064",
      "street": "R BRAS",
      "house": "",
      "postcode": "6290-419",
      "city": "SÃO PAIO GVA",
      "lon": "-7.582160412153485",
      "lat": "40.509714014502016"
    }
  ]
}