{
  "data": {
    "distrito": "Guarda",
    "concelho": "Gouveia",
    "freguesia": "São Paio",
    "OBJECTID": 606,
    "BGRI2021": "09061700125",
    "DT21": "09",
    "DTMN21": "0906",
    "DTMNFR21": "090617",
    "DTMNFRSEC21": "090617001",
    "SECNUM21": "001",
    "SSNUM21": "25",
    "SECSSNUM21": "00125",
    "OBJECTID_1": 77749,
    "DT": "09",
    "CC": "06",
    "fr": "17",
    "SEC": "001",
    "SS": "25"
  },
  "addresses": [
    {
      "id": "pt.ine.add.PTCONT.1904880",
      "street": "ARAL",
      "house": "",
      "postcode": "6290-413",
      "city": "SÃO PAIO GVA",
      "lon": "-7.587841732708739",
      "lat": "40.51914252733641"
    },
    {
      "id": "pt.ine.add.PTCONT.1911091",
      "street": "QTA ARAL",
      "house": "",
      "postcode": "6290-413",
      "city": "SÃO PAIO GVA",
      "lon": "-7.590389973361155",
      "lat": "40.51336409696022"
    },
    {
      "id": "pt.ine.add.PTCONT.1912883",
      "street": "QTA PEDRAS NEGRAS",
      "house": "",
      "postcode": "6290-414",
      "city": "SÃO PAIO GVA",
      "lon": "-7.588571690102237",
      "lat": "40.526638394494526"
    },
    {
      "id": "pt.ine.add.PTCONT.1912884",
      "street": "QTA NOBRE",
      "house": "",
      "postcode": "6290-413",
      "city": "SÃO PAIO GVA",
      "lon": "-7.590100536039437",
      "lat": "40.50975159734009"
    },
    {
      "id": "pt.ine.add.PTCONT.1912885",
      "street": "ARAL",
      "house": "",
      "postcode": "6290-413",
      "city": "SÃO PAIO GVA",
      "lon": "-7.589029279813143",
      "lat": "40.51821157111019"
    },
    {
      "id": "pt.ine.add.PTCONT.1919961",
      "street": "R CRAVEIRAS",
      "house": "17",
      "postcode": "6290-414",
      "city": "SÃO PAIO GVA",
      "lon": "-7.584633087587743",
      "lat": "40.52480969841495"
    },
    {
      "id": "pt.ine.add.PTCONT.1926842",
      "street": "R SEM NOME",
      "house": "",
      "postcode": "6290-413",
      "city": "SÃO PAIO GVA",
      "lon": "-7.592357384087747",
      "lat": "40.51080679937711"
    },
    {
      "id": "pt.ine.add.PTCONT.1938940",
      "street": "ALTO DO ARAL",
      "house": "",
      "postcode": "6290-413",
      "city": "SÃO PAIO GVA",
      "lon": "-7.588298752869726",
      "lat": "40.51370546458192"
    },
    {
      "id": "pt.ine.add.PTCONT.1951028",
      "street": "R CRAVEIRAS",
      "house": "",
      "postcode": "6290-414",
      "city": "SÃO PAIO GVA",
      "lon": "-7.58272865967615",
      "lat": "40.52390911694301"
    },
    {
      "id": "pt.ine.add.PTCONT.1962488",
      "street": "QTA GARISOS",
      "house": "",
      "postcode": "6290-413",
      "city": "SÃO PAIO GVA",
      "lon": "-7.590247081151622",
      "lat": "40.513525521780885"
    },
    {
      "id": "pt.ine.add.PTCONT.1971744",
      "street": "ALTO DO ARAL",
      "house": "",
      "postcode": "6290-413",
      "city": "SÃO PAIO GVA",
      "lon": "-7.5898465041854815",
      "lat": "40.51345159660823"
    },
    {
      "id": "pt.ine.add.PTCONT.1974668",
      "street": "R CRAVEIRAS",
      "house": "",
      "postcode": "6290-414",
      "city": "SÃO PAIO GVA",
      "lon": "-7.583272295924001",
      "lat": "40.52381264657622"
    },
    {
      "id": "pt.ine.add.PTCONT.1978299",
      "street": "ALTO DO ARAL",
      "house": "",
      "postcode": "6290-416",
      "city": "SÃO PAIO GVA",
      "lon": "-7.587116062450637",
      "lat": "40.51550094879987"
    },
    {
      "id": "pt.ine.add.PTCONT.1979120",
      "street": "R CRAVEIRAS",
      "house": "15",
      "postcode": "6290-414",
      "city": "SÃO PAIO GVA",
      "lon": "-7.584469125418657",
      "lat": "40.52465582968181"
    },
    {
      "id": "pt.ine.add.PTCONT.1861986",
      "street": "CARANTONHA",
      "house": "",
      "postcode": "6290-413",
      "city": "SÃO PAIO GVA",
      "lon": "-7.586558413610983",
      "lat": "40.52314383233363"
    },
    {
      "id": "pt.ine.add.PTCONT.1866012",
      "street": "ALTO DO ARAL",
      "house": "",
      "postcode": "6290-416",
      "city": "SÃO PAIO GVA",
      "lon": "-7.586562208570357",
      "lat": "40.51395841902113"
    },
    {
      "id": "pt.ine.add.PTCONT.1890176",
      "street": "ARAL",
      "house": "",
      "postcode": "6290-413",
      "city": "SÃO PAIO GVA",
      "lon": "-7.588305713932856",
      "lat": "40.518676438917936"
    },
    {
      "id": "pt.ine.add.PTCONT.1892525",
      "street": "ARAL",
      "house": "",
      "postcode": "6290-413",
      "city": "SÃO PAIO GVA",
      "lon": "-7.589754914733926",
      "lat": "40.52041228455741"
    }
  ]
}