{
  "data": {
    "distrito": "Lisboa",
    "concelho": "Torres Vedras",
    "freguesia": "Santa Maria, São Pedro e Matacães",
    "OBJECTID": 152,
    "BGRI2021": "11132601307",
    "DT21": "11",
    "DTMN21": "1113",
    "DTMNFR21": "111326",
    "DTMNFRSEC21": "111326013",
    "SECNUM21": "013",
    "SSNUM21": "07",
    "SECSSNUM21": "01307",
    "OBJECTID_1": 115882,
    "DT": "11",
    "CC": "13",
    "fr": "26",
    "SEC": "013",
    "SS": "07"
  },
  "addresses": [
    {
      "id": "pt.ine.add.PTCONT.2363524",
      "street": "R DR JOSE ALBERTO BASTOS",
      "house": "1",
      "postcode": "2565-384",
      "city": "MATACÃES",
      "lon": "-9.210730238291573",
      "lat": "39.09248554105812"
    },
    {
      "id": "pt.ine.add.PTCONT.2363525",
      "street": "R DR JOSE ALBERTO BASTOS",
      "house": "1",
      "postcode": "2565-384",
      "city": "MATACÃES",
      "lon": "-9.210730238291573",
      "lat": "39.09248554105812"
    },
    {
      "id": "pt.ine.add.PTCONT.2455626",
      "street": "CAM VALE",
      "house": "3",
      "postcode": "2565-367",
      "city": "MATACÃES",
      "lon": "-9.210496908736475",
      "lat": "39.09234358107356"
    },
    {
      "id": "pt.ine.add.PTCONT.2459267",
      "street": "TV ESPÍRITO SANTO",
      "house": "1",
      "postcode": "2565-395",
      "city": "MATACÃES",
      "lon": "-9.210434465294101",
      "lat": "39.092037910588274"
    },
    {
      "id": "pt.ine.add.PTCONT.2470326",
      "street": "R PADRE MANUEL SACRAMENTO",
      "house": "6",
      "postcode": "2565-388",
      "city": "MATACÃES",
      "lon": "-9.210755587285238",
      "lat": "39.09187281171295"
    },
    {
      "id": "pt.ine.add.PTCONT.2546100",
      "street": "TV SAPATEIROS",
      "house": "2",
      "postcode": "2565-402",
      "city": "MATACÃES",
      "lon": "-9.210737956904495",
      "lat": "39.09223326588199"
    },
    {
      "id": "pt.ine.add.PTCONT.2574244",
      "street": "CAM BICAS",
      "house": "",
      "postcode": "2565-365",
      "city": "MATACÃES",
      "lon": "-9.210486904360616",
      "lat": "39.091686142061256"
    },
    {
      "id": "pt.ine.add.PTCONT.2582492",
      "street": "R PADRE MANUEL SACRAMENTO",
      "house": "16",
      "postcode": "2565-388",
      "city": "MATACÃES",
      "lon": "-9.210923002746885",
      "lat": "39.09224056257965"
    },
    {
      "id": "pt.ine.add.PTCONT.2624227",
      "street": "TV DOMINGOS LIMA",
      "house": "1",
      "postcode": "2565-399",
      "city": "MATACÃES",
      "lon": "-9.210894090515312",
      "lat": "39.092619135604295"
    },
    {
      "id": "pt.ine.add.PTCONT.2635945",
      "street": "R PADRE MANUEL SACRAMENTO",
      "house": "12",
      "postcode": "2565-388",
      "city": "MATACÃES",
      "lon": "-9.210770571056198",
      "lat": "39.092097855215755"
    },
    {
      "id": "pt.ine.add.PTCONT.2688732",
      "street": "TV PEDROSOS",
      "house": "2",
      "postcode": "2565-401",
      "city": "MATACÃES",
      "lon": "-9.210652810237283",
      "lat": "39.091954827203814"
    },
    {
      "id": "pt.ine.add.PTCONT.2695746",
      "street": "TV SAPATEIROS",
      "house": "3",
      "postcode": "2565-402",
      "city": "MATACÃES",
      "lon": "-9.210599275338996",
      "lat": "39.0922345476755"
    },
    {
      "id": "pt.ine.add.PTCONT.2828363",
      "street": "LG MANUEL SACRAMENTO",
      "house": "1",
      "postcode": "2565-373",
      "city": "MATACÃES",
      "lon": "-9.211074650987072",
      "lat": "39.091572621778724"
    },
    {
      "id": "pt.ine.add.PTCONT.2859650",
      "street": "TV SAPATEIROS",
      "house": "1",
      "postcode": "2565-402",
      "city": "MATACÃES",
      "lon": "-9.210540257870617",
      "lat": "39.09215402758646"
    },
    {
      "id": "pt.ine.add.PTCONT.2904522",
      "street": "LG MANUEL SACRAMENTO",
      "house": "2",
      "postcode": "2565-373",
      "city": "MATACÃES",
      "lon": "-9.211073005573049",
      "lat": "39.091464549623815"
    },
    {
      "id": "pt.ine.add.PTCONT.3050239",
      "street": "R PADRE MANUEL SACRAMENTO",
      "house": "",
      "postcode": "2565-388",
      "city": "MATACÃES",
      "lon": "-9.210994988145753",
      "lat": "39.091654423851736"
    },
    {
      "id": "pt.ine.add.PTCONT.3190961",
      "street": "TV DOMINGOS LIMA",
      "house": "2",
      "postcode": "2565-399",
      "city": "MATACÃES",
      "lon": "-9.211114356470024",
      "lat": "39.092662135505165"
    },
    {
      "id": "pt.ine.add.PTCONT.3347251",
      "street": "R PADRE MANUEL SACRAMENTO",
      "house": "4",
      "postcode": "2565-388",
      "city": "MATACÃES",
      "lon": "-9.210903631309039",
      "lat": "39.09172732669752"
    },
    {
      "id": "pt.ine.add.PTCONT.3422085",
      "street": "CAM VALE",
      "house": "1",
      "postcode": "2565-367",
      "city": "MATACÃES",
      "lon": "-9.210449174008302",
      "lat": "39.09224494211267"
    }
  ]
}