{
  "data": {
    "distrito": "Lisboa",
    "concelho": "Torres Vedras",
    "freguesia": "Santa Maria, São Pedro e Matacães",
    "OBJECTID": 786,
    "BGRI2021": "11132601326",
    "DT21": "11",
    "DTMN21": "1113",
    "DTMNFR21": "111326",
    "DTMNFRSEC21": "111326013",
    "SECNUM21": "013",
    "SSNUM21": "26",
    "SECSSNUM21": "01326",
    "OBJECTID_1": 115391,
    "DT": "11",
    "CC": "13",
    "fr": "26",
    "SEC": "013",
    "SS": "26"
  },
  "addresses": [
    {
      "id": "pt.ine.add.PTCONT.2309774",
      "street": "R D VASCO MARTINHO DE SEQUEIRA",
      "house": "49",
      "postcode": "2565-385",
      "city": "MATACÃES",
      "lon": "-9.212531960218817",
      "lat": "39.09391003773039"
    },
    {
      "id": "pt.ine.add.PTCONT.2309775",
      "street": "R D VASCO MARTINHO DE SEQUEIRA",
      "house": "49",
      "postcode": "2565-385",
      "city": "MATACÃES",
      "lon": "-9.212531960218817",
      "lat": "39.09391003773039"
    },
    {
      "id": "pt.ine.add.PTCONT.2336706",
      "street": "R ANTÓNIO DA BOAVISTA",
      "house": "3",
      "postcode": "2565-354",
      "city": "MATACÃES",
      "lon": "-9.21209803778828",
      "lat": "39.09729178227348"
    },
    {
      "id": "pt.ine.add.PTCONT.2380222",
      "street": "R HERCULANA DO ROSÁRIO",
      "house": "3",
      "postcode": "2565-354",
      "city": "MATACÃES",
      "lon": "-9.212438586923549",
      "lat": "39.0968833026677"
    },
    {
      "id": "pt.ine.add.PTCONT.2410298",
      "street": "R HERCULANA DO ROSÁRIO",
      "house": "1",
      "postcode": "2565-354",
      "city": "MATACÃES",
      "lon": "-9.212276094742547",
      "lat": "39.09683977058035"
    },
    {
      "id": "pt.ine.add.PTCONT.2423349",
      "street": "R FONTAÍNHAS",
      "house": "1",
      "postcode": "2565-393",
      "city": "MATACÃES",
      "lon": "-9.212297998628348",
      "lat": "39.09600189146224"
    },
    {
      "id": "pt.ine.add.PTCONT.2500233",
      "street": "R ANTÓNIO DA BOAVISTA",
      "house": "2",
      "postcode": "2565-354",
      "city": "MATACÃES",
      "lon": "-9.211922477461464",
      "lat": "39.097149290659694"
    },
    {
      "id": "pt.ine.add.PTCONT.2546094",
      "street": "R HERCULANA DO ROSÁRIO",
      "house": "4",
      "postcode": "2565-354",
      "city": "MATACÃES",
      "lon": "-9.212545626158848",
      "lat": "39.097080471603824"
    },
    {
      "id": "pt.ine.add.PTCONT.2670598",
      "street": "R HERCULANA DO ROSÁRIO",
      "house": "5",
      "postcode": "2565-354",
      "city": "MATACÃES",
      "lon": "-9.2126702872862",
      "lat": "39.09691718639481"
    },
    {
      "id": "pt.ine.add.PTCONT.2751505",
      "street": "R ANTONIO BOAVISTA",
      "house": "N 4",
      "postcode": "2565-354",
      "city": "MATACÃES",
      "lon": "-9.211900597527526",
      "lat": "39.097230558575696"
    },
    {
      "id": "pt.ine.add.PTCONT.2904478",
      "street": "R PRINCIPAL",
      "house": "3",
      "postcode": "2565-354",
      "city": "MATACÃES",
      "lon": "-9.21194380832503",
      "lat": "39.09703199873212"
    },
    {
      "id": "pt.ine.add.PTCONT.2921049",
      "street": "R ANTÓNIO DA BOAVISTA",
      "house": "1",
      "postcode": "2565-354",
      "city": "MATACÃES",
      "lon": "-9.212166559781277",
      "lat": "39.09723710443225"
    },
    {
      "id": "pt.ine.add.PTCONT.2921050",
      "street": "R ANTÓNIO DA BOAVISTA",
      "house": "1",
      "postcode": "2565-354",
      "city": "MATACÃES",
      "lon": "-9.212166559781277",
      "lat": "39.09723710443225"
    },
    {
      "id": "pt.ine.add.PTCONT.3097561",
      "street": "R PRINCIPAL",
      "house": "9",
      "postcode": "2565-354",
      "city": "MATACÃES",
      "lon": "-9.211902519046129",
      "lat": "39.09735664259687"
    },
    {
      "id": "pt.ine.add.PTCONT.3145025",
      "street": "R PRINCIPAL",
      "house": "1",
      "postcode": "2565-354",
      "city": "MATACÃES",
      "lon": "-9.212040825880496",
      "lat": "39.09657173001031"
    },
    {
      "id": "pt.ine.add.PTCONT.3181292",
      "street": "R HERCULANA DO ROSÁRIO",
      "house": "2",
      "postcode": "2565-354",
      "city": "MATACÃES",
      "lon": "-9.212394416409113",
      "lat": "39.09701882067593"
    },
    {
      "id": "pt.ine.add.PTCONT.3227588",
      "street": "R LIBERDADE",
      "house": "",
      "postcode": "2565-354",
      "city": "MATACÃES",
      "lon": "-9.211894421299338",
      "lat": "39.09682528848865"
    },
    {
      "id": "pt.ine.add.PTCONT.3402473",
      "street": "R LIBERDADE",
      "house": "4",
      "postcode": "2565-354",
      "city": "MATACÃES",
      "lon": "-9.21189593103251",
      "lat": "39.096924354512616"
    }
  ]
}