{
  "data": {
    "distrito": "Faro",
    "concelho": "Silves",
    "freguesia": "São Marcos da Serra",
    "OBJECTID": 1037,
    "BGRI2021": "08130600203",
    "DT21": "08",
    "DTMN21": "0813",
    "DTMNFR21": "081306",
    "DTMNFRSEC21": "081306002",
    "SECNUM21": "002",
    "SSNUM21": "03",
    "SECSSNUM21": "00203",
    "OBJECTID_1": 72744,
    "DT": "08",
    "CC": "13",
    "fr": "06",
    "SEC": "002",
    "SS": "03"
  },
  "addresses": [
    {
      "id": "pt.ine.add.PTCONT.1499409",
      "street": "",
      "house": "",
      "postcode": "8375-223",
      "city": "SÃO MARCOS DA SERRA",
      "lon": "-8.34585095932629",
      "lat": "37.33175189191665"
    },
    {
      "id": "pt.ine.add.PTCONT.1502212",
      "street": "SIT SEICEIRA",
      "house": "",
      "postcode": "8375-215",
      "city": "SÃO MARCOS DA SERRA",
      "lon": "-8.344858331716186",
      "lat": "37.31578739604204"
    },
    {
      "id": "pt.ine.add.PTCONT.1509208",
      "street": "",
      "house": "",
      "postcode": "8375-215",
      "city": "SÃO MARCOS DA SERRA",
      "lon": "-8.34576862156901",
      "lat": "37.3305626799854"
    },
    {
      "id": "pt.ine.add.PTCONT.1529034",
      "street": "SIT ALTO DA SILVEIRA",
      "house": "",
      "postcode": "8375-223",
      "city": "SÃO MARCOS DA SERRA",
      "lon": "-8.346204212608958",
      "lat": "37.33297665712227"
    },
    {
      "id": "pt.ine.add.PTCONT.1552658",
      "street": "",
      "house": "",
      "postcode": "8375-215",
      "city": "SÃO MARCOS DA SERRA",
      "lon": "-8.341643016745632",
      "lat": "37.33206573347148"
    },
    {
      "id": "pt.ine.add.PTCONT.1552997",
      "street": "",
      "house": "",
      "postcode": "8375-215",
      "city": "SÃO MARCOS DA SERRA",
      "lon": "-8.341643016745632",
      "lat": "37.33206573347148"
    },
    {
      "id": "pt.ine.add.PTCONT.1553097",
      "street": "",
      "house": "",
      "postcode": "8375-215",
      "city": "SÃO MARCOS DA SERRA",
      "lon": "-8.338599754785088",
      "lat": "37.32500697679367"
    },
    {
      "id": "pt.ine.add.PTCONT.1572297",
      "street": "SIT MONTE DAS PITAS",
      "house": "",
      "postcode": "8375-215",
      "city": "SÃO MARCOS DA SERRA",
      "lon": "-8.343347101192325",
      "lat": "37.332152820775896"
    },
    {
      "id": "pt.ine.add.PTCONT.1584729",
      "street": "SIT ALTO DA SILVEIRA",
      "house": "",
      "postcode": "8375-215",
      "city": "SÃO MARCOS DA SERRA",
      "lon": "-8.336087477608322",
      "lat": "37.3222091049249"
    },
    {
      "id": "pt.ine.add.PTCONT.1636613",
      "street": "SIT ALTO SILVEIRA",
      "house": "",
      "postcode": "8375-215",
      "city": "SÃO MARCOS DA SERRA",
      "lon": "-8.34508840771521",
      "lat": "37.33343818677468"
    },
    {
      "id": "pt.ine.add.PTCONT.1696799",
      "street": "SIT SILVEIRA",
      "house": "",
      "postcode": "8375-215",
      "city": "SÃO MARCOS DA SERRA",
      "lon": "-8.340507169956558",
      "lat": "37.329346618089644"
    },
    {
      "id": "pt.ine.add.PTCONT.1722129",
      "street": "SIT SILVEIRA",
      "house": "",
      "postcode": "8375-215",
      "city": "SÃO MARCOS DA SERRA",
      "lon": "-8.341829429906763",
      "lat": "37.330110168941346"
    },
    {
      "id": "pt.ine.add.PTCONT.1764721",
      "street": "",
      "house": "",
      "postcode": "8375-215",
      "city": "SÃO MARCOS DA SERRA",
      "lon": "-8.33807194375491",
      "lat": "37.32591793380737"
    },
    {
      "id": "pt.ine.add.PTCONT.1776801",
      "street": "SIT SILVEIRA DE CIMA",
      "house": "",
      "postcode": "8375-215",
      "city": "SÃO MARCOS DA SERRA",
      "lon": "-8.34055982074853",
      "lat": "37.327976959085255"
    }
  ]
}