{
  "data": {
    "distrito": "Castelo Branco",
    "concelho": "Vila de Rei",
    "freguesia": "Fundada",
    "OBJECTID": 290,
    "BGRI2021": "05100100126",
    "DT21": "05",
    "DTMN21": "0510",
    "DTMNFR21": "051001",
    "DTMNFRSEC21": "051001001",
    "SECNUM21": "001",
    "SSNUM21": "26",
    "SECSSNUM21": "00126",
    "OBJECTID_1": 46368,
    "DT": "05",
    "CC": "10",
    "fr": "01",
    "SEC": "001",
    "SS": "26"
  },
  "addresses": [
    {
      "id": "pt.ine.add.PTCONT.962651",
      "street": "R S JOSE",
      "house": "20",
      "postcode": "6110-016",
      "city": "FUNDADA",
      "lon": "-8.143861827035073",
      "lat": "39.72164943801154"
    },
    {
      "id": "pt.ine.add.PTCONT.964439",
      "street": "R D MATEUS OLIVEIRA XAVIER",
      "house": "",
      "postcode": "6110-016",
      "city": "FUNDADA",
      "lon": "-8.145307808262405",
      "lat": "39.7201812137946"
    },
    {
      "id": "pt.ine.add.PTCONT.968130",
      "street": "R D MATEUS OLIVEIRA XAVIER",
      "house": "",
      "postcode": "6110-016",
      "city": "FUNDADA",
      "lon": "-8.145354498405123",
      "lat": "39.72039736811005"
    },
    {
      "id": "pt.ine.add.PTCONT.988508",
      "street": "R S JOSE",
      "house": "",
      "postcode": "6110-016",
      "city": "FUNDADA",
      "lon": "-8.144013427681788",
      "lat": "39.721514324381914"
    },
    {
      "id": "pt.ine.add.PTCONT.1003854",
      "street": "R S JOSE",
      "house": "14",
      "postcode": "6110-016",
      "city": "FUNDADA",
      "lon": "-8.14381514627828",
      "lat": "39.72146930967282"
    },
    {
      "id": "pt.ine.add.PTCONT.1015487",
      "street": "R S JOSE",
      "house": "12",
      "postcode": "6110-016",
      "city": "FUNDADA",
      "lon": "-8.143791803211455",
      "lat": "39.72136123222869"
    },
    {
      "id": "pt.ine.add.PTCONT.1040741",
      "street": "R S JOSE",
      "house": "6",
      "postcode": "6110-016",
      "city": "FUNDADA",
      "lon": "-8.143628495474957",
      "lat": "39.72120813437876"
    },
    {
      "id": "pt.ine.add.PTCONT.1057711",
      "street": "R D MATEUS OLIVEIRA XAVIER",
      "house": "10",
      "postcode": "6110-016",
      "city": "FUNDADA",
      "lon": "-8.145028161944806",
      "lat": "39.72172137718513"
    },
    {
      "id": "pt.ine.add.PTCONT.1061163",
      "street": "R D MATEUS OLIVEIRA XAVIER",
      "house": "",
      "postcode": "6110-016",
      "city": "FUNDADA",
      "lon": "-8.144993139765889",
      "lat": "39.72153224149223"
    },
    {
      "id": "pt.ine.add.PTCONT.1071525",
      "street": "LG S MARGARIDA",
      "house": "3",
      "postcode": "6110-016",
      "city": "FUNDADA",
      "lon": "-8.144060140328248",
      "lat": "39.721892598546724"
    },
    {
      "id": "pt.ine.add.PTCONT.1083799",
      "street": "R CABECINHO",
      "house": "1",
      "postcode": "6110-016",
      "city": "FUNDADA",
      "lon": "-8.143383620102705",
      "lat": "39.72155040836044"
    },
    {
      "id": "pt.ine.add.PTCONT.1089554",
      "street": "LG STA CATARINA",
      "house": "",
      "postcode": "6110-016",
      "city": "FUNDADA",
      "lon": "-8.144235083528836",
      "lat": "39.72185655538394"
    }
  ]
}