{
  "data": {
    "distrito": "Leiria",
    "concelho": "Caldas da Rainha",
    "freguesia": "Vidais",
    "OBJECTID": 836,
    "BGRI2021": "10061500137",
    "DT21": "10",
    "DTMN21": "1006",
    "DTMNFR21": "100615",
    "DTMNFRSEC21": "100615001",
    "SECNUM21": "001",
    "SSNUM21": "37",
    "SECSSNUM21": "00137",
    "OBJECTID_1": 88306,
    "DT": "10",
    "CC": "06",
    "fr": "15",
    "SEC": "001",
    "SS": "37"
  },
  "addresses": [
    {
      "id": "pt.ine.add.PTCONT.1998795",
      "street": "R DR JOﾃグ BOTELHO MONIZ",
      "house": "69",
      "postcode": "2500-749",
      "city": "VIDAIS",
      "lon": "-9.053422464115615",
      "lat": "39.369380431100794"
    },
    {
      "id": "pt.ine.add.PTCONT.2026543",
      "street": "R DR JOﾃグ BOTELHO MONIZ",
      "house": "73",
      "postcode": "2500-749",
      "city": "VIDAIS",
      "lon": "-9.053712063582317",
      "lat": "39.36934211248526"
    },
    {
      "id": "pt.ine.add.PTCONT.2039494",
      "street": "R NSA SRA DOS REMEDIOS",
      "house": "66",
      "postcode": "2500-744",
      "city": "VIDAIS",
      "lon": "-9.065993809392836",
      "lat": "39.38015169643526"
    },
    {
      "id": "pt.ine.add.PTCONT.2055083",
      "street": "R NSA SRA DOS REMEDIOS",
      "house": "",
      "postcode": "2500-744",
      "city": "VIDAIS",
      "lon": "-9.064688573577119",
      "lat": "39.378874163176185"
    },
    {
      "id": "pt.ine.add.PTCONT.2096267",
      "street": "R NSA SRA DOS REMEDIOS",
      "house": "64",
      "postcode": "2500-744",
      "city": "VIDAIS",
      "lon": "-9.066088085365761",
      "lat": "39.38025902365411"
    },
    {
      "id": "pt.ine.add.PTCONT.2146824",
      "street": "R NSA SRA REMEDIOS",
      "house": "58",
      "postcode": "2500-744",
      "city": "VIDAIS",
      "lon": "-9.066241824094702",
      "lat": "39.38047395705485"
    },
    {
      "id": "pt.ine.add.PTCONT.2146825",
      "street": "R NOSSA SENHORA DOS REMEDIOS",
      "house": "58 60",
      "postcode": "2500-744",
      "city": "VIDAIS",
      "lon": "-9.066241824094702",
      "lat": "39.38047395705485"
    },
    {
      "id": "pt.ine.add.PTCONT.2159923",
      "street": "R DR JOﾃグ BOTELHO MONIZ",
      "house": "67",
      "postcode": "2500-749",
      "city": "VIDAIS",
      "lon": "-9.053339470526783",
      "lat": "39.36924598321269"
    },
    {
      "id": "pt.ine.add.PTCONT.2181163",
      "street": "R DR JOﾃグ BOTELHO MONIZ",
      "house": "",
      "postcode": "2500-749",
      "city": "VIDAIS",
      "lon": "-9.05523169336246",
      "lat": "39.37018574011616"
    },
    {
      "id": "pt.ine.add.PTCONT.2198749",
      "street": "TV IGREJA",
      "house": "3",
      "postcode": "2500-744",
      "city": "VIDAIS",
      "lon": "-9.066394004511764",
      "lat": "39.38057181269095"
    }
  ]
}