{
  "data": {
    "distrito": "Braga",
    "concelho": "Guimarães",
    "freguesia": "União das freguesias de Selho São Lourenço e Gominhães",
    "OBJECTID": 970,
    "BGRI2021": "03088800127",
    "DT21": "03",
    "DTMN21": "0308",
    "DTMNFR21": "030888",
    "DTMNFRSEC21": "030888001",
    "SECNUM21": "001",
    "SSNUM21": "27",
    "SECSSNUM21": "00127",
    "OBJECTID_1": 28306,
    "DT": "03",
    "CC": "08",
    "fr": "88",
    "SEC": "001",
    "SS": "27"
  },
  "addresses": [
    {
      "id": "pt.ine.add.PTCONT.475481",
      "street": "R MARIA HELENA OLIVEIRA",
      "house": "",
      "postcode": "4800-134",
      "city": "GUIMARÃES",
      "lon": "-8.288162191085544",
      "lat": "41.47189898158133"
    },
    {
      "id": "pt.ine.add.PTCONT.484390",
      "street": "R LOUREDO",
      "house": "186",
      "postcode": "4800-214",
      "city": "GUIMARÃES",
      "lon": "-8.289431957638877",
      "lat": "41.472230406975406"
    },
    {
      "id": "pt.ine.add.PTCONT.487295",
      "street": "R D BEATRIZ CARNEIRO OLIVEIRA",
      "house": "307",
      "postcode": "4800-134",
      "city": "GUIMARÃES",
      "lon": "-8.288065197881108",
      "lat": "41.47138589045285"
    },
    {
      "id": "pt.ine.add.PTCONT.488263",
      "street": "R D BEATRIZ CARNEIRO OLIVEIRA",
      "house": "307",
      "postcode": "4800-134",
      "city": "GUIMARÃES",
      "lon": "-8.288065197881108",
      "lat": "41.47138589045285"
    },
    {
      "id": "pt.ine.add.PTCONT.537879",
      "street": "R MARIA HELENA OLIVEIRA",
      "house": "497",
      "postcode": "4800-134",
      "city": "GUIMARÃES",
      "lon": "-8.288606423131235",
      "lat": "41.47243861537925"
    },
    {
      "id": "pt.ine.add.PTCONT.696462",
      "street": "R MARIA HELENA OLIVEIRA",
      "house": "531",
      "postcode": "4800-134",
      "city": "GUIMARÃES",
      "lon": "-8.289612850263232",
      "lat": "41.47277939831187"
    },
    {
      "id": "pt.ine.add.PTCONT.741053",
      "street": "R MARIA HELENA OLIVEIRA",
      "house": "385",
      "postcode": "4800-134",
      "city": "GUIMARÃES",
      "lon": "-8.288378664234921",
      "lat": "41.47231286857072"
    },
    {
      "id": "pt.ine.add.PTCONT.741107",
      "street": "R LOUREDO",
      "house": "240",
      "postcode": "4800-214",
      "city": "GUIMARÃES",
      "lon": "-8.289958939738945",
      "lat": "41.47232873240876"
    },
    {
      "id": "pt.ine.add.PTCONT.828237",
      "street": "R LOUREDO QTA DO OUTEIRO",
      "house": "",
      "postcode": "4800-214",
      "city": "GUIMARÃES",
      "lon": "-8.288941107021449",
      "lat": "41.47222206909194"
    }
  ]
}