{
  "data": {
    "distrito": "Guarda",
    "concelho": "Sabugal",
    "freguesia": "Alfaiates",
    "OBJECTID": 983,
    "BGRI2021": "09110700115",
    "DT21": "09",
    "DTMN21": "0911",
    "DTMNFR21": "091107",
    "DTMNFRSEC21": "091107001",
    "SECNUM21": "001",
    "SSNUM21": "15",
    "SECSSNUM21": "00115",
    "OBJECTID_1": 81421,
    "DT": "09",
    "CC": "11",
    "fr": "07",
    "SEC": "001",
    "SS": "15"
  },
  "addresses": [
    {
      "id": "pt.ine.add.PTCONT.1933333",
      "street": "R MURALHA DO ARRABALDE",
      "house": "",
      "postcode": "6320-081",
      "city": "ALFAIATES",
      "lon": "-6.911669351306078",
      "lat": "40.39120587766631"
    },
    {
      "id": "pt.ine.add.PTCONT.1967241",
      "street": "R MURALHA DO ARRABALDE",
      "house": "53",
      "postcode": "6320-081",
      "city": "ALFAIATES",
      "lon": "-6.911553713987166",
      "lat": "40.39108758766355"
    },
    {
      "id": "pt.ine.add.PTCONT.1850575",
      "street": "R MURALHA ARRABALDE",
      "house": "",
      "postcode": "6320-081",
      "city": "ALFAIATES",
      "lon": "-6.911809027587501",
      "lat": "40.39129740570938"
    },
    {
      "id": "pt.ine.add.PTCONT.1853584",
      "street": "PC BRAS GARCIA MASCARENHAS",
      "house": "10",
      "postcode": "6320-081",
      "city": "ALFAIATES",
      "lon": "-6.911732131922067",
      "lat": "40.3909904147183"
    },
    {
      "id": "pt.ine.add.PTCONT.1889035",
      "street": "R CASTELO",
      "house": "",
      "postcode": "6320-081",
      "city": "ALFAIATES",
      "lon": "-6.911847769395713",
      "lat": "40.39110870454671"
    },
    {
      "id": "pt.ine.add.PTCONT.1894029",
      "street": "PC BRAS GARCIA MASCARENHAS",
      "house": "12",
      "postcode": "6320-081",
      "city": "ALFAIATES",
      "lon": "-6.911637116754978",
      "lat": "40.39103443725842"
    }
  ]
}