{
  "data": {
    "ilha": "Ilha da Madeira (Madeira)",
    "concelho": "Funchal",
    "freguesia": "Imaculado Coração de Maria",
    "OBJECTID": 155,
    "BGRI2021": "31030100408",
    "DT21": "31",
    "DTMN21": "3103",
    "DTMNFR21": "310301",
    "DTMNFRSEC21": "310301004",
    "SECNUM21": "004",
    "SSNUM21": "08",
    "SECSSNUM21": "00408",
    "OBJECTID_1": 203613,
    "DT": "31",
    "CC": "03",
    "fr": "01",
    "SEC": "004",
    "SS": "08",
    "BGRI2021_1": "31030100408"
  },
  "addresses": [
    {
      "id": "pt.ine.add.MAD.3962",
      "street": "CAM COMBOIO",
      "house": "109",
      "postcode": "9050-439",
      "city": "FUNCHAL",
      "lon": "-16.907219186199512",
      "lat": "32.664803713740504"
    },
    {
      "id": "pt.ine.add.MAD.3963",
      "street": "R PASSEIO",
      "house": "18 B",
      "postcode": "9050-439",
      "city": "FUNCHAL",
      "lon": "-16.907459164572586",
      "lat": "32.664556558754974"
    },
    {
      "id": "pt.ine.add.MAD.3964",
      "street": "R PASSEIO",
      "house": "18",
      "postcode": "9050-439",
      "city": "FUNCHAL",
      "lon": "-16.907459164572586",
      "lat": "32.664556558754974"
    },
    {
      "id": "pt.ine.add.MAD.3965",
      "street": "R QUINTA ARAGEM",
      "house": "36",
      "postcode": "9050-531",
      "city": "FUNCHAL",
      "lon": "-16.90762268587351",
      "lat": "32.66472542886356"
    },
    {
      "id": "pt.ine.add.MAD.56364",
      "street": "CAM COMBOIO",
      "house": "107",
      "postcode": "9050-439",
      "city": "FUNCHAL",
      "lon": "-16.907290157589113",
      "lat": "32.66463127834427"
    },
    {
      "id": "pt.ine.add.MAD.72903",
      "street": "ESTR LIVRAMENTO",
      "house": "43",
      "postcode": "9050-231",
      "city": "FUNCHAL",
      "lon": "-16.907183447453985",
      "lat": "32.66512893241095"
    },
    {
      "id": "pt.ine.add.MAD.86710",
      "street": "BR LIVRAMENTO RUA 6",
      "house": "7",
      "postcode": "9050-428",
      "city": "FUNCHAL",
      "lon": "-16.9074209361325",
      "lat": "32.664764571461184"
    },
    {
      "id": "pt.ine.add.MAD.97803",
      "street": "BR LIVRAMENTO RUA 6",
      "house": "3",
      "postcode": "9050-428",
      "city": "FUNCHAL",
      "lon": "-16.907328647371383",
      "lat": "32.66493733102081"
    },
    {
      "id": "pt.ine.add.MAD.102906",
      "street": "R PASSEIO DA QUINTA DO SALVADOR",
      "house": "22",
      "postcode": "9050-531",
      "city": "FUNCHAL",
      "lon": "-16.90773744099459",
      "lat": "32.6646064400238"
    }
  ]
}