{
  "data": {
    "distrito": "Beja",
    "concelho": "Beja",
    "freguesia": "Baleizão",
    "OBJECTID": 245,
    "BGRI2021": "02050200139",
    "DT21": "02",
    "DTMN21": "0205",
    "DTMNFR21": "020502",
    "DTMNFRSEC21": "020502001",
    "SECNUM21": "001",
    "SSNUM21": "39",
    "SECSSNUM21": "00139",
    "OBJECTID_1": 13518,
    "DT": "02",
    "CC": "05",
    "fr": "02",
    "SEC": "001",
    "SS": "39"
  },
  "addresses": [
    {
      "id": "pt.ine.add.PTCONT.362426",
      "street": "MTE MARIA FLORES",
      "house": "",
      "postcode": "7800-611",
      "city": "BALEIZÃO",
      "lon": "-7.704423799008251",
      "lat": "38.05961863078669"
    },
    {
      "id": "pt.ine.add.PTCONT.391306",
      "street": "MTE ALBERNOAS BRANCA",
      "house": "",
      "postcode": "7800-611",
      "city": "BALEIZÃO",
      "lon": "-7.68405515216581",
      "lat": "38.055128103558374"
    },
    {
      "id": "pt.ine.add.PTCONT.405182",
      "street": "HRD MONTESES",
      "house": "",
      "postcode": "7800-611",
      "city": "BALEIZÃO",
      "lon": "-7.68994285259404",
      "lat": "38.06505148972206"
    },
    {
      "id": "pt.ine.add.PTCONT.418577",
      "street": "HORTA PACO ESTEJO",
      "house": "",
      "postcode": "7800-611",
      "city": "BALEIZÃO",
      "lon": "-7.692697087182395",
      "lat": "38.04851204584006"
    },
    {
      "id": "pt.ine.add.PTCONT.430620",
      "street": "HRD HERDADE DOS MONTESES",
      "house": "",
      "postcode": "7800-611",
      "city": "BALEIZÃO",
      "lon": "-7.689977744123335",
      "lat": "38.064934502581984"
    },
    {
      "id": "pt.ine.add.PTCONT.442158",
      "street": "HRD MONTESES",
      "house": "",
      "postcode": "7800-611",
      "city": "BALEIZÃO",
      "lon": "-7.690113886899862",
      "lat": "38.065034116196685"
    },
    {
      "id": "pt.ine.add.PTCONT.447852",
      "street": "MTE ALBERNOAS BRANCA ESCOLA",
      "house": "",
      "postcode": "7800-611",
      "city": "BALEIZÃO",
      "lon": "-7.688842079100907",
      "lat": "38.058641839764014"
    },
    {
      "id": "pt.ine.add.PTCONT.452689",
      "street": "MTE ALBERNOAS BRANCAS",
      "house": "",
      "postcode": "7800-611",
      "city": "BALEIZÃO",
      "lon": "-7.684261940702126",
      "lat": "38.054849609886524"
    }
  ]
}