{
  "data": {
    "distrito": "Setúbal",
    "concelho": "Palmela",
    "freguesia": "União das freguesias de Poceirão e Marateca",
    "OBJECTID": 987,
    "BGRI2021": "15080600541",
    "DT21": "15",
    "DTMN21": "1508",
    "DTMNFR21": "150806",
    "DTMNFRSEC21": "150806005",
    "SECNUM21": "005",
    "SSNUM21": "41",
    "SECSSNUM21": "00541",
    "OBJECTID_1": 165485,
    "DT": "15",
    "CC": "08",
    "fr": "06",
    "SEC": "005",
    "SS": "41"
  },
  "addresses": [
    {
      "id": "pt.ine.add.PTCONT.4672121",
      "street": "R CAP JESUINO DA COSTA",
      "house": "",
      "postcode": "2965-211",
      "city": "POCEIRÃO",
      "lon": "-8.712694916587662",
      "lat": "38.653001156923"
    },
    {
      "id": "pt.ine.add.PTCONT.4697677",
      "street": "R JOSE LUIS DURÃO",
      "house": "",
      "postcode": "2965-221",
      "city": "POCEIRÃO",
      "lon": "-8.715229255073712",
      "lat": "38.64961050194706"
    },
    {
      "id": "pt.ine.add.PTCONT.4774140",
      "street": "R JOSE LUIS DURÃO",
      "house": "",
      "postcode": "2965-221",
      "city": "POCEIRÃO",
      "lon": "-8.716132548996823",
      "lat": "38.65334440148345"
    },
    {
      "id": "pt.ine.add.PTCONT.4871687",
      "street": "R JOSE LUIS DURÃO",
      "house": "",
      "postcode": "2965-221",
      "city": "POCEIRÃO",
      "lon": "-8.715741750502524",
      "lat": "38.65048174499796"
    },
    {
      "id": "pt.ine.add.PTCONT.4908897",
      "street": "R SESMARIAS",
      "house": "",
      "postcode": "2965-602",
      "city": "ÁGUAS DE MOURA",
      "lon": "-8.69316229239608",
      "lat": "38.655519507394956"
    },
    {
      "id": "pt.ine.add.PTCONT.4938529",
      "street": "R CAP JESUINO DA COSTA",
      "house": "",
      "postcode": "2965-211",
      "city": "POCEIRÃO",
      "lon": "-8.71242168718453",
      "lat": "38.65330878871395"
    },
    {
      "id": "pt.ine.add.PTCONT.4991438",
      "street": "R CAP JESUINO DA COSTA",
      "house": "",
      "postcode": "2965-211",
      "city": "POCEIRÃO",
      "lon": "-8.71748074407525",
      "lat": "38.65385114071098"
    },
    {
      "id": "pt.ine.add.PTCONT.5086280",
      "street": "R SESMARIAS",
      "house": "",
      "postcode": "2965-602",
      "city": "ÁGUAS DE MOURA",
      "lon": "-8.693325647162704",
      "lat": "38.65584301999578"
    },
    {
      "id": "pt.ine.add.PTCONT.5107255",
      "street": "R CAP JESUINO DA COSTA",
      "house": "",
      "postcode": "2965-211",
      "city": "POCEIRÃO",
      "lon": "-8.71254616173659",
      "lat": "38.65307395935464"
    }
  ]
}