{
  "data": {
    "distrito": "Leiria",
    "concelho": "Leiria",
    "freguesia": "Coimbrão",
    "OBJECTID": 1139,
    "BGRI2021": "10090900407",
    "DT21": "10",
    "DTMN21": "1009",
    "DTMNFR21": "100909",
    "DTMNFRSEC21": "100909004",
    "SECNUM21": "004",
    "SSNUM21": "07",
    "SECSSNUM21": "00407",
    "OBJECTID_1": 90314,
    "DT": "10",
    "CC": "09",
    "fr": "09",
    "SEC": "004",
    "SS": "07"
  },
  "addresses": [
    {
      "id": "pt.ine.add.PTCONT.1994870",
      "street": "R CAP SILVA MENDES",
      "house": "25",
      "postcode": "2425-458",
      "city": "COIMBRÃO",
      "lon": "-8.950689215702445",
      "lat": "39.92217873514183"
    },
    {
      "id": "pt.ine.add.PTCONT.2007408",
      "street": "R MANUEL GONÇALVES",
      "house": "16",
      "postcode": "2425-458",
      "city": "COIMBRÃO",
      "lon": "-8.950267410896622",
      "lat": "39.92211866553905"
    },
    {
      "id": "pt.ine.add.PTCONT.2007409",
      "street": "R MANUEL GONÇALVES",
      "house": "16",
      "postcode": "2425-458",
      "city": "COIMBRÃO",
      "lon": "-8.950267410896622",
      "lat": "39.92211866553905"
    },
    {
      "id": "pt.ine.add.PTCONT.2007410",
      "street": "R MANUEL GONÇALVES",
      "house": "16",
      "postcode": "2425-458",
      "city": "COIMBRÃO",
      "lon": "-8.950267410896622",
      "lat": "39.92211866553905"
    },
    {
      "id": "pt.ine.add.PTCONT.2007411",
      "street": "R MANUEL GONÇALVES",
      "house": "16",
      "postcode": "2425-458",
      "city": "COIMBRÃO",
      "lon": "-8.950267410896622",
      "lat": "39.92211866553905"
    },
    {
      "id": "pt.ine.add.PTCONT.2026989",
      "street": "R DR LUIS PEREIRA DA COSTA",
      "house": "",
      "postcode": "2425-458",
      "city": "COIMBRÃO",
      "lon": "-8.950466135360603",
      "lat": "39.922108258674655"
    },
    {
      "id": "pt.ine.add.PTCONT.2084188",
      "street": "R COR JOSE PEREIRA PASCOAL",
      "house": "",
      "postcode": "2425-458",
      "city": "COIMBRÃO",
      "lon": "-8.950549720656625",
      "lat": "39.922251767928174"
    },
    {
      "id": "pt.ine.add.PTCONT.2092800",
      "street": "R ENG DUARTE PACHECO",
      "house": "23 A",
      "postcode": "2425-458",
      "city": "COIMBRÃO",
      "lon": "-8.950667001937877",
      "lat": "39.92227795949625"
    },
    {
      "id": "pt.ine.add.PTCONT.2092801",
      "street": "R ENG DUARTE PACHECO",
      "house": "23 A",
      "postcode": "2425-458",
      "city": "COIMBRÃO",
      "lon": "-8.950667001937877",
      "lat": "39.92227795949625"
    },
    {
      "id": "pt.ine.add.PTCONT.2234449",
      "street": "R COR JOSE PEREIRA PASCOAL",
      "house": "12",
      "postcode": "2425-458",
      "city": "COIMBRÃO",
      "lon": "-8.950408512103252",
      "lat": "39.92218071412035"
    },
    {
      "id": "pt.ine.add.PTCONT.2234450",
      "street": "R COR JOSE PEREIRA PASCOAL",
      "house": "12",
      "postcode": "2425-458",
      "city": "COIMBRÃO",
      "lon": "-8.950408512103252",
      "lat": "39.92218071412035"
    },
    {
      "id": "pt.ine.add.PTCONT.2234451",
      "street": "R COR JOSE PEREIRA PASCOAL",
      "house": "12",
      "postcode": "2425-458",
      "city": "COIMBRÃO",
      "lon": "-8.950408512103252",
      "lat": "39.92218071412035"
    },
    {
      "id": "pt.ine.add.PTCONT.2234452",
      "street": "R COR JOSE PEREIRA PASCOAL",
      "house": "12",
      "postcode": "2425-458",
      "city": "COIMBRÃO",
      "lon": "-8.950408512103252",
      "lat": "39.92218071412035"
    },
    {
      "id": "pt.ine.add.PTCONT.2234453",
      "street": "R COR JOSE PEREIRA PASCOAL",
      "house": "12",
      "postcode": "2425-458",
      "city": "COIMBRÃO",
      "lon": "-8.950408512103252",
      "lat": "39.92218071412035"
    },
    {
      "id": "pt.ine.add.PTCONT.2234454",
      "street": "R COR JOSE PEREIRA PASCOAL",
      "house": "12",
      "postcode": "2425-458",
      "city": "COIMBRÃO",
      "lon": "-8.950408512103252",
      "lat": "39.92218071412035"
    }
  ]
}