{
  "data": {
    "distrito": "Ã‰vora",
    "concelho": "Borba",
    "freguesia": "Orada",
    "OBJECTID": 120,
    "BGRI2021": "07030200102",
    "DT21": "07",
    "DTMN21": "0703",
    "DTMNFR21": "070302",
    "DTMNFRSEC21": "070302001",
    "SECNUM21": "001",
    "SSNUM21": "02",
    "SECSSNUM21": "00102",
    "OBJECTID_1": 59236,
    "DT": "07",
    "CC": "03",
    "fr": "02",
    "SEC": "001",
    "SS": "02"
  },
  "addresses": [
    {
      "id": "pt.ine.add.PTCONT.1374625",
      "street": "MTE NAVES DE CIMA",
      "house": "",
      "postcode": "7150-308",
      "city": "ORADA",
      "lon": "-7.463998161970116",
      "lat": "38.83656605754314"
    },
    {
      "id": "pt.ine.add.PTCONT.1374626",
      "street": "MTE NAVES DE CIMA",
      "house": "",
      "postcode": "7150-308",
      "city": "ORADA",
      "lon": "-7.463998161970116",
      "lat": "38.83656605754314"
    },
    {
      "id": "pt.ine.add.PTCONT.1374627",
      "street": "MTE NAVES DE CIMA",
      "house": "",
      "postcode": "7150-308",
      "city": "ORADA",
      "lon": "-7.463998161970116",
      "lat": "38.83656605754314"
    },
    {
      "id": "pt.ine.add.PTCONT.1376170",
      "street": "MTE CAO",
      "house": "",
      "postcode": "7150-308",
      "city": "ORADA",
      "lon": "-7.46824951058356",
      "lat": "38.83516708779528"
    },
    {
      "id": "pt.ine.add.PTCONT.1376171",
      "street": "MTE CAO",
      "house": "",
      "postcode": "7150-308",
      "city": "ORADA",
      "lon": "-7.46824951058356",
      "lat": "38.83516708779528"
    },
    {
      "id": "pt.ine.add.PTCONT.1379635",
      "street": "MTE FONTE DAS MOCAS",
      "house": "",
      "postcode": "7150-308",
      "city": "ORADA",
      "lon": "-7.4676582332919965",
      "lat": "38.83558709116623"
    },
    {
      "id": "pt.ine.add.PTCONT.1380556",
      "street": "MTE OUTEIRO DE CIMA",
      "house": "",
      "postcode": "7150-287",
      "city": "ORADA",
      "lon": "-7.4667836838931825",
      "lat": "38.839212278598275"
    },
    {
      "id": "pt.ine.add.PTCONT.1381210",
      "street": "MTE OUTEIRO DE CIMA",
      "house": "",
      "postcode": "7150-287",
      "city": "ORADA",
      "lon": "-7.4667836838931825",
      "lat": "38.839212278598275"
    },
    {
      "id": "pt.ine.add.PTCONT.1381776",
      "street": "MTE BOAVISTA",
      "house": "",
      "postcode": "7150-308",
      "city": "ORADA",
      "lon": "-7.46567092820829",
      "lat": "38.83626935955963"
    },
    {
      "id": "pt.ine.add.PTCONT.1387023",
      "street": "HORTA DO MEDICO",
      "house": "",
      "postcode": "7150-308",
      "city": "ORADA",
      "lon": "-7.4654106481520195",
      "lat": "38.838240596171666"
    },
    {
      "id": "pt.ine.add.PTCONT.1387122",
      "street": "SERRADO DA MORGADA",
      "house": "",
      "postcode": "7150-308",
      "city": "ORADA",
      "lon": "-7.4666057007699935",
      "lat": "38.8360675157375"
    },
    {
      "id": "pt.ine.add.PTCONT.1387218",
      "street": "MTE SERRANO",
      "house": "",
      "postcode": "7150-308",
      "city": "ORADA",
      "lon": "-7.467301269606075",
      "lat": "38.83310789075777"
    },
    {
      "id": "pt.ine.add.PTCONT.1387963",
      "street": "MTE DO BURRAZEIRO",
      "house": "",
      "postcode": "7150-308",
      "city": "ORADA",
      "lon": "-7.468231087179657",
      "lat": "38.834671549692175"
    },
    {
      "id": "pt.ine.add.PTCONT.1390208",
      "street": "MTE BOAVISTA",
      "house": "",
      "postcode": "7150-308",
      "city": "ORADA",
      "lon": "-7.4668669362741396",
      "lat": "38.83498991832327"
    },
    {
      "id": "pt.ine.add.PTCONT.1397748",
      "street": "MTE FONTE DAS MOCAS",
      "house": "",
      "postcode": "7150-308",
      "city": "ORADA",
      "lon": "-7.467578457119747",
      "lat": "38.8354965579201"
    },
    {
      "id": "pt.ine.add.PTCONT.1400119",
      "street": "MTE BURRAZEIRO",
      "house": "",
      "postcode": "7150-308",
      "city": "ORADA",
      "lon": "-7.4665805933826315",
      "lat": "38.829711769352464"
    },
    {
      "id": "pt.ine.add.PTCONT.1401590",
      "street": "MTE ZAMBUJAL",
      "house": "",
      "postcode": "7150-308",
      "city": "ORADA",
      "lon": "-7.465057961020976",
      "lat": "38.83531102092098"
    },
    {
      "id": "pt.ine.add.PTCONT.1408376",
      "street": "MTE ZAMBUJAL",
      "house": "",
      "postcode": "7150-308",
      "city": "ORADA",
      "lon": "-7.464424834483928",
      "lat": "38.836236304811905"
    },
    {
      "id": "pt.ine.add.PTCONT.1418411",
      "street": "MTE SERRADO DA MORGADA",
      "house": "",
      "postcode": "7150-308",
      "city": "ORADA",
      "lon": "-7.4666593695458845",
      "lat": "38.83613085274566"
    },
    {
      "id": "pt.ine.add.PTCONT.1434830",
      "street": "MTE AZENHA DA COVA",
      "house": "",
      "postcode": "7150-308",
      "city": "ORADA",
      "lon": "-7.464836785343424",
      "lat": "38.835967265819754"
    },
    {
      "id": "pt.ine.add.PTCONT.1437758",
      "street": "",
      "house": "",
      "postcode": "7150-308",
      "city": "ORADA",
      "lon": "-7.464583680659581",
      "lat": "38.83922673195386"
    },
    {
      "id": "pt.ine.add.PTCONT.1439185",
      "street": "MTE RAPAZINHO",
      "house": "",
      "postcode": "7150-308",
      "city": "ORADA",
      "lon": "-7.465804320515992",
      "lat": "38.836421979993744"
    },
    {
      "id": "pt.ine.add.PTCONT.1442229",
      "street": "MTE HORTA GAGO",
      "house": "2",
      "postcode": "7150-308",
      "city": "ORADA",
      "lon": "-7.465503991972547",
      "lat": "38.839436486663104"
    },
    {
      "id": "pt.ine.add.PTCONT.1443746",
      "street": "MTE AZENHA DA ROMEIRAS",
      "house": "",
      "postcode": "7150-308",
      "city": "ORADA",
      "lon": "-7.466179085364969",
      "lat": "38.83611912806023"
    },
    {
      "id": "pt.ine.add.PTCONT.1449987",
      "street": "MTE ZAMBUJAL",
      "house": "",
      "postcode": "7150-308",
      "city": "ORADA",
      "lon": "-7.4646843813286425",
      "lat": "38.83584935633084"
    },
    {
      "id": "pt.ine.add.PTCONT.1454471",
      "street": "MTE BELA VISTA",
      "house": "",
      "postcode": "7150-308",
      "city": "ORADA",
      "lon": "-7.465512233311012",
      "lat": "38.83476413756088"
    },
    {
      "id": "pt.ine.add.PTCONT.1458494",
      "street": "MTE PINHEIRO",
      "house": "",
      "postcode": "7150-308",
      "city": "ORADA",
      "lon": "-7.464629130697529",
      "lat": "38.83683089838265"
    },
    {
      "id": "pt.ine.add.PTCONT.1458495",
      "street": "MTE PINHEIRO",
      "house": "",
      "postcode": "7150-308",
      "city": "ORADA",
      "lon": "-7.464629130697529",
      "lat": "38.83683089838265"
    },
    {
      "id": "pt.ine.add.PTCONT.1458496",
      "street": "MTE PINHEIRO",
      "house": "",
      "postcode": "7150-308",
      "city": "ORADA",
      "lon": "-7.464629130697529",
      "lat": "38.83683089838265"
    },
    {
      "id": "pt.ine.add.PTCONT.1460577",
      "street": "MTE EIRA",
      "house": "",
      "postcode": "7150-308",
      "city": "ORADA",
      "lon": "-7.46753647922197",
      "lat": "38.8338208535773"
    },
    {
      "id": "pt.ine.add.PTCONT.1463390",
      "street": "MTE BORREGAS",
      "house": "",
      "postcode": "7150-308",
      "city": "ORADA",
      "lon": "-7.46613755921877",
      "lat": "38.835632465722355"
    }
  ]
}