{
  "data": {
    "distrito": "Santarém",
    "concelho": "Santarém",
    "freguesia": "Alcanede",
    "OBJECTID": 930,
    "BGRI2021": "14160400121",
    "DT21": "14",
    "DTMN21": "1416",
    "DTMNFR21": "141604",
    "DTMNFRSEC21": "141604001",
    "SECNUM21": "001",
    "SSNUM21": "21",
    "SECSSNUM21": "00121",
    "OBJECTID_1": 155132,
    "DT": "14",
    "CC": "16",
    "fr": "04",
    "SEC": "001",
    "SS": "21"
  },
  "addresses": [
    {
      "id": "pt.ine.add.PTCONT.4394381",
      "street": "ESTR 5 DE OUTUBRO",
      "house": "13",
      "postcode": "2025-161",
      "city": "ALCANEDE",
      "lon": "-8.826157333002968",
      "lat": "39.449397778555635"
    },
    {
      "id": "pt.ine.add.PTCONT.4396473",
      "street": "R PRINCIPAL",
      "house": "21",
      "postcode": "2025-159",
      "city": "ALCANEDE",
      "lon": "-8.818929004597825",
      "lat": "39.44206394704271"
    },
    {
      "id": "pt.ine.add.PTCONT.4399358",
      "street": "R CASAL NARCISO",
      "house": "11",
      "postcode": "2025-161",
      "city": "ALCANEDE",
      "lon": "-8.82589373009984",
      "lat": "39.448588725531565"
    },
    {
      "id": "pt.ine.add.PTCONT.4419890",
      "street": "R PRINCIPAL",
      "house": "23",
      "postcode": "2025-159",
      "city": "ALCANEDE",
      "lon": "-8.818864168817049",
      "lat": "39.44255971107963"
    },
    {
      "id": "pt.ine.add.PTCONT.4445808",
      "street": "R PRINCIPAL",
      "house": "35",
      "postcode": "2025-142",
      "city": "ALCANEDE",
      "lon": "-8.8187951353206",
      "lat": "39.44381208268185"
    },
    {
      "id": "pt.ine.add.PTCONT.4460823",
      "street": "ESTR 5 DE OUTUBRO",
      "house": "",
      "postcode": "2025-161",
      "city": "ALCANEDE",
      "lon": "-8.825703652334761",
      "lat": "39.44933743264692"
    },
    {
      "id": "pt.ine.add.PTCONT.4543074",
      "street": "R FEITEIRA",
      "house": "",
      "postcode": "2025-161",
      "city": "ALCANEDE",
      "lon": "-8.824949658736735",
      "lat": "39.4482791026966"
    },
    {
      "id": "pt.ine.add.PTCONT.4578321",
      "street": "R PRINCIPAL",
      "house": "",
      "postcode": "2025-142",
      "city": "ALCANEDE",
      "lon": "-8.81874010517303",
      "lat": "39.44293873398216"
    },
    {
      "id": "pt.ine.add.PTCONT.4578375",
      "street": "ESTR 5 OUTUBRO",
      "house": "9",
      "postcode": "2025-161",
      "city": "ALCANEDE",
      "lon": "-8.825573815502556",
      "lat": "39.44913104642127"
    },
    {
      "id": "pt.ine.add.PTCONT.4634646",
      "street": "R FEITEIRA",
      "house": "4",
      "postcode": "2025-161",
      "city": "ALCANEDE",
      "lon": "-8.825431916732677",
      "lat": "39.44887969720117"
    },
    {
      "id": "pt.ine.add.PTCONT.4636683",
      "street": "R FEITEIRA",
      "house": "13",
      "postcode": "2025-161",
      "city": "ALCANEDE",
      "lon": "-8.823661597609487",
      "lat": "39.44725096060681"
    }
  ]
}