{
  "data": {
    "distrito": "Setúbal",
    "concelho": "Setúbal",
    "freguesia": "União das freguesias de Azeitão (São Lourenço e São Simão)",
    "OBJECTID": 1235,
    "BGRI2021": "15120900311",
    "DT21": "15",
    "DTMN21": "1512",
    "DTMNFR21": "151209",
    "DTMNFRSEC21": "151209003",
    "SECNUM21": "003",
    "SSNUM21": "11",
    "SECSSNUM21": "00311",
    "OBJECTID_1": 171173,
    "DT": "15",
    "CC": "12",
    "fr": "09",
    "SEC": "003",
    "SS": "11"
  },
  "addresses": [
    {
      "id": "pt.ine.add.PTCONT.4679688",
      "street": "VINHA D MARIA",
      "house": "",
      "postcode": "2925-384",
      "city": "AZEITÃO",
      "lon": "-9.01615069294355",
      "lat": "38.51025240365868"
    },
    {
      "id": "pt.ine.add.PTCONT.4723715",
      "street": "QTA VALE RIOS",
      "house": "",
      "postcode": "2925-384",
      "city": "AZEITÃO",
      "lon": "-9.018087316891025",
      "lat": "38.51204844524693"
    },
    {
      "id": "pt.ine.add.PTCONT.4724617",
      "street": "",
      "house": "",
      "postcode": "2925-384",
      "city": "AZEITÃO",
      "lon": "-9.018087316891025",
      "lat": "38.51204844524693"
    },
    {
      "id": "pt.ine.add.PTCONT.4767561",
      "street": "CASA DO ALTO",
      "house": "",
      "postcode": "2925-384",
      "city": "AZEITÃO",
      "lon": "-9.015421404091356",
      "lat": "38.510618231408074"
    },
    {
      "id": "pt.ine.add.PTCONT.4852311",
      "street": "",
      "house": "",
      "postcode": "2925-384",
      "city": "AZEITÃO",
      "lon": "-9.01593289340154",
      "lat": "38.51401049187261"
    },
    {
      "id": "pt.ine.add.PTCONT.4859138",
      "street": "",
      "house": "",
      "postcode": "2925-384",
      "city": "AZEITÃO",
      "lon": "-9.014497330241799",
      "lat": "38.510994529126975"
    },
    {
      "id": "pt.ine.add.PTCONT.4884278",
      "street": "QTA STA ISABEL",
      "house": "",
      "postcode": "2925-384",
      "city": "AZEITÃO",
      "lon": "-9.014744963912172",
      "lat": "38.50967745799624"
    },
    {
      "id": "pt.ine.add.PTCONT.4919663",
      "street": "R FISCO",
      "house": "",
      "postcode": "2925-384",
      "city": "AZEITÃO",
      "lon": "-9.017242717324082",
      "lat": "38.512361106080796"
    },
    {
      "id": "pt.ine.add.PTCONT.4933143",
      "street": "QTA MARQUES",
      "house": "",
      "postcode": "2925-384",
      "city": "AZEITÃO",
      "lon": "-9.016654331394845",
      "lat": "38.51018554692288"
    },
    {
      "id": "pt.ine.add.PTCONT.4955684",
      "street": "",
      "house": "",
      "postcode": "2925-503",
      "city": "AZEITÃO",
      "lon": "-9.009470647941578",
      "lat": "38.50490662904905"
    },
    {
      "id": "pt.ine.add.PTCONT.4966467",
      "street": "",
      "house": "",
      "postcode": "2925-503",
      "city": "AZEITÃO",
      "lon": "-9.012347388257972",
      "lat": "38.50390316385625"
    },
    {
      "id": "pt.ine.add.PTCONT.5013218",
      "street": "MTE LUA",
      "house": "",
      "postcode": "2925-713",
      "city": "AZEITÃO",
      "lon": "-9.01174355720491",
      "lat": "38.50704257590051"
    },
    {
      "id": "pt.ine.add.PTCONT.5036396",
      "street": "",
      "house": "",
      "postcode": "2925-713",
      "city": "AZEITÃO",
      "lon": "-9.01039720859992",
      "lat": "38.50662928071891"
    },
    {
      "id": "pt.ine.add.PTCONT.5068925",
      "street": "",
      "house": "",
      "postcode": "2925-346",
      "city": "AZEITÃO",
      "lon": "-9.020460244008506",
      "lat": "38.511084620619236"
    },
    {
      "id": "pt.ine.add.PTCONT.5068931",
      "street": "QTA TILIAS",
      "house": "",
      "postcode": "2925-384",
      "city": "AZEITÃO",
      "lon": "-9.016352970451738",
      "lat": "38.50991757229879"
    },
    {
      "id": "pt.ine.add.PTCONT.5111376",
      "street": "CSL S RAFAEL",
      "house": "",
      "postcode": "2925-503",
      "city": "AZEITÃO",
      "lon": "-9.010651884871688",
      "lat": "38.50494282489098"
    },
    {
      "id": "pt.ine.add.PTCONT.5112179",
      "street": "R FISCO",
      "house": "",
      "postcode": "2925-384",
      "city": "AZEITÃO",
      "lon": "-9.017623461919305",
      "lat": "38.511619553197875"
    }
  ]
}