{
  "data": {
    "distrito": "Viseu",
    "concelho": "Viseu",
    "freguesia": "Coutos de Viseu",
    "OBJECTID": 1058,
    "BGRI2021": "18233700131",
    "DT21": "18",
    "DTMN21": "1823",
    "DTMNFR21": "182337",
    "DTMNFRSEC21": "182337001",
    "SECNUM21": "001",
    "SSNUM21": "31",
    "SECSSNUM21": "00131",
    "OBJECTID_1": 201450,
    "DT": "18",
    "CC": "23",
    "fr": "37",
    "SEC": "001",
    "SS": "31"
  },
  "addresses": [
    {
      "id": "pt.ine.add.PTCONT.5431188",
      "street": "R S JOSE",
      "house": "6",
      "postcode": "3510-583",
      "city": "COUTO DE BAIXO",
      "lon": "-8.02336068271765",
      "lat": "40.67388961114557"
    },
    {
      "id": "pt.ine.add.PTCONT.5434765",
      "street": "R ESCOLA",
      "house": "1",
      "postcode": "3510-583",
      "city": "COUTO DE BAIXO",
      "lon": "-8.023123851381191",
      "lat": "40.67406048352799"
    },
    {
      "id": "pt.ine.add.PTCONT.5476690",
      "street": "R PORTINHOLA",
      "house": "2",
      "postcode": "3510-583",
      "city": "COUTO DE BAIXO",
      "lon": "-8.023313771519415",
      "lat": "40.67364642765299"
    },
    {
      "id": "pt.ine.add.PTCONT.5521213",
      "street": "R PORTINHOLA",
      "house": "3",
      "postcode": "3510-583",
      "city": "COUTO DE BAIXO",
      "lon": "-8.023502937250298",
      "lat": "40.67369163309887"
    },
    {
      "id": "pt.ine.add.PTCONT.5537319",
      "street": "R S JOSE",
      "house": "2",
      "postcode": "3510-583",
      "city": "COUTO DE BAIXO",
      "lon": "-8.023242318935829",
      "lat": "40.67394352944384"
    },
    {
      "id": "pt.ine.add.PTCONT.5544844",
      "street": "R PORTINHOLA",
      "house": "4",
      "postcode": "3510-583",
      "city": "COUTO DE BAIXO",
      "lon": "-8.023289968837329",
      "lat": "40.67373645645978"
    },
    {
      "id": "pt.ine.add.PTCONT.5580708",
      "street": "R FORMOSA",
      "house": "8",
      "postcode": "3510-583",
      "city": "COUTO DE BAIXO",
      "lon": "-8.023100714321913",
      "lat": "40.673745281446486"
    },
    {
      "id": "pt.ine.add.PTCONT.5606374",
      "street": "R S JOSE",
      "house": "1",
      "postcode": "3510-583",
      "city": "COUTO DE BAIXO",
      "lon": "-8.023005842627446",
      "lat": "40.67389827846833"
    },
    {
      "id": "pt.ine.add.PTCONT.5638642",
      "street": "R ESCOLA",
      "house": "9",
      "postcode": "3510-583",
      "city": "COUTO DE BAIXO",
      "lon": "-8.023572236801368",
      "lat": "40.67470928008342"
    },
    {
      "id": "pt.ine.add.PTCONT.5655424",
      "street": "R FORMOSA",
      "house": "6",
      "postcode": "3510-583",
      "city": "COUTO DE BAIXO",
      "lon": "-8.022935070259509",
      "lat": "40.673781144086746"
    }
  ]
}