{
  "data": {
    "distrito": "Évora",
    "concelho": "Estremoz",
    "freguesia": "Évora Monte (Santa Maria)",
    "OBJECTID": 187,
    "BGRI2021": "07040400129",
    "DT21": "07",
    "DTMN21": "0704",
    "DTMNFR21": "070404",
    "DTMNFRSEC21": "070404001",
    "SECNUM21": "001",
    "SSNUM21": "29",
    "SECSSNUM21": "00129",
    "OBJECTID_1": 59584,
    "DT": "07",
    "CC": "04",
    "fr": "04",
    "SEC": "001",
    "SS": "29"
  },
  "addresses": [
    {
      "id": "pt.ine.add.PTCONT.1371651",
      "street": "",
      "house": "",
      "postcode": "7100-239",
      "city": "ÉVORA MONTE",
      "lon": "-7.738322691997174",
      "lat": "38.77493038926366"
    },
    {
      "id": "pt.ine.add.PTCONT.1371652",
      "street": "",
      "house": "",
      "postcode": "7100-239",
      "city": "ÉVORA MONTE",
      "lon": "-7.738322691997174",
      "lat": "38.77493038926366"
    },
    {
      "id": "pt.ine.add.PTCONT.1376138",
      "street": "",
      "house": "",
      "postcode": "7100-239",
      "city": "ÉVORA MONTE",
      "lon": "-7.743687095316307",
      "lat": "38.77668694140596"
    },
    {
      "id": "pt.ine.add.PTCONT.1376137",
      "street": "",
      "house": "",
      "postcode": "7100-239",
      "city": "ÉVORA MONTE",
      "lon": "-7.743687095316307",
      "lat": "38.77668694140596"
    },
    {
      "id": "pt.ine.add.PTCONT.1387044",
      "street": "",
      "house": "",
      "postcode": "7100-229",
      "city": "ÉVORA MONTE",
      "lon": "-7.732282040471774",
      "lat": "38.75344912696236"
    },
    {
      "id": "pt.ine.add.PTCONT.1377213",
      "street": "",
      "house": "",
      "postcode": "7100-229",
      "city": "ÉVORA MONTE",
      "lon": "-7.732265903965757",
      "lat": "38.75350135906167"
    },
    {
      "id": "pt.ine.add.PTCONT.1382070",
      "street": "",
      "house": "",
      "postcode": "7100-216",
      "city": "ÉVORA MONTE",
      "lon": "-7.734364127277213",
      "lat": "38.77080026847363"
    },
    {
      "id": "pt.ine.add.PTCONT.1382071",
      "street": "",
      "house": "",
      "postcode": "7100-216",
      "city": "ÉVORA MONTE",
      "lon": "-7.734364127277213",
      "lat": "38.77080026847363"
    },
    {
      "id": "pt.ine.add.PTCONT.1382669",
      "street": "",
      "house": "",
      "postcode": "7100-216",
      "city": "ÉVORA MONTE",
      "lon": "-7.734364127277213",
      "lat": "38.77080026847363"
    },
    {
      "id": "pt.ine.add.PTCONT.1391768",
      "street": "MTE ESTRADA",
      "house": "",
      "postcode": "7100-229",
      "city": "ÉVORA MONTE",
      "lon": "-7.7353414105458125",
      "lat": "38.75643572545149"
    },
    {
      "id": "pt.ine.add.PTCONT.1391769",
      "street": "MTE ESTRADA",
      "house": "",
      "postcode": "7100-229",
      "city": "ÉVORA MONTE",
      "lon": "-7.7353414105458125",
      "lat": "38.75643572545149"
    },
    {
      "id": "pt.ine.add.PTCONT.1392487",
      "street": "MTE MATA MOUROS",
      "house": "",
      "postcode": "7100-239",
      "city": "ÉVORA MONTE",
      "lon": "-7.753384476273855",
      "lat": "38.76651271664767"
    },
    {
      "id": "pt.ine.add.PTCONT.1393372",
      "street": "MTE SERRADINHO",
      "house": "",
      "postcode": "7100-229",
      "city": "ÉVORA MONTE",
      "lon": "-7.7410740494472625",
      "lat": "38.76012862342662"
    },
    {
      "id": "pt.ine.add.PTCONT.1407781",
      "street": "MTE LAGAR DAS BELAS",
      "house": "",
      "postcode": "7100-229",
      "city": "ÉVORA MONTE",
      "lon": "-7.746510682605871",
      "lat": "38.7588513347153"
    },
    {
      "id": "pt.ine.add.PTCONT.1407782",
      "street": "MTE LAGAR DAS BELAS",
      "house": "",
      "postcode": "7100-229",
      "city": "ÉVORA MONTE",
      "lon": "-7.746510682605871",
      "lat": "38.7588513347153"
    },
    {
      "id": "pt.ine.add.PTCONT.1407783",
      "street": "MTE LAGAR DAS BELAS",
      "house": "",
      "postcode": "7100-229",
      "city": "ÉVORA MONTE",
      "lon": "-7.746510682605871",
      "lat": "38.7588513347153"
    },
    {
      "id": "pt.ine.add.PTCONT.1407784",
      "street": "MTE LAGAR DAS BELAS",
      "house": "",
      "postcode": "7100-229",
      "city": "ÉVORA MONTE",
      "lon": "-7.746510682605871",
      "lat": "38.7588513347153"
    },
    {
      "id": "pt.ine.add.PTCONT.1410514",
      "street": "MTE SERRADINHO",
      "house": "",
      "postcode": "7100-229",
      "city": "ÉVORA MONTE",
      "lon": "-7.742166122908043",
      "lat": "38.760179088069954"
    },
    {
      "id": "pt.ine.add.PTCONT.1410515",
      "street": "MTE MATA MOUROS",
      "house": "",
      "postcode": "7100-229",
      "city": "ÉVORA MONTE",
      "lon": "-7.742166122908043",
      "lat": "38.760179088069954"
    },
    {
      "id": "pt.ine.add.PTCONT.1410690",
      "street": "",
      "house": "",
      "postcode": "7100-229",
      "city": "ÉVORA MONTE",
      "lon": "-7.732205251793507",
      "lat": "38.75365003038905"
    },
    {
      "id": "pt.ine.add.PTCONT.1410689",
      "street": "",
      "house": "",
      "postcode": "7100-229",
      "city": "ÉVORA MONTE",
      "lon": "-7.732205251793507",
      "lat": "38.75365003038905"
    },
    {
      "id": "pt.ine.add.PTCONT.1411434",
      "street": "",
      "house": "",
      "postcode": "7100-229",
      "city": "ÉVORA MONTE",
      "lon": "-7.7323451507027965",
      "lat": "38.75331897112993"
    },
    {
      "id": "pt.ine.add.PTCONT.1413849",
      "street": "QTA GORDO",
      "house": "",
      "postcode": "7100-216",
      "city": "ÉVORA MONTE",
      "lon": "-7.7411375091305485",
      "lat": "38.76523818056475"
    },
    {
      "id": "pt.ine.add.PTCONT.1413850",
      "street": "QTA GORDO",
      "house": "",
      "postcode": "7100-216",
      "city": "ÉVORA MONTE",
      "lon": "-7.7411375091305485",
      "lat": "38.76523818056475"
    },
    {
      "id": "pt.ine.add.PTCONT.1413851",
      "street": "QTA GORDO",
      "house": "",
      "postcode": "7100-216",
      "city": "ÉVORA MONTE",
      "lon": "-7.7411375091305485",
      "lat": "38.76523818056475"
    },
    {
      "id": "pt.ine.add.PTCONT.1442454",
      "street": "MTE VALONGO",
      "house": "",
      "postcode": "7100-239",
      "city": "ÉVORA MONTE",
      "lon": "-7.746450562102792",
      "lat": "38.77425493392978"
    },
    {
      "id": "pt.ine.add.PTCONT.1442455",
      "street": "MTE VALONGO",
      "house": "",
      "postcode": "7100-239",
      "city": "ÉVORA MONTE",
      "lon": "-7.746450562102792",
      "lat": "38.77425493392978"
    },
    {
      "id": "pt.ine.add.PTCONT.1443946",
      "street": "MTE OUTEIRO",
      "house": "",
      "postcode": "7100-223",
      "city": "ÉVORA MONTE",
      "lon": "-7.7635086111628855",
      "lat": "38.76674334790853"
    },
    {
      "id": "pt.ine.add.PTCONT.1443947",
      "street": "MTE OUTEIRO",
      "house": "",
      "postcode": "7100-223",
      "city": "ÉVORA MONTE",
      "lon": "-7.7635086111628855",
      "lat": "38.76674334790853"
    },
    {
      "id": "pt.ine.add.PTCONT.1448623",
      "street": "",
      "house": "",
      "postcode": "7100-229",
      "city": "ÉVORA MONTE",
      "lon": "-7.732233702078206",
      "lat": "38.75357458345503"
    },
    {
      "id": "pt.ine.add.PTCONT.1451608",
      "street": "MTE VELADAS",
      "house": "",
      "postcode": "7100-229",
      "city": "ÉVORA MONTE",
      "lon": "-7.744766554305265",
      "lat": "38.76012470028198"
    },
    {
      "id": "pt.ine.add.PTCONT.1451609",
      "street": "MTE VELADAS",
      "house": "",
      "postcode": "7100-229",
      "city": "ÉVORA MONTE",
      "lon": "-7.744766554305265",
      "lat": "38.76012470028198"
    },
    {
      "id": "pt.ine.add.PTCONT.1451610",
      "street": "MTE VELADAS",
      "house": "",
      "postcode": "7100-229",
      "city": "ÉVORA MONTE",
      "lon": "-7.744766554305265",
      "lat": "38.76012470028198"
    },
    {
      "id": "pt.ine.add.PTCONT.1462997",
      "street": "SEM DESIGNACAO",
      "house": "550",
      "postcode": "7100-229",
      "city": "ÉVORA MONTE",
      "lon": "-7.7323212265428305",
      "lat": "38.75339869263687"
    }
  ]
}