{
  "data": {
    "distrito": "Coimbra",
    "concelho": "Góis",
    "freguesia": "União das freguesias de Cadafaz e Colmeal",
    "OBJECTID": 117,
    "BGRI2021": "06060600213",
    "DT21": "06",
    "DTMN21": "0606",
    "DTMNFR21": "060606",
    "DTMNFRSEC21": "060606002",
    "SECNUM21": "002",
    "SSNUM21": "13",
    "SECSSNUM21": "00213",
    "OBJECTID_1": 52386,
    "DT": "06",
    "CC": "06",
    "fr": "06",
    "SEC": "002",
    "SS": "13"
  },
  "addresses": [
    {
      "id": "pt.ine.add.PTCONT.1107086",
      "street": "R ACACIO FERNANDES DE ALMEIDA",
      "house": "",
      "postcode": "3330-075",
      "city": "COLMEAL GOI",
      "lon": "-8.017150558596324",
      "lat": "40.13192851007536"
    },
    {
      "id": "pt.ine.add.PTCONT.1109246",
      "street": "R MANUEL GONÇALVES",
      "house": "",
      "postcode": "3330-075",
      "city": "COLMEAL GOI",
      "lon": "-8.017360698999159",
      "lat": "40.13255013358131"
    },
    {
      "id": "pt.ine.add.PTCONT.1134110",
      "street": "R MANUEL GONÇALVES",
      "house": "",
      "postcode": "3330-075",
      "city": "COLMEAL GOI",
      "lon": "-8.0169154532102",
      "lat": "40.13218944813884"
    },
    {
      "id": "pt.ine.add.PTCONT.1136156",
      "street": "R VIEL DO SAPATEIRO",
      "house": "",
      "postcode": "3330-075",
      "city": "COLMEAL GOI",
      "lon": "-8.017115175780878",
      "lat": "40.13203654652265"
    },
    {
      "id": "pt.ine.add.PTCONT.1137195",
      "street": "R CABEÇO",
      "house": "",
      "postcode": "3330-075",
      "city": "COLMEAL GOI",
      "lon": "-8.017852897511112",
      "lat": "40.13290185804048"
    },
    {
      "id": "pt.ine.add.PTCONT.1139625",
      "street": "R CARREIRO",
      "house": "",
      "postcode": "3330-075",
      "city": "COLMEAL GOI",
      "lon": "-8.017407234484024",
      "lat": "40.13278433579692"
    },
    {
      "id": "pt.ine.add.PTCONT.1174906",
      "street": "R MANUEL MARTINS BARATA",
      "house": "",
      "postcode": "3330-075",
      "city": "COLMEAL GOI",
      "lon": "-8.016798398783719",
      "lat": "40.132027222820525"
    },
    {
      "id": "pt.ine.add.PTCONT.1183882",
      "street": "TV JOÃO MARTINS",
      "house": "",
      "postcode": "3330-075",
      "city": "COLMEAL GOI",
      "lon": "-8.017314377807354",
      "lat": "40.13218984769677"
    },
    {
      "id": "pt.ine.add.PTCONT.1186783",
      "street": "R CABECO",
      "house": "",
      "postcode": "3330-075",
      "city": "COLMEAL GOI",
      "lon": "-8.017361187891451",
      "lat": "40.132261942408654"
    },
    {
      "id": "pt.ine.add.PTCONT.1190441",
      "street": "R VIEL DO SAPATEIRO",
      "house": "",
      "postcode": "3330-075",
      "city": "COLMEAL GOI",
      "lon": "-8.016845637890405",
      "lat": "40.1318471504517"
    },
    {
      "id": "pt.ine.add.PTCONT.1194356",
      "street": "R COMISSAO ANGARIADORA DE FUNDOS",
      "house": "",
      "postcode": "3330-075",
      "city": "COLMEAL GOI",
      "lon": "-8.016986403445415",
      "lat": "40.13186530366271"
    },
    {
      "id": "pt.ine.add.PTCONT.1234487",
      "street": "R URBANO DE ALMEIDA",
      "house": "",
      "postcode": "3330-075",
      "city": "COLMEAL GOI",
      "lon": "-8.017419288340303",
      "lat": "40.132595222070414"
    },
    {
      "id": "pt.ine.add.PTCONT.1240773",
      "street": "R CARREIRO",
      "house": "",
      "postcode": "3330-075",
      "city": "COLMEAL GOI",
      "lon": "-8.01725487137337",
      "lat": "40.13268511759789"
    },
    {
      "id": "pt.ine.add.PTCONT.1242587",
      "street": "R URBANO DE ALMEIDA",
      "house": "",
      "postcode": "3330-075",
      "city": "COLMEAL GOI",
      "lon": "-8.017349240891342",
      "lat": "40.13238801432104"
    },
    {
      "id": "pt.ine.add.PTCONT.1244656",
      "street": "R VIEL SAPATEIRO",
      "house": "",
      "postcode": "3330-075",
      "city": "COLMEAL GOI",
      "lon": "-8.01725581946635",
      "lat": "40.132126747202946"
    },
    {
      "id": "pt.ine.add.PTCONT.1248944",
      "street": "R CARREIRO",
      "house": "",
      "postcode": "3330-075",
      "city": "COLMEAL GOI",
      "lon": "-8.0178174848629",
      "lat": "40.13302790663168"
    },
    {
      "id": "pt.ine.add.PTCONT.1257550",
      "street": "R VIEL DO SAPATEIRO",
      "house": "",
      "postcode": "3330-075",
      "city": "COLMEAL GOI",
      "lon": "-8.0170449459938",
      "lat": "40.13193741026972"
    },
    {
      "id": "pt.ine.add.PTCONT.1257552",
      "street": "R TRAVESSA DA ESPERANÇA",
      "house": "",
      "postcode": "3330-075",
      "city": "COLMEAL GOI",
      "lon": "-8.016798552302674",
      "lat": "40.13193716307426"
    },
    {
      "id": "pt.ine.add.PTCONT.1260329",
      "street": "R COMISSAO ANGARIADORA DE FUNDOS",
      "house": "",
      "postcode": "3330-075",
      "city": "COLMEAL GOI",
      "lon": "-8.017092000630731",
      "lat": "40.13186540949638"
    },
    {
      "id": "pt.ine.add.PTCONT.1263720",
      "street": "LG ANTÓNIO MARQUES ALMEIDA",
      "house": "",
      "postcode": "3330-075",
      "city": "COLMEAL GOI",
      "lon": "-8.017501984959",
      "lat": "40.1322620830443"
    },
    {
      "id": "pt.ine.add.PTCONT.1265768",
      "street": "TV JOÃO MARTINS",
      "house": "",
      "postcode": "3330-075",
      "city": "COLMEAL GOI",
      "lon": "-8.017173550284793",
      "lat": "40.13220771878205"
    },
    {
      "id": "pt.ine.add.PTCONT.1275650",
      "street": "R VIEL SAPATEIRO",
      "house": "",
      "postcode": "3330-075",
      "city": "COLMEAL GOI",
      "lon": "-8.017068029151563",
      "lat": "40.132162583150006"
    },
    {
      "id": "pt.ine.add.PTCONT.1275651",
      "street": "LG MANUEL VICENTE",
      "house": "",
      "postcode": "3330-075",
      "city": "COLMEAL GOI",
      "lon": "-8.016939609361952",
      "lat": "40.13178420282035"
    },
    {
      "id": "pt.ine.add.PTCONT.1277629",
      "street": "R URBANO DE ALMEIDA",
      "house": "",
      "postcode": "3330-075",
      "city": "COLMEAL GOI",
      "lon": "-8.017454823621499",
      "lat": "40.132397125799194"
    },
    {
      "id": "pt.ine.add.PTCONT.1288561",
      "street": "R ACACIO FERNANDES DE ALMEIDA",
      "house": "",
      "postcode": "3330-075",
      "city": "COLMEAL GOI",
      "lon": "-8.017033488735695",
      "lat": "40.131775290962224"
    },
    {
      "id": "pt.ine.add.PTCONT.1300185",
      "street": "R CARREIRO",
      "house": "",
      "postcode": "3330-075",
      "city": "COLMEAL GOI",
      "lon": "-8.016915177150848",
      "lat": "40.1323515556747"
    },
    {
      "id": "pt.ine.add.PTCONT.1315995",
      "street": "R CABECO",
      "house": "",
      "postcode": "3330-075",
      "city": "COLMEAL GOI",
      "lon": "-8.017560528392313",
      "lat": "40.13233418938699"
    },
    {
      "id": "pt.ine.add.PTCONT.1315996",
      "street": "R URBANO ALMEIDA",
      "house": "",
      "postcode": "3330-075",
      "city": "COLMEAL GOI",
      "lon": "-8.017560528392313",
      "lat": "40.13233418938699"
    },
    {
      "id": "pt.ine.add.PTCONT.1328319",
      "street": "R CARREIRO",
      "house": "",
      "postcode": "3330-075",
      "city": "COLMEAL GOI",
      "lon": "-8.01746582405671",
      "lat": "40.13282942426099"
    },
    {
      "id": "pt.ine.add.PTCONT.1338490",
      "street": "R MANUEL GONÇALVES",
      "house": "",
      "postcode": "3330-075",
      "city": "COLMEAL GOI",
      "lon": "-8.017149823929424",
      "lat": "40.1323607968507"
    },
    {
      "id": "pt.ine.add.PTCONT.1363723",
      "street": "R CARREIRO",
      "house": "",
      "postcode": "3330-075",
      "city": "COLMEAL GOI",
      "lon": "-8.017629829544124",
      "lat": "40.13298268972144"
    },
    {
      "id": "pt.ine.add.PTCONT.1363818",
      "street": "TV JOÃO MARTINS",
      "house": "",
      "postcode": "3330-075",
      "city": "COLMEAL GOI",
      "lon": "-8.01709132684809",
      "lat": "40.13226167237852"
    },
    {
      "id": "pt.ine.add.PTCONT.1365216",
      "street": "R URBANO DE ALMEIDA",
      "house": "",
      "postcode": "3330-075",
      "city": "COLMEAL GOI",
      "lon": "-8.017571712490987",
      "lat": "40.13265841615957"
    }
  ]
}