{
  "data": {
    "distrito": "Setúbal",
    "concelho": "Setúbal",
    "freguesia": "Gâmbia-Pontes-Alto da Guerra",
    "OBJECTID": 1138,
    "BGRI2021": "15120700422",
    "DT21": "15",
    "DTMN21": "1512",
    "DTMNFR21": "151207",
    "DTMNFRSEC21": "151207004",
    "SECNUM21": "004",
    "SSNUM21": "22",
    "SECSSNUM21": "00422",
    "OBJECTID_1": 171140,
    "DT": "15",
    "CC": "12",
    "fr": "07",
    "SEC": "004",
    "SS": "22"
  },
  "addresses": [
    {
      "id": "pt.ine.add.PTCONT.4680392",
      "street": "HRD SOBRALINHO",
      "house": "",
      "postcode": "2910-852",
      "city": "SETÚBAL",
      "lon": "-8.754638196195437",
      "lat": "38.56266738323583"
    },
    {
      "id": "pt.ine.add.PTCONT.4753867",
      "street": "R LIBERDADE",
      "house": "",
      "postcode": "2910-219",
      "city": "SETÚBAL",
      "lon": "-8.760027643163584",
      "lat": "38.55307181378034"
    },
    {
      "id": "pt.ine.add.PTCONT.4929138",
      "street": "R HERDADE SOBRALINHO",
      "house": "",
      "postcode": "2910-852",
      "city": "SETÚBAL",
      "lon": "-8.7513059478048",
      "lat": "38.56476594778557"
    },
    {
      "id": "pt.ine.add.PTCONT.5087276",
      "street": "MTE SOBRALINHO SN",
      "house": "SN",
      "postcode": "2910-852",
      "city": "SETÚBAL",
      "lon": "-8.755229561237153",
      "lat": "38.56072745511482"
    },
    {
      "id": "pt.ine.add.PTCONT.5097886",
      "street": "HRD SOBRALINHO",
      "house": "",
      "postcode": "2910-217",
      "city": "SETÚBAL",
      "lon": "-8.755033053052857",
      "lat": "38.560557341356905"
    },
    {
      "id": "pt.ine.add.PTCONT.5119664",
      "street": "R LIBERDADE HERDADE DE GAMBIA",
      "house": "",
      "postcode": "2910-219",
      "city": "SETÚBAL",
      "lon": "-8.759695991423593",
      "lat": "38.55319069754014"
    },
    {
      "id": "pt.ine.add.PTCONT.5131932",
      "street": "HRD SOBRALINHO",
      "house": "",
      "postcode": "2910-852",
      "city": "SETÚBAL",
      "lon": "-8.75481662723733",
      "lat": "38.5607386572293"
    }
  ]
}