{
  "data": {
    "distrito": "Porto",
    "concelho": "Trofa",
    "freguesia": "União das freguesias de Bougado (São Martinho e Santiago)",
    "OBJECTID": 341,
    "BGRI2021": "13181001406",
    "DT21": "13",
    "DTMN21": "1318",
    "DTMNFR21": "131810",
    "DTMNFRSEC21": "131810014",
    "SECNUM21": "014",
    "SSNUM21": "06",
    "SECSSNUM21": "01406",
    "OBJECTID_1": 146050,
    "DT": "13",
    "CC": "18",
    "fr": "10",
    "SEC": "014",
    "SS": "06"
  },
  "addresses": [
    {
      "id": "pt.ine.add.PTCONT.3647687",
      "street": "R ANTÓNIO SOUSA REIS",
      "house": "148",
      "postcode": "4785-289",
      "city": "TROFA",
      "lon": "-8.554929010631419",
      "lat": "41.343706899284584"
    },
    {
      "id": "pt.ine.add.PTCONT.3747638",
      "street": "R MOUZINHO ALBUQUERQUE",
      "house": "35",
      "postcode": "4785-335",
      "city": "TROFA",
      "lon": "-8.554831919514218",
      "lat": "41.343473149390945"
    },
    {
      "id": "pt.ine.add.PTCONT.3804055",
      "street": "R CANDIDO DOS REIS",
      "house": "38",
      "postcode": "4785-294",
      "city": "TROFA",
      "lon": "-8.554376519954799",
      "lat": "41.343258719599696"
    },
    {
      "id": "pt.ine.add.PTCONT.3853187",
      "street": "R PADRE ALBERTO PINHEIRO MACHADO",
      "house": "79",
      "postcode": "4785-338",
      "city": "TROFA",
      "lon": "-8.55481776457399",
      "lat": "41.343131046756696"
    },
    {
      "id": "pt.ine.add.PTCONT.3903258",
      "street": "R PADRE ALBERTO PINHEIRO MACHADO",
      "house": "",
      "postcode": "4785-338",
      "city": "TROFA",
      "lon": "-8.554090417576916",
      "lat": "41.343358811180345"
    },
    {
      "id": "pt.ine.add.PTCONT.4323413",
      "street": "R ANTÓNIO SOUSA REIS",
      "house": "182",
      "postcode": "4785-289",
      "city": "TROFA",
      "lon": "-8.554366545363477",
      "lat": "41.343564894342535"
    }
  ]
}