{
  "data": {
    "distrito": "Setúbal",
    "concelho": "Setúbal",
    "freguesia": "União das freguesias de Azeitão (São Lourenço e São Simão)",
    "OBJECTID": 406,
    "BGRI2021": "15120900833",
    "DT21": "15",
    "DTMN21": "1512",
    "DTMNFR21": "151209",
    "DTMNFRSEC21": "151209008",
    "SECNUM21": "008",
    "SSNUM21": "33",
    "SECSSNUM21": "00833",
    "OBJECTID_1": 170026,
    "DT": "15",
    "CC": "12",
    "fr": "09",
    "SEC": "008",
    "SS": "33"
  },
  "addresses": [
    {
      "id": "pt.ine.add.PTCONT.4680427",
      "street": "R TRADICAO",
      "house": "41",
      "postcode": "2925-300",
      "city": "AZEITÃO",
      "lon": "-9.021400460598153",
      "lat": "38.55399270090006"
    },
    {
      "id": "pt.ine.add.PTCONT.4934804",
      "street": "R ESCOLA PRIMARIA DE BREJO CLERIGO",
      "house": "289",
      "postcode": "2925-806",
      "city": "AZEITÃO",
      "lon": "-9.020864829037407",
      "lat": "38.55334817383116"
    },
    {
      "id": "pt.ine.add.PTCONT.5018281",
      "street": "R PINHAS",
      "house": "2",
      "postcode": "2925-210",
      "city": "AZEITÃO",
      "lon": "-9.021128100346692",
      "lat": "38.55330113600933"
    },
    {
      "id": "pt.ine.add.PTCONT.5047549",
      "street": "TV S MARTINHO",
      "house": "2",
      "postcode": "2925-262",
      "city": "AZEITÃO",
      "lon": "-9.020896471507767",
      "lat": "38.553122728882386"
    },
    {
      "id": "pt.ine.add.PTCONT.5062317",
      "street": "R ESCOLA PRIMARIA DE BREJO CLERIGO",
      "house": "291",
      "postcode": "2925-806",
      "city": "AZEITÃO",
      "lon": "-9.021006576500362",
      "lat": "38.553680402152686"
    }
  ]
}