{
  "data": {
    "distrito": "Lisboa",
    "concelho": "Torres Vedras",
    "freguesia": "Turcifal",
    "OBJECTID": 1566,
    "BGRI2021": "11131700346",
    "DT21": "11",
    "DTMN21": "1113",
    "DTMNFR21": "111317",
    "DTMNFRSEC21": "111317003",
    "SECNUM21": "003",
    "SSNUM21": "46",
    "SECSSNUM21": "00346",
    "OBJECTID_1": 116477,
    "DT": "11",
    "CC": "13",
    "fr": "17",
    "SEC": "003",
    "SS": "46"
  },
  "addresses": [
    {
      "id": "pt.ine.add.PTCONT.2374856",
      "street": "CC CASTELO",
      "house": "18",
      "postcode": "2565-781",
      "city": "TURCIFAL",
      "lon": "-9.261821012887625",
      "lat": "39.05419856051068"
    },
    {
      "id": "pt.ine.add.PTCONT.2510226",
      "street": "R POÇO FECHADO",
      "house": "4",
      "postcode": "2565-781",
      "city": "TURCIFAL",
      "lon": "-9.258580608811199",
      "lat": "39.053833557604506"
    },
    {
      "id": "pt.ine.add.PTCONT.2679794",
      "street": "R ANTÓNIO PATROCINIO DIAS",
      "house": "",
      "postcode": "2565-781",
      "city": "TURCIFAL",
      "lon": "-9.259437129582214",
      "lat": "39.05539255922868"
    },
    {
      "id": "pt.ine.add.PTCONT.2785002",
      "street": "CASA DA ENCOSTA",
      "house": "",
      "postcode": "2565-781",
      "city": "TURCIFAL",
      "lon": "-9.257206022520466",
      "lat": "39.05602658391414"
    },
    {
      "id": "pt.ine.add.PTCONT.3191204",
      "street": "CC CASTELO",
      "house": "24",
      "postcode": "2565-781",
      "city": "TURCIFAL",
      "lon": "-9.261565531608147",
      "lat": "39.054840551610354"
    },
    {
      "id": "pt.ine.add.PTCONT.3254664",
      "street": "QTA DO OUTEIRINHO",
      "house": "",
      "postcode": "2565-781",
      "city": "TURCIFAL",
      "lon": "-9.257260080038334",
      "lat": "39.05652146455404"
    }
  ]
}