{
  "data": {
    "distrito": "Beja",
    "concelho": "Almodôvar",
    "freguesia": "Santa Cruz",
    "OBJECTID": 317,
    "BGRI2021": "02020500164",
    "DT21": "02",
    "DTMN21": "0202",
    "DTMNFR21": "020205",
    "DTMNFRSEC21": "020205001",
    "SECNUM21": "001",
    "SSNUM21": "64",
    "SECSSNUM21": "00164",
    "OBJECTID_1": 13135,
    "DT": "02",
    "CC": "02",
    "fr": "05",
    "SEC": "001",
    "SS": "64"
  },
  "addresses": [
    {
      "id": "pt.ine.add.PTCONT.352645",
      "street": "R SANTO ANTÓNIO",
      "house": "",
      "postcode": "7700-252",
      "city": "SANTA CRUZ ADV",
      "lon": "-7.918395090852518",
      "lat": "37.44121347024684"
    },
    {
      "id": "pt.ine.add.PTCONT.352646",
      "street": "R HORTINHA",
      "house": "",
      "postcode": "7700-252",
      "city": "SANTA CRUZ ADV",
      "lon": "-7.9177188710436015",
      "lat": "37.44059054060444"
    },
    {
      "id": "pt.ine.add.PTCONT.353948",
      "street": "R HORTINHA CAIXA POSTAL 361",
      "house": "",
      "postcode": "7700-252",
      "city": "SANTA CRUZ ADV",
      "lon": "-7.91766224220765",
      "lat": "37.44063548807325"
    },
    {
      "id": "pt.ine.add.PTCONT.361299",
      "street": "R SANTO ANTÓNIO",
      "house": "",
      "postcode": "7700-252",
      "city": "SANTA CRUZ ADV",
      "lon": "-7.91845102476921",
      "lat": "37.44141179479684"
    },
    {
      "id": "pt.ine.add.PTCONT.369594",
      "street": "R VASCAO CAIXA POSTAL 312",
      "house": "",
      "postcode": "7700-252",
      "city": "SANTA CRUZ ADV",
      "lon": "-7.918034727711372",
      "lat": "37.44078032860313"
    },
    {
      "id": "pt.ine.add.PTCONT.378005",
      "street": "R CERCA DO BADO",
      "house": "",
      "postcode": "7700-252",
      "city": "SANTA CRUZ ADV",
      "lon": "-7.917558423483871",
      "lat": "37.44137412983187"
    },
    {
      "id": "pt.ine.add.PTCONT.391555",
      "street": "R LAGES",
      "house": "",
      "postcode": "7700-252",
      "city": "SANTA CRUZ ADV",
      "lon": "-7.917593202225822",
      "lat": "37.4410678486841"
    },
    {
      "id": "pt.ine.add.PTCONT.395186",
      "street": "R ALTO DO PATINHO CAIXA POSTAL 339",
      "house": "",
      "postcode": "7700-252",
      "city": "SANTA CRUZ ADV",
      "lon": "-7.91793266684026",
      "lat": "37.44090628473676"
    },
    {
      "id": "pt.ine.add.PTCONT.397316",
      "street": "MTE NOJO ALENTEJANO",
      "house": "",
      "postcode": "7700-252",
      "city": "SANTA CRUZ ADV",
      "lon": "-7.91933829550008",
      "lat": "37.443323551007595"
    },
    {
      "id": "pt.ine.add.PTCONT.398109",
      "street": "R LAGES",
      "house": "",
      "postcode": "7700-252",
      "city": "SANTA CRUZ ADV",
      "lon": "-7.917739921559486",
      "lat": "37.441131187056605"
    },
    {
      "id": "pt.ine.add.PTCONT.402373",
      "street": "R ALTO DO PATINHO",
      "house": "",
      "postcode": "7700-252",
      "city": "SANTA CRUZ ADV",
      "lon": "-7.917943296064862",
      "lat": "37.441140567588356"
    },
    {
      "id": "pt.ine.add.PTCONT.402954",
      "street": "R QUINTAIS",
      "house": "",
      "postcode": "7700-252",
      "city": "SANTA CRUZ ADV",
      "lon": "-7.918236813148366",
      "lat": "37.4412402130207"
    },
    {
      "id": "pt.ine.add.PTCONT.405545",
      "street": "R VASCAO CAIXA POSTAL 301",
      "house": "",
      "postcode": "7700-252",
      "city": "SANTA CRUZ ADV",
      "lon": "-7.917910815136504",
      "lat": "37.44064495103746"
    },
    {
      "id": "pt.ine.add.PTCONT.407820",
      "street": "TV FORNO CAIXA POSTAL 342",
      "house": "",
      "postcode": "7700-252",
      "city": "SANTA CRUZ ADV",
      "lon": "-7.917515032766673",
      "lat": "37.44074334127472"
    },
    {
      "id": "pt.ine.add.PTCONT.413460",
      "street": "R SANTO ANTÓNIO",
      "house": "",
      "postcode": "7700-252",
      "city": "SANTA CRUZ ADV",
      "lon": "-7.918552622402191",
      "lat": "37.44144801980184"
    },
    {
      "id": "pt.ine.add.PTCONT.413462",
      "street": "R JOGO DA BOLA",
      "house": "",
      "postcode": "7700-252",
      "city": "SANTA CRUZ ADV",
      "lon": "-7.918238127069564",
      "lat": "37.4407806985371"
    },
    {
      "id": "pt.ine.add.PTCONT.413463",
      "street": "R HORTINHA",
      "house": "",
      "postcode": "7700-252",
      "city": "SANTA CRUZ ADV",
      "lon": "-7.917594313355059",
      "lat": "37.44068041491125"
    },
    {
      "id": "pt.ine.add.PTCONT.413807",
      "street": "R CERCA BARDO",
      "house": "",
      "postcode": "7700-250",
      "city": "SANTA CRUZ ADV",
      "lon": "-7.91793171224684",
      "lat": "37.44123965797935"
    },
    {
      "id": "pt.ine.add.PTCONT.415351",
      "street": "",
      "house": "",
      "postcode": "7700-252",
      "city": "SANTA CRUZ ADV",
      "lon": "-7.917899822448016",
      "lat": "37.444483247393535"
    },
    {
      "id": "pt.ine.add.PTCONT.416796",
      "street": "R JOGO DA BOLA CAIXA POSTA 313",
      "house": "",
      "postcode": "7700-252",
      "city": "SANTA CRUZ ADV",
      "lon": "-7.918294343574214",
      "lat": "37.44087991220485"
    },
    {
      "id": "pt.ine.add.PTCONT.417014",
      "street": "R DOS QUINTAIS",
      "house": "",
      "postcode": "7700-252",
      "city": "SANTA CRUZ ADV",
      "lon": "-7.918406519597499",
      "lat": "37.44116844033497"
    },
    {
      "id": "pt.ine.add.PTCONT.425581",
      "street": "R STO ANTÓNIO",
      "house": "",
      "postcode": "7700-252",
      "city": "SANTA CRUZ ADV",
      "lon": "-7.918631568559683",
      "lat": "37.44150222388686"
    },
    {
      "id": "pt.ine.add.PTCONT.428790",
      "street": "",
      "house": "",
      "postcode": "7700-252",
      "city": "SANTA CRUZ ADV",
      "lon": "-7.917775413430439",
      "lat": "37.44451906131884"
    },
    {
      "id": "pt.ine.add.PTCONT.436536",
      "street": "R SANTO ANTÓNIO",
      "house": "",
      "postcode": "7700-252",
      "city": "SANTA CRUZ ADV",
      "lon": "-7.918372233321084",
      "lat": "37.44130353006609"
    },
    {
      "id": "pt.ine.add.PTCONT.436537",
      "street": "R SANTO ANTÓNIO",
      "house": "",
      "postcode": "7700-252",
      "city": "SANTA CRUZ ADV",
      "lon": "-7.9184286305749625",
      "lat": "37.44133967305072"
    },
    {
      "id": "pt.ine.add.PTCONT.441470",
      "street": "R CERCA DO BADO CAIXA POSTAL 320",
      "house": "",
      "postcode": "7700-252",
      "city": "SANTA CRUZ ADV",
      "lon": "-7.917963703413363",
      "lat": "37.44190646611953"
    },
    {
      "id": "pt.ine.add.PTCONT.443063",
      "street": "R QUINTAIS",
      "house": "",
      "postcode": "7700-252",
      "city": "SANTA CRUZ ADV",
      "lon": "-7.918293390586216",
      "lat": "37.44121328545686"
    },
    {
      "id": "pt.ine.add.PTCONT.445378",
      "street": "R ALTO DO PATINHO",
      "house": "",
      "postcode": "7700-252",
      "city": "SANTA CRUZ ADV",
      "lon": "-7.917932125045923",
      "lat": "37.44109549657946"
    },
    {
      "id": "pt.ine.add.PTCONT.455192",
      "street": "R TRAVESSA DO FORNO",
      "house": "",
      "postcode": "7700-252",
      "city": "SANTA CRUZ ADV",
      "lon": "-7.917729163850146",
      "lat": "37.44094195462708"
    }
  ]
}