{
  "data": {
    "distrito": "Vila Real",
    "concelho": "Chaves",
    "freguesia": "Santa Maria Maior",
    "OBJECTID": 156,
    "BGRI2021": "17035000801",
    "DT21": "17",
    "DTMN21": "1703",
    "DTMNFR21": "170350",
    "DTMNFRSEC21": "170350008",
    "SECNUM21": "008",
    "SSNUM21": "01",
    "SECSSNUM21": "00801",
    "OBJECTID_1": 180603,
    "DT": "17",
    "CC": "03",
    "fr": "50",
    "SEC": "008",
    "SS": "01"
  },
  "addresses": [
    {
      "id": "pt.ine.add.PTCONT.5288098",
      "street": "TV VISC ROSARIO III",
      "house": "III",
      "postcode": "5400-567",
      "city": "CHAVES",
      "lon": "-7.4756671782821495",
      "lat": "41.74802107746459"
    },
    {
      "id": "pt.ine.add.PTCONT.5288099",
      "street": "TV VISC ROSARIO",
      "house": "BL 3",
      "postcode": "5400-567",
      "city": "CHAVES",
      "lon": "-7.4756671782821495",
      "lat": "41.74802107746459"
    },
    {
      "id": "pt.ine.add.PTCONT.5288100",
      "street": "TV VISC ROSARIO",
      "house": "BL 3",
      "postcode": "5400-567",
      "city": "CHAVES",
      "lon": "-7.4756671782821495",
      "lat": "41.74802107746459"
    },
    {
      "id": "pt.ine.add.PTCONT.5288101",
      "street": "TV VISC ROSARIO",
      "house": "BL 3",
      "postcode": "5400-567",
      "city": "CHAVES",
      "lon": "-7.4756671782821495",
      "lat": "41.74802107746459"
    },
    {
      "id": "pt.ine.add.PTCONT.5288102",
      "street": "TV VISC ROSARIO B",
      "house": "B 3",
      "postcode": "5400-567",
      "city": "CHAVES",
      "lon": "-7.4756671782821495",
      "lat": "41.74802107746459"
    },
    {
      "id": "pt.ine.add.PTCONT.5288103",
      "street": "TV VISC ROSARIO",
      "house": "BL 3",
      "postcode": "5400-567",
      "city": "CHAVES",
      "lon": "-7.4756671782821495",
      "lat": "41.74802107746459"
    },
    {
      "id": "pt.ine.add.PTCONT.5288130",
      "street": "R DO CRUZEIRO",
      "house": "",
      "postcode": "5400-213",
      "city": "CHAVES",
      "lon": "-7.475166124063165",
      "lat": "41.74764006683565"
    },
    {
      "id": "pt.ine.add.PTCONT.5288131",
      "street": "R DO CRUZEIRO",
      "house": "",
      "postcode": "5400-213",
      "city": "CHAVES",
      "lon": "-7.475166124063165",
      "lat": "41.74764006683565"
    },
    {
      "id": "pt.ine.add.PTCONT.5288132",
      "street": "R DO CRUZEIRO",
      "house": "",
      "postcode": "5400-213",
      "city": "CHAVES",
      "lon": "-7.475166124063165",
      "lat": "41.74764006683565"
    },
    {
      "id": "pt.ine.add.PTCONT.5288133",
      "street": "R DO CRUZEIRO",
      "house": "",
      "postcode": "5400-213",
      "city": "CHAVES",
      "lon": "-7.475166124063165",
      "lat": "41.74764006683565"
    },
    {
      "id": "pt.ine.add.PTCONT.5288134",
      "street": "R DO CRUZEIRO",
      "house": "",
      "postcode": "5400-213",
      "city": "CHAVES",
      "lon": "-7.475166124063165",
      "lat": "41.74764006683565"
    },
    {
      "id": "pt.ine.add.PTCONT.5288135",
      "street": "R DO CRUZEIRO",
      "house": "",
      "postcode": "5400-213",
      "city": "CHAVES",
      "lon": "-7.475166124063165",
      "lat": "41.74764006683565"
    },
    {
      "id": "pt.ine.add.PTCONT.5292942",
      "street": "R CAP MAIA MAGALHÃES",
      "house": "14",
      "postcode": "5400-367",
      "city": "CHAVES",
      "lon": "-7.475684894894795",
      "lat": "41.74746296843581"
    },
    {
      "id": "pt.ine.add.PTCONT.5295332",
      "street": "R DO CRUZEIRO",
      "house": "",
      "postcode": "5400-213",
      "city": "CHAVES",
      "lon": "-7.475200626585754",
      "lat": "41.747793322092654"
    },
    {
      "id": "pt.ine.add.PTCONT.5295333",
      "street": "R DO CRUZEIRO",
      "house": "",
      "postcode": "5400-213",
      "city": "CHAVES",
      "lon": "-7.475200626585754",
      "lat": "41.747793322092654"
    },
    {
      "id": "pt.ine.add.PTCONT.5295334",
      "street": "R DO CRUZEIRO",
      "house": "",
      "postcode": "5400-213",
      "city": "CHAVES",
      "lon": "-7.475200626585754",
      "lat": "41.747793322092654"
    },
    {
      "id": "pt.ine.add.PTCONT.5295335",
      "street": "R DO CRUZEIRO",
      "house": "",
      "postcode": "5400-213",
      "city": "CHAVES",
      "lon": "-7.475200626585754",
      "lat": "41.747793322092654"
    },
    {
      "id": "pt.ine.add.PTCONT.5295336",
      "street": "R DO CRUZEIRO",
      "house": "",
      "postcode": "5400-213",
      "city": "CHAVES",
      "lon": "-7.475200626585754",
      "lat": "41.747793322092654"
    },
    {
      "id": "pt.ine.add.PTCONT.5295337",
      "street": "R DO CRUZEIRO",
      "house": "",
      "postcode": "5400-213",
      "city": "CHAVES",
      "lon": "-7.475200626585754",
      "lat": "41.747793322092654"
    },
    {
      "id": "pt.ine.add.PTCONT.5316212",
      "street": "R CAP MAIA MAGALHÃES",
      "house": "12",
      "postcode": "5400-367",
      "city": "CHAVES",
      "lon": "-7.475541829009922",
      "lat": "41.74734510562915"
    },
    {
      "id": "pt.ine.add.PTCONT.5351079",
      "street": "R DO CRUZEIRO",
      "house": "",
      "postcode": "5400-213",
      "city": "CHAVES",
      "lon": "-7.475247151040872",
      "lat": "41.7479466461692"
    },
    {
      "id": "pt.ine.add.PTCONT.5351080",
      "street": "R DO CRUZEIRO",
      "house": "",
      "postcode": "5400-213",
      "city": "CHAVES",
      "lon": "-7.475247151040872",
      "lat": "41.7479466461692"
    },
    {
      "id": "pt.ine.add.PTCONT.5351081",
      "street": "R DO CRUZEIRO",
      "house": "",
      "postcode": "5400-213",
      "city": "CHAVES",
      "lon": "-7.475247151040872",
      "lat": "41.7479466461692"
    },
    {
      "id": "pt.ine.add.PTCONT.5351082",
      "street": "R DO CRUZEIRO",
      "house": "",
      "postcode": "5400-213",
      "city": "CHAVES",
      "lon": "-7.475247151040872",
      "lat": "41.7479466461692"
    },
    {
      "id": "pt.ine.add.PTCONT.5351083",
      "street": "R DO CRUZEIRO",
      "house": "",
      "postcode": "5400-213",
      "city": "CHAVES",
      "lon": "-7.475247151040872",
      "lat": "41.7479466461692"
    },
    {
      "id": "pt.ine.add.PTCONT.5351434",
      "street": "R DO CRUZEIRO",
      "house": "",
      "postcode": "5400-213",
      "city": "CHAVES",
      "lon": "-7.475247151040872",
      "lat": "41.7479466461692"
    },
    {
      "id": "pt.ine.add.PTCONT.5361775",
      "street": "TV VISC ROSARIO",
      "house": "BL 2",
      "postcode": "5400-567",
      "city": "CHAVES",
      "lon": "-7.475473910860805",
      "lat": "41.74811000536214"
    },
    {
      "id": "pt.ine.add.PTCONT.5361776",
      "street": "TV VISC ROSARIO",
      "house": "BL 2",
      "postcode": "5400-567",
      "city": "CHAVES",
      "lon": "-7.475473910860805",
      "lat": "41.74811000536214"
    },
    {
      "id": "pt.ine.add.PTCONT.5361798",
      "street": "TV VISC ROSARIO",
      "house": "BL 2",
      "postcode": "5400-567",
      "city": "CHAVES",
      "lon": "-7.475473910860805",
      "lat": "41.74811000536214"
    },
    {
      "id": "pt.ine.add.PTCONT.5361799",
      "street": "TV VISC ROSARIO",
      "house": "BL 2",
      "postcode": "5400-567",
      "city": "CHAVES",
      "lon": "-7.475473910860805",
      "lat": "41.74811000536214"
    },
    {
      "id": "pt.ine.add.PTCONT.5361800",
      "street": "TV VISC ROSARIO",
      "house": "BL 2",
      "postcode": "5400-567",
      "city": "CHAVES",
      "lon": "-7.475473910860805",
      "lat": "41.74811000536214"
    },
    {
      "id": "pt.ine.add.PTCONT.5362146",
      "street": "TV VISC ROSARIO",
      "house": "BL 2",
      "postcode": "5400-567",
      "city": "CHAVES",
      "lon": "-7.475473910860805",
      "lat": "41.74811000536214"
    },
    {
      "id": "pt.ine.add.PTCONT.5372642",
      "street": "R CAP MAIA MAGALHÃES",
      "house": "10",
      "postcode": "5400-367",
      "city": "CHAVES",
      "lon": "-7.4754584124359535",
      "lat": "41.747272601048536"
    },
    {
      "id": "pt.ine.add.PTCONT.5377876",
      "street": "TV VISC ROSARIO",
      "house": "BL 4",
      "postcode": "5400-567",
      "city": "CHAVES",
      "lon": "-7.475848423400902",
      "lat": "41.74793208046815"
    },
    {
      "id": "pt.ine.add.PTCONT.5377877",
      "street": "TV VISC ROSARIO",
      "house": "BL 4",
      "postcode": "5400-567",
      "city": "CHAVES",
      "lon": "-7.475848423400902",
      "lat": "41.74793208046815"
    },
    {
      "id": "pt.ine.add.PTCONT.5377878",
      "street": "TV VISC ROSARIO",
      "house": "BL 4",
      "postcode": "5400-567",
      "city": "CHAVES",
      "lon": "-7.475848423400902",
      "lat": "41.74793208046815"
    },
    {
      "id": "pt.ine.add.PTCONT.5377879",
      "street": "TV VISC ROSARIO",
      "house": "BL 4",
      "postcode": "5400-567",
      "city": "CHAVES",
      "lon": "-7.475848423400902",
      "lat": "41.74793208046815"
    },
    {
      "id": "pt.ine.add.PTCONT.5377880",
      "street": "TV VISC ROSARIO",
      "house": "BL 4",
      "postcode": "5400-567",
      "city": "CHAVES",
      "lon": "-7.475848423400902",
      "lat": "41.74793208046815"
    },
    {
      "id": "pt.ine.add.PTCONT.5377881",
      "street": "TV VISC ROSARIO",
      "house": "BL 4",
      "postcode": "5400-567",
      "city": "CHAVES",
      "lon": "-7.475848423400902",
      "lat": "41.74793208046815"
    },
    {
      "id": "pt.ine.add.PTCONT.5387530",
      "street": "R DO CRUZEIRO",
      "house": "",
      "postcode": "5400-213",
      "city": "CHAVES",
      "lon": "-7.4752037518223755",
      "lat": "41.747487224604455"
    },
    {
      "id": "pt.ine.add.PTCONT.5387531",
      "street": "R DO CRUZEIRO",
      "house": "",
      "postcode": "5400-213",
      "city": "CHAVES",
      "lon": "-7.4752037518223755",
      "lat": "41.747487224604455"
    },
    {
      "id": "pt.ine.add.PTCONT.5387532",
      "street": "R DO CRUZEIRO",
      "house": "",
      "postcode": "5400-213",
      "city": "CHAVES",
      "lon": "-7.4752037518223755",
      "lat": "41.747487224604455"
    },
    {
      "id": "pt.ine.add.PTCONT.5387560",
      "street": "R DO CRUZEIRO",
      "house": "",
      "postcode": "5400-213",
      "city": "CHAVES",
      "lon": "-7.4752037518223755",
      "lat": "41.747487224604455"
    },
    {
      "id": "pt.ine.add.PTCONT.5387561",
      "street": "R DO CRUZEIRO",
      "house": "",
      "postcode": "5400-213",
      "city": "CHAVES",
      "lon": "-7.4752037518223755",
      "lat": "41.747487224604455"
    },
    {
      "id": "pt.ine.add.PTCONT.5387562",
      "street": "R DO CRUZEIRO",
      "house": "",
      "postcode": "5400-213",
      "city": "CHAVES",
      "lon": "-7.4752037518223755",
      "lat": "41.747487224604455"
    },
    {
      "id": "pt.ine.add.PTCONT.5389954",
      "street": "R DO CRUZEIRO",
      "house": "",
      "postcode": "5400-213",
      "city": "CHAVES",
      "lon": "-7.475503742757648",
      "lat": "41.74754296232142"
    },
    {
      "id": "pt.ine.add.PTCONT.5389955",
      "street": "R DO CRUZEIRO",
      "house": "",
      "postcode": "5400-213",
      "city": "CHAVES",
      "lon": "-7.475503742757648",
      "lat": "41.74754296232142"
    },
    {
      "id": "pt.ine.add.PTCONT.5389956",
      "street": "R DO CRUZEIRO",
      "house": "",
      "postcode": "5400-213",
      "city": "CHAVES",
      "lon": "-7.475503742757648",
      "lat": "41.74754296232142"
    },
    {
      "id": "pt.ine.add.PTCONT.5389957",
      "street": "R DO CRUZEIRO",
      "house": "",
      "postcode": "5400-213",
      "city": "CHAVES",
      "lon": "-7.475503742757648",
      "lat": "41.74754296232142"
    },
    {
      "id": "pt.ine.add.PTCONT.5389958",
      "street": "R DO CRUZEIRO",
      "house": "",
      "postcode": "5400-213",
      "city": "CHAVES",
      "lon": "-7.475503742757648",
      "lat": "41.74754296232142"
    },
    {
      "id": "pt.ine.add.PTCONT.5389959",
      "street": "R DO CRUZEIRO",
      "house": "",
      "postcode": "5400-213",
      "city": "CHAVES",
      "lon": "-7.475503742757648",
      "lat": "41.74754296232142"
    },
    {
      "id": "pt.ine.add.PTCONT.5389960",
      "street": "R DO CRUZEIRO",
      "house": "",
      "postcode": "5400-213",
      "city": "CHAVES",
      "lon": "-7.475503742757648",
      "lat": "41.74754296232142"
    },
    {
      "id": "pt.ine.add.PTCONT.5390055",
      "street": "R DO CRUZEIRO",
      "house": "",
      "postcode": "5400-213",
      "city": "CHAVES",
      "lon": "-7.475503742757648",
      "lat": "41.74754296232142"
    },
    {
      "id": "pt.ine.add.PTCONT.5391915",
      "street": "TV VISCONDESSA DO ROSÁRIO",
      "house": "",
      "postcode": "5400-567",
      "city": "CHAVES",
      "lon": "-7.476017646265555",
      "lat": "41.747843014430046"
    },
    {
      "id": "pt.ine.add.PTCONT.5391916",
      "street": "TV VISCONDESSA DO ROSÁRIO",
      "house": "",
      "postcode": "5400-567",
      "city": "CHAVES",
      "lon": "-7.476017646265555",
      "lat": "41.747843014430046"
    },
    {
      "id": "pt.ine.add.PTCONT.5391917",
      "street": "TV VISCONDESSA DO ROSÁRIO",
      "house": "",
      "postcode": "5400-567",
      "city": "CHAVES",
      "lon": "-7.476017646265555",
      "lat": "41.747843014430046"
    },
    {
      "id": "pt.ine.add.PTCONT.5391918",
      "street": "TV VISCONDESSA DO ROSÁRIO",
      "house": "",
      "postcode": "5400-567",
      "city": "CHAVES",
      "lon": "-7.476017646265555",
      "lat": "41.747843014430046"
    },
    {
      "id": "pt.ine.add.PTCONT.5391989",
      "street": "TV VISCONDESSA DO ROSÁRIO",
      "house": "",
      "postcode": "5400-567",
      "city": "CHAVES",
      "lon": "-7.476017646265555",
      "lat": "41.747843014430046"
    },
    {
      "id": "pt.ine.add.PTCONT.5391990",
      "street": "TV VISCONDESSA DO ROSÁRIO",
      "house": "",
      "postcode": "5400-567",
      "city": "CHAVES",
      "lon": "-7.476017646265555",
      "lat": "41.747843014430046"
    },
    {
      "id": "pt.ine.add.PTCONT.5391991",
      "street": "TV VISCONDESSA DO ROSÁRIO",
      "house": "",
      "postcode": "5400-567",
      "city": "CHAVES",
      "lon": "-7.476017646265555",
      "lat": "41.747843014430046"
    },
    {
      "id": "pt.ine.add.PTCONT.5391992",
      "street": "TV VISCONDESSA DO ROSÁRIO",
      "house": "",
      "postcode": "5400-567",
      "city": "CHAVES",
      "lon": "-7.476017646265555",
      "lat": "41.747843014430046"
    },
    {
      "id": "pt.ine.add.PTCONT.5392240",
      "street": "TV VISCONDESSA DO ROSÁRIO",
      "house": "",
      "postcode": "5400-567",
      "city": "CHAVES",
      "lon": "-7.476017646265555",
      "lat": "41.747843014430046"
    },
    {
      "id": "pt.ine.add.PTCONT.5392986",
      "street": "TV VISC ROSARIO",
      "house": "1",
      "postcode": "5400-567",
      "city": "CHAVES",
      "lon": "-7.475317719316418",
      "lat": "41.74810010787684"
    },
    {
      "id": "pt.ine.add.PTCONT.5392987",
      "street": "TV VISC ROSARIO",
      "house": "BL 1",
      "postcode": "5400-567",
      "city": "CHAVES",
      "lon": "-7.475317719316418",
      "lat": "41.74810010787684"
    },
    {
      "id": "pt.ine.add.PTCONT.5392988",
      "street": "TV VISC ROSARIO",
      "house": "BL 1",
      "postcode": "5400-567",
      "city": "CHAVES",
      "lon": "-7.475317719316418",
      "lat": "41.74810010787684"
    },
    {
      "id": "pt.ine.add.PTCONT.5392989",
      "street": "TV VISC ROSARIO",
      "house": "BL 1",
      "postcode": "5400-567",
      "city": "CHAVES",
      "lon": "-7.475317719316418",
      "lat": "41.74810010787684"
    },
    {
      "id": "pt.ine.add.PTCONT.5392990",
      "street": "TV VISC ROSARIO",
      "house": "BL 1",
      "postcode": "5400-567",
      "city": "CHAVES",
      "lon": "-7.475317719316418",
      "lat": "41.74810010787684"
    },
    {
      "id": "pt.ine.add.PTCONT.5392991",
      "street": "TV VISC ROSARIO",
      "house": "BL 1",
      "postcode": "5400-567",
      "city": "CHAVES",
      "lon": "-7.475317719316418",
      "lat": "41.74810010787684"
    },
    {
      "id": "pt.ine.add.PTCONT.5392992",
      "street": "TV VISC ROSARIO",
      "house": "BL 1",
      "postcode": "5400-567",
      "city": "CHAVES",
      "lon": "-7.475317719316418",
      "lat": "41.74810010787684"
    },
    {
      "id": "pt.ine.add.PTCONT.5392993",
      "street": "TV VISC ROSARIO",
      "house": "BL 1",
      "postcode": "5400-567",
      "city": "CHAVES",
      "lon": "-7.475317719316418",
      "lat": "41.74810010787684"
    },
    {
      "id": "pt.ine.add.PTCONT.5392994",
      "street": "TV VISC ROSARIO",
      "house": "BL 1",
      "postcode": "5400-567",
      "city": "CHAVES",
      "lon": "-7.475317719316418",
      "lat": "41.74810010787684"
    },
    {
      "id": "pt.ine.add.PTCONT.5392995",
      "street": "TV VISC ROSARIO C",
      "house": "C",
      "postcode": "5400-567",
      "city": "CHAVES",
      "lon": "-7.475317719316418",
      "lat": "41.74810010787684"
    },
    {
      "id": "pt.ine.add.PTCONT.5392996",
      "street": "TV VISC ROSARIO",
      "house": "BL 1",
      "postcode": "5400-567",
      "city": "CHAVES",
      "lon": "-7.475317719316418",
      "lat": "41.74810010787684"
    },
    {
      "id": "pt.ine.add.PTCONT.5393375",
      "street": "TV VISC ROSARIO",
      "house": "BL 1",
      "postcode": "5400-567",
      "city": "CHAVES",
      "lon": "-7.475317719316418",
      "lat": "41.74810010787684"
    },
    {
      "id": "pt.ine.add.PTCONT.5398205",
      "street": "R DO CRUZEIRO",
      "house": "",
      "postcode": "5400-213",
      "city": "CHAVES",
      "lon": "-7.475193476601817",
      "lat": "41.747316101282266"
    },
    {
      "id": "pt.ine.add.PTCONT.5398206",
      "street": "R DO CRUZEIRO",
      "house": "",
      "postcode": "5400-213",
      "city": "CHAVES",
      "lon": "-7.475193476601817",
      "lat": "41.747316101282266"
    },
    {
      "id": "pt.ine.add.PTCONT.5398207",
      "street": "R DO CRUZEIRO",
      "house": "",
      "postcode": "5400-213",
      "city": "CHAVES",
      "lon": "-7.475193476601817",
      "lat": "41.747316101282266"
    },
    {
      "id": "pt.ine.add.PTCONT.5398208",
      "street": "R DO CRUZEIRO",
      "house": "",
      "postcode": "5400-213",
      "city": "CHAVES",
      "lon": "-7.475193476601817",
      "lat": "41.747316101282266"
    },
    {
      "id": "pt.ine.add.PTCONT.5398209",
      "street": "R DO CRUZEIRO",
      "house": "",
      "postcode": "5400-213",
      "city": "CHAVES",
      "lon": "-7.475193476601817",
      "lat": "41.747316101282266"
    },
    {
      "id": "pt.ine.add.PTCONT.5398210",
      "street": "R DO CRUZEIRO",
      "house": "",
      "postcode": "5400-213",
      "city": "CHAVES",
      "lon": "-7.475193476601817",
      "lat": "41.747316101282266"
    },
    {
      "id": "pt.ine.add.PTCONT.5399282",
      "street": "R DO CRUZEIRO",
      "house": "",
      "postcode": "5400-213",
      "city": "CHAVES",
      "lon": "-7.475550267762498",
      "lat": "41.747696286285745"
    },
    {
      "id": "pt.ine.add.PTCONT.5399283",
      "street": "R DO CRUZEIRO",
      "house": "",
      "postcode": "5400-213",
      "city": "CHAVES",
      "lon": "-7.475550267762498",
      "lat": "41.747696286285745"
    },
    {
      "id": "pt.ine.add.PTCONT.5399299",
      "street": "R DO CRUZEIRO",
      "house": "",
      "postcode": "5400-213",
      "city": "CHAVES",
      "lon": "-7.475550267762498",
      "lat": "41.747696286285745"
    },
    {
      "id": "pt.ine.add.PTCONT.5399300",
      "street": "R DO CRUZEIRO",
      "house": "",
      "postcode": "5400-213",
      "city": "CHAVES",
      "lon": "-7.475550267762498",
      "lat": "41.747696286285745"
    },
    {
      "id": "pt.ine.add.PTCONT.5399663",
      "street": "R DO CRUZEIRO",
      "house": "",
      "postcode": "5400-213",
      "city": "CHAVES",
      "lon": "-7.475550267762498",
      "lat": "41.747696286285745"
    },
    {
      "id": "pt.ine.add.PTCONT.5399710",
      "street": "R DO CRUZEIRO",
      "house": "",
      "postcode": "5400-213",
      "city": "CHAVES",
      "lon": "-7.475550267762498",
      "lat": "41.747696286285745"
    }
  ]
}