{
  "data": {
    "distrito": "Lisboa",
    "concelho": "Sintra",
    "freguesia": "União das freguesias de São João das Lampas e Terrugem",
    "OBJECTID": 3198,
    "BGRI2021": "11112700308",
    "DT21": "11",
    "DTMN21": "1111",
    "DTMNFR21": "111127",
    "DTMNFRSEC21": "111127003",
    "SECNUM21": "003",
    "SSNUM21": "08",
    "SECSSNUM21": "00308",
    "OBJECTID_1": 111241,
    "DT": "11",
    "CC": "11",
    "fr": "27",
    "SEC": "003",
    "SS": "08"
  },
  "addresses": [
    {
      "id": "pt.ine.add.PTCONT.2291213",
      "street": "TV MARQUES",
      "house": "2",
      "postcode": "2705-836",
      "city": "TERRUGEM SNT",
      "lon": "-9.353887942691088",
      "lat": "38.86845766627708"
    },
    {
      "id": "pt.ine.add.PTCONT.2309317",
      "street": "AV 19 DE MAIO",
      "house": "54",
      "postcode": "2715-773",
      "city": "TERRUGEM SNT",
      "lon": "-9.354164302829883",
      "lat": "38.8691213329992"
    },
    {
      "id": "pt.ine.add.PTCONT.2336209",
      "street": "R 25 DE ABRIL",
      "house": "37",
      "postcode": "2705-836",
      "city": "TERRUGEM SNT",
      "lon": "-9.353943419932158",
      "lat": "38.86900654480259"
    },
    {
      "id": "pt.ine.add.PTCONT.2400727",
      "street": "R 25 DE ABRIL",
      "house": "35",
      "postcode": "2705-836",
      "city": "TERRUGEM SNT",
      "lon": "-9.353918069081695",
      "lat": "38.8688716970939"
    },
    {
      "id": "pt.ine.add.PTCONT.2411637",
      "street": "AV 25 DE ABRIL",
      "house": "",
      "postcode": "2705-836",
      "city": "TERRUGEM SNT",
      "lon": "-9.35396877088502",
      "lat": "38.86914139250118"
    },
    {
      "id": "pt.ine.add.PTCONT.2605085",
      "street": "AV 19 DE MAIO",
      "house": "40",
      "postcode": "2705-836",
      "city": "TERRUGEM SNT",
      "lon": "-9.35445704133387",
      "lat": "38.86872194082601"
    },
    {
      "id": "pt.ine.add.PTCONT.2635390",
      "street": "R BICA",
      "house": "11",
      "postcode": "2705-836",
      "city": "TERRUGEM SNT",
      "lon": "-9.354341687837872",
      "lat": "38.868714139763846"
    },
    {
      "id": "pt.ine.add.PTCONT.2661916",
      "street": "R FERREIRA DE CASTRO",
      "house": "17",
      "postcode": "2705-836",
      "city": "TERRUGEM SNT",
      "lon": "-9.354262589281696",
      "lat": "38.86880504213464"
    },
    {
      "id": "pt.ine.add.PTCONT.2685474",
      "street": "R FERREIRA DE CASTRO",
      "house": "9",
      "postcode": "2705-836",
      "city": "TERRUGEM SNT",
      "lon": "-9.354327393947338",
      "lat": "38.868552153954326"
    },
    {
      "id": "pt.ine.add.PTCONT.2792092",
      "street": "R FERREIRA DE CASTRO",
      "house": "7",
      "postcode": "2705-836",
      "city": "TERRUGEM SNT",
      "lon": "-9.35417717282731",
      "lat": "38.868526702338976"
    },
    {
      "id": "pt.ine.add.PTCONT.2987694",
      "street": "R 25 DE ABRIL",
      "house": "27",
      "postcode": "2705-836",
      "city": "TERRUGEM SNT",
      "lon": "-9.353924967293972",
      "lat": "38.86860139947472"
    },
    {
      "id": "pt.ine.add.PTCONT.3170299",
      "street": "R 25 DE ABRIL",
      "house": "29",
      "postcode": "2705-836",
      "city": "TERRUGEM SNT",
      "lon": "-9.353891485903416",
      "lat": "38.86866480212532"
    },
    {
      "id": "pt.ine.add.PTCONT.3247804",
      "street": "BC ROLINHA",
      "house": "1",
      "postcode": "2705-836",
      "city": "TERRUGEM SNT",
      "lon": "-9.354299768941404",
      "lat": "38.86895778109446"
    },
    {
      "id": "pt.ine.add.PTCONT.3282026",
      "street": "R PATEO PRIVADO",
      "house": "13",
      "postcode": "2705-836",
      "city": "TERRUGEM SNT",
      "lon": "-9.354236775620405",
      "lat": "38.868643176783884"
    },
    {
      "id": "pt.ine.add.PTCONT.3346749",
      "street": "AV 19 DE MAIO",
      "house": "36",
      "postcode": "2705-836",
      "city": "TERRUGEM SNT",
      "lon": "-9.354408495679557",
      "lat": "38.86857832830368"
    },
    {
      "id": "pt.ine.add.PTCONT.3346750",
      "street": "AV 19 DE MAIO",
      "house": "36",
      "postcode": "2705-836",
      "city": "TERRUGEM SNT",
      "lon": "-9.354408495679557",
      "lat": "38.86857832830368"
    }
  ]
}