{
  "data": {
    "distrito": "Leiria",
    "concelho": "Óbidos",
    "freguesia": "Santa Maria, São Pedro e Sobral da Lagoa",
    "OBJECTID": 335,
    "BGRI2021": "10121000430",
    "DT21": "10",
    "DTMN21": "1012",
    "DTMNFR21": "101210",
    "DTMNFRSEC21": "101210004",
    "SECNUM21": "004",
    "SSNUM21": "30",
    "SECSSNUM21": "00430",
    "OBJECTID_1": 93793,
    "DT": "10",
    "CC": "12",
    "fr": "10",
    "SEC": "004",
    "SS": "30"
  },
  "addresses": [
    {
      "id": "pt.ine.add.PTCONT.1996663",
      "street": "R PAZ",
      "house": "18",
      "postcode": "2510-214",
      "city": "ÓBIDOS",
      "lon": "-9.158885748671121",
      "lat": "39.38006336196975"
    },
    {
      "id": "pt.ine.add.PTCONT.2033659",
      "street": "ESTR SENHORA DA LUZ",
      "house": "45",
      "postcode": "2510-214",
      "city": "ÓBIDOS",
      "lon": "-9.158378716677039",
      "lat": "39.38031101669049"
    },
    {
      "id": "pt.ine.add.PTCONT.2034764",
      "street": "R PAZ",
      "house": "22",
      "postcode": "2510-214",
      "city": "ÓBIDOS",
      "lon": "-9.159231108569248",
      "lat": "39.379871172241444"
    },
    {
      "id": "pt.ine.add.PTCONT.2125767",
      "street": "R GESSO",
      "house": "",
      "postcode": "2510-214",
      "city": "ÓBIDOS",
      "lon": "-9.15830382049489",
      "lat": "39.37995140148341"
    },
    {
      "id": "pt.ine.add.PTCONT.2131243",
      "street": "R PAZ",
      "house": "26",
      "postcode": "2510-214",
      "city": "ÓBIDOS",
      "lon": "-9.159611543118794",
      "lat": "39.37969668580947"
    },
    {
      "id": "pt.ine.add.PTCONT.2165063",
      "street": "R PAZ",
      "house": "14",
      "postcode": "2510-214",
      "city": "ÓBIDOS",
      "lon": "-9.158653794321527",
      "lat": "39.38007441357432"
    },
    {
      "id": "pt.ine.add.PTCONT.2210079",
      "street": "R GESSO",
      "house": "4",
      "postcode": "2510-214",
      "city": "ÓBIDOS",
      "lon": "-9.158593268793433",
      "lat": "39.37990381634242"
    },
    {
      "id": "pt.ine.add.PTCONT.2222603",
      "street": "R PAZ",
      "house": "14",
      "postcode": "2510-214",
      "city": "ÓBIDOS",
      "lon": "-9.159380513345276",
      "lat": "39.37977077885368"
    },
    {
      "id": "pt.ine.add.PTCONT.2228437",
      "street": "R SANTO ANTÃO",
      "house": "7",
      "postcode": "2510-214",
      "city": "ÓBIDOS",
      "lon": "-9.159615368758692",
      "lat": "39.37995785153949"
    },
    {
      "id": "pt.ine.add.PTCONT.2242125",
      "street": "ESTR SENHORA DA LUZ CASA DUNVEGAN",
      "house": "47",
      "postcode": "2510-214",
      "city": "ÓBIDOS",
      "lon": "-9.15875321928781",
      "lat": "39.38052388110129"
    },
    {
      "id": "pt.ine.add.PTCONT.2267350",
      "street": "R PAZ",
      "house": "",
      "postcode": "2510-214",
      "city": "ÓBIDOS",
      "lon": "-9.159081835215048",
      "lat": "39.37998057115736"
    }
  ]
}