{
  "data": {
    "distrito": "Leiria",
    "concelho": "Nazaré",
    "freguesia": "Famalicão",
    "OBJECTID": 241,
    "BGRI2021": "10110100127",
    "DT21": "10",
    "DTMN21": "1011",
    "DTMNFR21": "101101",
    "DTMNFRSEC21": "101101001",
    "SECNUM21": "001",
    "SSNUM21": "27",
    "SECSSNUM21": "00127",
    "OBJECTID_1": 93139,
    "DT": "10",
    "CC": "11",
    "fr": "01",
    "SEC": "001",
    "SS": "27"
  },
  "addresses": [
    {
      "id": "pt.ine.add.PTCONT.2025627",
      "street": "LG IGREJA",
      "house": "16",
      "postcode": "2450-027",
      "city": "FAMALICÃO NZR",
      "lon": "-9.083422533058723",
      "lat": "39.53711627395268"
    },
    {
      "id": "pt.ine.add.PTCONT.2025628",
      "street": "LG IGREJA",
      "house": "16",
      "postcode": "2450-027",
      "city": "FAMALICÃO NZR",
      "lon": "-9.083422533058723",
      "lat": "39.53711627395268"
    },
    {
      "id": "pt.ine.add.PTCONT.2043263",
      "street": "R SANTO ANTÓNIO",
      "house": "19",
      "postcode": "2450-027",
      "city": "FAMALICÃO NZR",
      "lon": "-9.08331957613683",
      "lat": "39.537243209240636"
    },
    {
      "id": "pt.ine.add.PTCONT.2113577",
      "street": "R SANTO ANTÓNIO",
      "house": "3",
      "postcode": "2450-027",
      "city": "FAMALICÃO NZR",
      "lon": "-9.082828018299807",
      "lat": "39.53702205975636"
    },
    {
      "id": "pt.ine.add.PTCONT.2157125",
      "street": "R IGREJA",
      "house": "4",
      "postcode": "2450-027",
      "city": "FAMALICÃO NZR",
      "lon": "-9.08302488027007",
      "lat": "39.53695740425386"
    },
    {
      "id": "pt.ine.add.PTCONT.2161476",
      "street": "R HERÓIS DO ULTRAMAR",
      "house": "26-28",
      "postcode": "2450-027",
      "city": "FAMALICÃO NZR",
      "lon": "-9.082838544338955",
      "lat": "39.53694091360682"
    },
    {
      "id": "pt.ine.add.PTCONT.2170284",
      "street": "R SANTO ANTÓNIO",
      "house": "9",
      "postcode": "2450-027",
      "city": "FAMALICÃO NZR",
      "lon": "-9.082968322791038",
      "lat": "39.53707495333565"
    },
    {
      "id": "pt.ine.add.PTCONT.2185465",
      "street": "R SANTO ANTÓNIO",
      "house": "15",
      "postcode": "2450-027",
      "city": "FAMALICÃO NZR",
      "lon": "-9.083167394795527",
      "lat": "39.53717239980683"
    },
    {
      "id": "pt.ine.add.PTCONT.2192150",
      "street": "LG IGREJA",
      "house": "13",
      "postcode": "2450-027",
      "city": "FAMALICÃO NZR",
      "lon": "-9.083270351895324",
      "lat": "39.53704546465008"
    },
    {
      "id": "pt.ine.add.PTCONT.2192151",
      "street": "LG IGREJA",
      "house": "13",
      "postcode": "2450-027",
      "city": "FAMALICÃO NZR",
      "lon": "-9.083270351895324",
      "lat": "39.53704546465008"
    }
  ]
}