{
  "data": {
    "distrito": "Viseu",
    "concelho": "Mangualde",
    "freguesia": "Abrunhosa-a-Velha",
    "OBJECTID": 570,
    "BGRI2021": "18060100126",
    "DT21": "18",
    "DTMN21": "1806",
    "DTMNFR21": "180601",
    "DTMNFRSEC21": "180601001",
    "SECNUM21": "001",
    "SSNUM21": "26",
    "SECSSNUM21": "00126",
    "OBJECTID_1": 192084,
    "DT": "18",
    "CC": "06",
    "fr": "01",
    "SEC": "001",
    "SS": "26"
  },
  "addresses": [
    {
      "id": "pt.ine.add.PTCONT.5432530",
      "street": "R DOIS BENEMERITOS",
      "house": "30",
      "postcode": "3530-010",
      "city": "ABRUNHOSA-A-VELHA",
      "lon": "-7.642957939930616",
      "lat": "40.57940971466567"
    },
    {
      "id": "pt.ine.add.PTCONT.5499683",
      "street": "R PROF DR COSTA SACADURA",
      "house": "2",
      "postcode": "3530-010",
      "city": "ABRUNHOSA-A-VELHA",
      "lon": "-7.643667682222583",
      "lat": "40.579259634844874"
    },
    {
      "id": "pt.ine.add.PTCONT.5518485",
      "street": "LG BALTAREIRA",
      "house": "2",
      "postcode": "3530-010",
      "city": "ABRUNHOSA-A-VELHA",
      "lon": "-7.6433253771678125",
      "lat": "40.57923116828382"
    },
    {
      "id": "pt.ine.add.PTCONT.5524170",
      "street": "R PROF DR COSTA SACADURA",
      "house": "4",
      "postcode": "3530-010",
      "city": "ABRUNHOSA-A-VELHA",
      "lon": "-7.643419991785691",
      "lat": "40.57921355891456"
    },
    {
      "id": "pt.ine.add.PTCONT.5535104",
      "street": "CSL S SEBASTIÃO",
      "house": "",
      "postcode": "3530-010",
      "city": "ABRUNHOSA-A-VELHA",
      "lon": "-7.644009205664325",
      "lat": "40.58101710355345"
    },
    {
      "id": "pt.ine.add.PTCONT.5580338",
      "street": "R PROF DR COSTA SACADURA",
      "house": "6",
      "postcode": "3530-010",
      "city": "ABRUNHOSA-A-VELHA",
      "lon": "-7.643785852008156",
      "lat": "40.57925113021861"
    },
    {
      "id": "pt.ine.add.PTCONT.5585601",
      "street": "BC ANTIGO CORREIO",
      "house": "2",
      "postcode": "3530-010",
      "city": "ABRUNHOSA-A-VELHA",
      "lon": "-7.643289289129816",
      "lat": "40.57932106770112"
    },
    {
      "id": "pt.ine.add.PTCONT.5589604",
      "street": "R DOIS BENEMERITOS",
      "house": "32",
      "postcode": "3530-010",
      "city": "ABRUNHOSA-A-VELHA",
      "lon": "-7.643206813215119",
      "lat": "40.579293702226806"
    },
    {
      "id": "pt.ine.add.PTCONT.5589605",
      "street": "BC ANTIGO CORREIO",
      "house": "6",
      "postcode": "3530-010",
      "city": "ABRUNHOSA-A-VELHA",
      "lon": "-7.64332504879",
      "lat": "40.57927619310799"
    },
    {
      "id": "pt.ine.add.PTCONT.5603835",
      "street": "CSL S SEBASTIÃO",
      "house": "",
      "postcode": "3530-010",
      "city": "ABRUNHOSA-A-VELHA",
      "lon": "-7.643850088318748",
      "lat": "40.58016093181234"
    }
  ]
}