{
  "data": {
    "distrito": "Guarda",
    "concelho": "Guarda",
    "freguesia": "Valhelhas",
    "OBJECTID": 771,
    "BGRI2021": "09074700115",
    "DT21": "09",
    "DTMN21": "0907",
    "DTMNFR21": "090747",
    "DTMNFRSEC21": "090747001",
    "SECNUM21": "001",
    "SSNUM21": "15",
    "SECSSNUM21": "00115",
    "OBJECTID_1": 78655,
    "DT": "09",
    "CC": "07",
    "fr": "47",
    "SEC": "001",
    "SS": "15"
  },
  "addresses": [
    {
      "id": "pt.ine.add.PTCONT.1903623",
      "street": "R DIREITA",
      "house": "2",
      "postcode": "6300-235",
      "city": "VALHELHAS",
      "lon": "-7.40102366508744",
      "lat": "40.4070738798809"
    },
    {
      "id": "pt.ine.add.PTCONT.1914124",
      "street": "HORTA RIBEIRA",
      "house": "",
      "postcode": "6300-235",
      "city": "VALHELHAS",
      "lon": "-7.399937736106594",
      "lat": "40.40835477740736"
    },
    {
      "id": "pt.ine.add.PTCONT.1929935",
      "street": "BR S PEDRO",
      "house": "",
      "postcode": "6300-235",
      "city": "VALHELHAS",
      "lon": "-7.39915581596886",
      "lat": "40.40767440829245"
    },
    {
      "id": "pt.ine.add.PTCONT.1930514",
      "street": "R D ANA SANTANA",
      "house": "2",
      "postcode": "6300-235",
      "city": "VALHELHAS",
      "lon": "-7.400882991405621",
      "lat": "40.407009950977645"
    },
    {
      "id": "pt.ine.add.PTCONT.1944960",
      "street": "R D ANA SANTANA",
      "house": "4",
      "postcode": "6300-235",
      "city": "VALHELHAS",
      "lon": "-7.400965059152272",
      "lat": "40.40704649245623"
    },
    {
      "id": "pt.ine.add.PTCONT.1961342",
      "street": "R DO LAVADOURO",
      "house": "4",
      "postcode": "6300-235",
      "city": "VALHELHAS",
      "lon": "-7.401249798320588",
      "lat": "40.40794883955168"
    },
    {
      "id": "pt.ine.add.PTCONT.1963007",
      "street": "R DIREITA",
      "house": "",
      "postcode": "6300-235",
      "city": "VALHELHAS",
      "lon": "-7.401620824410928",
      "lat": "40.40741086082914"
    },
    {
      "id": "pt.ine.add.PTCONT.1963008",
      "street": "R DIREITA",
      "house": "",
      "postcode": "6300-235",
      "city": "VALHELHAS",
      "lon": "-7.401620824410928",
      "lat": "40.40741086082914"
    },
    {
      "id": "pt.ine.add.PTCONT.1859259",
      "street": "R DIREITA",
      "house": "",
      "postcode": "6300-235",
      "city": "VALHELHAS",
      "lon": "-7.401806766979833",
      "lat": "40.40764617860697"
    },
    {
      "id": "pt.ine.add.PTCONT.1888748",
      "street": "R DIREITA",
      "house": "",
      "postcode": "6300-235",
      "city": "VALHELHAS",
      "lon": "-7.401117512729231",
      "lat": "40.40711049583746"
    },
    {
      "id": "pt.ine.add.PTCONT.1898552",
      "street": "",
      "house": "",
      "postcode": "6300-235",
      "city": "VALHELHAS",
      "lon": "-7.399620850492535",
      "lat": "40.4082447022469"
    }
  ]
}