{
  "data": {
    "distrito": "Viseu",
    "concelho": "Penalva do Castelo",
    "freguesia": "Pindo",
    "OBJECTID": 229,
    "BGRI2021": "18110900213",
    "DT21": "18",
    "DTMN21": "1811",
    "DTMNFR21": "181109",
    "DTMNFRSEC21": "181109002",
    "SECNUM21": "002",
    "SSNUM21": "13",
    "SECSSNUM21": "00213",
    "OBJECTID_1": 194669,
    "DT": "18",
    "CC": "11",
    "fr": "09",
    "SEC": "002",
    "SS": "13"
  },
  "addresses": [
    {
      "id": "pt.ine.add.PTCONT.5441726",
      "street": "R PRINCIPAL",
      "house": "49",
      "postcode": "3550-243",
      "city": "PINDO",
      "lon": "-7.767904880870146",
      "lat": "40.65965839797693"
    },
    {
      "id": "pt.ine.add.PTCONT.5473343",
      "street": "ESTR PRINCIPAL",
      "house": "47",
      "postcode": "3550-243",
      "city": "PINDO",
      "lon": "-7.767644883227927",
      "lat": "40.65963055995289"
    },
    {
      "id": "pt.ine.add.PTCONT.5530230",
      "street": "ESTR PRINCIPAL",
      "house": "41",
      "postcode": "3550-243",
      "city": "PINDO",
      "lon": "-7.760580737302734",
      "lat": "40.658338260952384"
    },
    {
      "id": "pt.ine.add.PTCONT.5530231",
      "street": "ESTR PRINCIPAL",
      "house": "1",
      "postcode": "3550-244",
      "city": "PINDO",
      "lon": "-7.772336808849648",
      "lat": "40.65791632717649"
    },
    {
      "id": "pt.ine.add.PTCONT.5553064",
      "street": "AV ESCOLA",
      "house": "3",
      "postcode": "3550-244",
      "city": "PINDO",
      "lon": "-7.772149316015985",
      "lat": "40.657600561177674"
    },
    {
      "id": "pt.ine.add.PTCONT.5560992",
      "street": "ESTR PRINCIPAL DA MATA",
      "house": "39",
      "postcode": "3550-243",
      "city": "PINDO",
      "lon": "-7.760079793139724",
      "lat": "40.659111085867586"
    },
    {
      "id": "pt.ine.add.PTCONT.5607772",
      "street": "AV PRINCIPAL",
      "house": "3",
      "postcode": "3550-244",
      "city": "PINDO",
      "lon": "-7.772162014042603",
      "lat": "40.6574385082644"
    },
    {
      "id": "pt.ine.add.PTCONT.5636357",
      "street": "ESTR PRINCIPAL DA MATA",
      "house": "29",
      "postcode": "3550-243",
      "city": "PINDO",
      "lon": "-7.760234265947703",
      "lat": "40.658976507682496"
    },
    {
      "id": "pt.ine.add.PTCONT.5665182",
      "street": "ESTR PRINCIPAL DA MATA",
      "house": "29",
      "postcode": "3550-243",
      "city": "PINDO",
      "lon": "-7.760092671154095",
      "lat": "40.65892201951709"
    }
  ]
}