{
  "data": {
    "distrito": "Braga",
    "concelho": "Braga",
    "freguesia": "União das freguesias de Cabreiros e Passos (São Julião)",
    "OBJECTID": 987,
    "BGRI2021": "03036600113",
    "DT21": "03",
    "DTMN21": "0303",
    "DTMNFR21": "030366",
    "DTMNFRSEC21": "030366001",
    "SECNUM21": "001",
    "SSNUM21": "13",
    "SECSSNUM21": "00113",
    "OBJECTID_1": 21793,
    "DT": "03",
    "CC": "03",
    "fr": "66",
    "SEC": "001",
    "SS": "13"
  },
  "addresses": [
    {
      "id": "pt.ine.add.PTCONT.478637",
      "street": "AV SENHOR DOS PASSOS",
      "house": "5",
      "postcode": "4705-769",
      "city": "CABREIROS BRG",
      "lon": "-8.495721771140742",
      "lat": "41.53403553642669"
    },
    {
      "id": "pt.ine.add.PTCONT.484047",
      "street": "AV SR DOS PASSOS",
      "house": "13",
      "postcode": "4705-769",
      "city": "CABREIROS BRG",
      "lon": "-8.495232491846762",
      "lat": "41.534397229186666"
    },
    {
      "id": "pt.ine.add.PTCONT.500844",
      "street": "AV SENHOR DOS PASSOS",
      "house": "11",
      "postcode": "4705-769",
      "city": "CABREIROS BRG",
      "lon": "-8.49567429311137",
      "lat": "41.534116720103974"
    },
    {
      "id": "pt.ine.add.PTCONT.512608",
      "street": "LG PORTO MARTIM",
      "house": "5",
      "postcode": "4705-382",
      "city": "CABREIROS BRG",
      "lon": "-8.496440829849265",
      "lat": "41.534051274412995"
    },
    {
      "id": "pt.ine.add.PTCONT.522439",
      "street": "R CACHADINHA",
      "house": "31",
      "postcode": "4705-768",
      "city": "CABREIROS BRG",
      "lon": "-8.494696228761333",
      "lat": "41.53493013930237"
    },
    {
      "id": "pt.ine.add.PTCONT.686357",
      "street": "R CACHADINHA",
      "house": "4",
      "postcode": "4705-768",
      "city": "CABREIROS BRG",
      "lon": "-8.495792007228744",
      "lat": "41.53373819033367"
    },
    {
      "id": "pt.ine.add.PTCONT.773204",
      "street": "R CACHADINHA",
      "house": "23",
      "postcode": "4705-768",
      "city": "CABREIROS BRG",
      "lon": "-8.495519121765465",
      "lat": "41.53422525452352"
    },
    {
      "id": "pt.ine.add.PTCONT.783130",
      "street": "R CACHADINHA",
      "house": "",
      "postcode": "4705-768",
      "city": "CABREIROS BRG",
      "lon": "-8.494850801184727",
      "lat": "41.53471356259207"
    },
    {
      "id": "pt.ine.add.PTCONT.836129",
      "street": "AV S MIGUEL",
      "house": "7",
      "postcode": "4705-383",
      "city": "CABREIROS BRG",
      "lon": "-8.494970227323975",
      "lat": "41.534641156663994"
    }
  ]
}