{
  "data": {
    "distrito": "Setúbal",
    "concelho": "Alcácer do Sal",
    "freguesia": "União das freguesias de Alcácer do Sal (Santa Maria do Castelo e Santiago) e Santa Susana",
    "OBJECTID": 149,
    "BGRI2021": "15010700641",
    "DT21": "15",
    "DTMN21": "1501",
    "DTMNFR21": "150107",
    "DTMNFRSEC21": "150107006",
    "SECNUM21": "006",
    "SSNUM21": "41",
    "SECSSNUM21": "00641",
    "OBJECTID_1": 160429,
    "DT": "15",
    "CC": "01",
    "fr": "07",
    "SEC": "006",
    "SS": "41"
  },
  "addresses": [
    {
      "id": "pt.ine.add.PTCONT.4707669",
      "street": "R OLIVAL DO SENHOR DOS MARTIRES",
      "house": "",
      "postcode": "7580-057",
      "city": "ALCÁCER DO SAL",
      "lon": "-8.519072666122698",
      "lat": "38.374790316837306"
    },
    {
      "id": "pt.ine.add.PTCONT.4771881",
      "street": "R PROF EGAS MONIZ",
      "house": "3",
      "postcode": "7580-049",
      "city": "ALCÁCER DO SAL",
      "lon": "-8.51803740200748",
      "lat": "38.37378474922421"
    },
    {
      "id": "pt.ine.add.PTCONT.4790344",
      "street": "R PROF EGAS MONIZ",
      "house": "2",
      "postcode": "7580-049",
      "city": "ALCÁCER DO SAL",
      "lon": "-8.518186261458707",
      "lat": "38.37380227772835"
    },
    {
      "id": "pt.ine.add.PTCONT.4831560",
      "street": "R BOM JESUS DOS MARTIRES",
      "house": "",
      "postcode": "7580-131",
      "city": "ALCÁCER DO SAL",
      "lon": "-8.517714889096332",
      "lat": "38.37338942605828"
    },
    {
      "id": "pt.ine.add.PTCONT.4882548",
      "street": "R PROF EGAS MONIZ",
      "house": "",
      "postcode": "7580-049",
      "city": "ALCÁCER DO SAL",
      "lon": "-8.517899795166526",
      "lat": "38.373731148907474"
    },
    {
      "id": "pt.ine.add.PTCONT.4888624",
      "street": "R PROF EGAS MONIZ",
      "house": "1",
      "postcode": "7580-049",
      "city": "ALCÁCER DO SAL",
      "lon": "-8.518300790819586",
      "lat": "38.37381991884068"
    },
    {
      "id": "pt.ine.add.PTCONT.4894782",
      "street": "AZ OLIVAL DA TELHADA",
      "house": "",
      "postcode": "7580-101",
      "city": "ALCÁCER DO SAL",
      "lon": "-8.524695001174322",
      "lat": "38.37755535080576"
    },
    {
      "id": "pt.ine.add.PTCONT.4964940",
      "street": "OLIVAL DA TELHADA",
      "house": "",
      "postcode": "7580-101",
      "city": "ALCÁCER DO SAL",
      "lon": "-8.52581456189591",
      "lat": "38.37719125932203"
    },
    {
      "id": "pt.ine.add.PTCONT.4964941",
      "street": "OLIVAL DA TELHADA",
      "house": "",
      "postcode": "7580-101",
      "city": "ALCÁCER DO SAL",
      "lon": "-8.52581456189591",
      "lat": "38.37719125932203"
    },
    {
      "id": "pt.ine.add.PTCONT.4964942",
      "street": "OLIVAL DA TELHADA",
      "house": "",
      "postcode": "7580-101",
      "city": "ALCÁCER DO SAL",
      "lon": "-8.52581456189591",
      "lat": "38.37719125932203"
    },
    {
      "id": "pt.ine.add.PTCONT.4997669",
      "street": "OLIVAL DOS MARTIRES",
      "house": "",
      "postcode": "7580-101",
      "city": "ALCÁCER DO SAL",
      "lon": "-8.523331209359629",
      "lat": "38.375064497224976"
    }
  ]
}