{
  "data": {
    "distrito": "Coimbra",
    "concelho": "Penacova",
    "freguesia": "Penacova",
    "OBJECTID": 532,
    "BGRI2021": "06130700223",
    "DT21": "06",
    "DTMN21": "0613",
    "DTMNFR21": "061307",
    "DTMNFRSEC21": "061307002",
    "SECNUM21": "002",
    "SSNUM21": "23",
    "SECSSNUM21": "00223",
    "OBJECTID_1": 55823,
    "DT": "06",
    "CC": "13",
    "fr": "07",
    "SEC": "002",
    "SS": "23"
  },
  "addresses": [
    {
      "id": "pt.ine.add.PTCONT.1103411",
      "street": "R RIO",
      "house": "4",
      "postcode": "3360-178",
      "city": "PENACOVA",
      "lon": "-8.267418602939417",
      "lat": "40.29360895016966"
    },
    {
      "id": "pt.ine.add.PTCONT.1167863",
      "street": "R ESCOLA",
      "house": "6",
      "postcode": "3360-178",
      "city": "PENACOVA",
      "lon": "-8.267311739031914",
      "lat": "40.293095747146744"
    },
    {
      "id": "pt.ine.add.PTCONT.1189174",
      "street": "R ESCOLA",
      "house": "1",
      "postcode": "3360-178",
      "city": "PENACOVA",
      "lon": "-8.267486421505192",
      "lat": "40.29222198777996"
    },
    {
      "id": "pt.ine.add.PTCONT.1192777",
      "street": "R CAPELA",
      "house": "1",
      "postcode": "3360-178",
      "city": "PENACOVA",
      "lon": "-8.26779463114804",
      "lat": "40.293446409787215"
    },
    {
      "id": "pt.ine.add.PTCONT.1197322",
      "street": "R CAPELA",
      "house": "4",
      "postcode": "3360-178",
      "city": "PENACOVA",
      "lon": "-8.267548258810134",
      "lat": "40.29375289137621"
    },
    {
      "id": "pt.ine.add.PTCONT.1249759",
      "street": "CARVALHAL MANCORES",
      "house": "",
      "postcode": "3360-178",
      "city": "PENACOVA",
      "lon": "-8.269629369310596",
      "lat": "40.29346227092877"
    },
    {
      "id": "pt.ine.add.PTCONT.1250458",
      "street": "R ESCOLA",
      "house": "",
      "postcode": "3360-178",
      "city": "PENACOVA",
      "lon": "-8.267546099424694",
      "lat": "40.292663199649425"
    },
    {
      "id": "pt.ine.add.PTCONT.1274136",
      "street": "R CAPELA",
      "house": "3",
      "postcode": "3360-178",
      "city": "PENACOVA",
      "lon": "-8.267559537875037",
      "lat": "40.29350972337561"
    },
    {
      "id": "pt.ine.add.PTCONT.1284275",
      "street": "R PORTELINHA",
      "house": "6",
      "postcode": "3360-178",
      "city": "PENACOVA",
      "lon": "-8.268347627309549",
      "lat": "40.293562839313616"
    },
    {
      "id": "pt.ine.add.PTCONT.1353756",
      "street": "CARVALHAL MANCORES",
      "house": "",
      "postcode": "3360-178",
      "city": "PENACOVA",
      "lon": "-8.268300601534794",
      "lat": "40.293571900007606"
    },
    {
      "id": "pt.ine.add.PTCONT.1354237",
      "street": "R ESCOLA",
      "house": "2",
      "postcode": "3360-178",
      "city": "PENACOVA",
      "lon": "-8.267230000616458",
      "lat": "40.293393031262546"
    }
  ]
}