{
  "data": {
    "distrito": "Vila Real",
    "concelho": "Santa Marta de Penaguião",
    "freguesia": "Alvações do Corgo",
    "OBJECTID": 43,
    "BGRI2021": "17110100103",
    "DT21": "17",
    "DTMN21": "1711",
    "DTMNFR21": "171101",
    "DTMNFRSEC21": "171101001",
    "SECNUM21": "001",
    "SSNUM21": "03",
    "SECSSNUM21": "00103",
    "OBJECTID_1": 185326,
    "DT": "17",
    "CC": "11",
    "fr": "01",
    "SEC": "001",
    "SS": "03"
  },
  "addresses": [
    {
      "id": "pt.ine.add.PTCONT.5288529",
      "street": "LUGAR DO VALE DO PORTO",
      "house": "",
      "postcode": "5030-026",
      "city": "ALVAÇÕES DO CORGO",
      "lon": "-7.75735852502782",
      "lat": "41.19177675365895"
    },
    {
      "id": "pt.ine.add.PTCONT.5289553",
      "street": "LUGAR DA ESTAÇÃO",
      "house": "",
      "postcode": "5030-018",
      "city": "ALVAÇÕES DO CORGO",
      "lon": "-7.762033293953959",
      "lat": "41.19563674943707"
    },
    {
      "id": "pt.ine.add.PTCONT.5314483",
      "street": "LUGAR DA PLAINA",
      "house": "",
      "postcode": "5030-011",
      "city": "ALVAÇÕES DO CORGO",
      "lon": "-7.758738699183892",
      "lat": "41.194320462935146"
    },
    {
      "id": "pt.ine.add.PTCONT.5343907",
      "street": "R PONTE",
      "house": "",
      "postcode": "5030-018",
      "city": "ALVAÇÕES DO CORGO",
      "lon": "-7.762653678099765",
      "lat": "41.195548703619494"
    },
    {
      "id": "pt.ine.add.PTCONT.5346061",
      "street": "LUGAR DO VALE DO PORTO",
      "house": "",
      "postcode": "5030-026",
      "city": "ALVAÇÕES DO CORGO",
      "lon": "-7.7572655338875895",
      "lat": "41.191362252001184"
    },
    {
      "id": "pt.ine.add.PTCONT.5352580",
      "street": "LUGAR DO VALE DO PORTO",
      "house": "",
      "postcode": "5030-026",
      "city": "ALVAÇÕES DO CORGO",
      "lon": "-7.757446031211043",
      "lat": "41.191065698658655"
    },
    {
      "id": "pt.ine.add.PTCONT.5358971",
      "street": "LUGAR DA ESTAÇÃO",
      "house": "",
      "postcode": "5030-018",
      "city": "ALVAÇÕES DO CORGO",
      "lon": "-7.7623561690078065",
      "lat": "41.19545770321789"
    },
    {
      "id": "pt.ine.add.PTCONT.5362277",
      "street": "LUGAR DO VALE DO PORTO",
      "house": "",
      "postcode": "5030-026",
      "city": "ALVAÇÕES DO CORGO",
      "lon": "-7.75740795520989",
      "lat": "41.191470768400556"
    },
    {
      "id": "pt.ine.add.PTCONT.5391623",
      "street": "LUGAR DO VALE DO PORTO",
      "house": "",
      "postcode": "5030-026",
      "city": "ALVAÇÕES DO CORGO",
      "lon": "-7.757289116265092",
      "lat": "41.19140735050485"
    },
    {
      "id": "pt.ine.add.PTCONT.5420304",
      "street": "LUGAR DA PONTE",
      "house": "",
      "postcode": "5030-018",
      "city": "ALVAÇÕES DO CORGO",
      "lon": "-7.761257989814328",
      "lat": "41.19571528751151"
    },
    {
      "id": "pt.ine.add.PTCONT.5422502",
      "street": "R PONTE",
      "house": "",
      "postcode": "5030-018",
      "city": "ALVAÇÕES DO CORGO",
      "lon": "-7.762914766432441",
      "lat": "41.19575664213606"
    }
  ]
}