{
  "data": {
    "distrito": "Coimbra",
    "concelho": "Condeixa-A-Nova",
    "freguesia": "União das freguesias de Vila Seca e Bem da Fé",
    "OBJECTID": 78,
    "BGRI2021": "06041300132",
    "DT21": "06",
    "DTMN21": "0604",
    "DTMNFR21": "060413",
    "DTMNFRSEC21": "060413001",
    "SECNUM21": "001",
    "SSNUM21": "32",
    "SECSSNUM21": "00132",
    "OBJECTID_1": 50594,
    "DT": "06",
    "CC": "04",
    "fr": "13",
    "SEC": "001",
    "SS": "32"
  },
  "addresses": [
    {
      "id": "pt.ine.add.PTCONT.1121430",
      "street": "R OUTEIRO DO CARVALHAL",
      "house": "",
      "postcode": "3150-311",
      "city": "VILA SECA CDN",
      "lon": "-8.412521910419409",
      "lat": "40.11254778718472"
    },
    {
      "id": "pt.ine.add.PTCONT.1181247",
      "street": "ESTR CARVALHAL",
      "house": "",
      "postcode": "3150-311",
      "city": "VILA SECA CDN",
      "lon": "-8.411176088977614",
      "lat": "40.11330753046794"
    },
    {
      "id": "pt.ine.add.PTCONT.1186548",
      "street": "ESTR CARVALHAL",
      "house": "",
      "postcode": "3150-311",
      "city": "VILA SECA CDN",
      "lon": "-8.411315964857879",
      "lat": "40.11309105046354"
    },
    {
      "id": "pt.ine.add.PTCONT.1234342",
      "street": "R ARTESANATO",
      "house": "",
      "postcode": "3150-311",
      "city": "VILA SECA CDN",
      "lon": "-8.412203923182972",
      "lat": "40.11223334368297"
    },
    {
      "id": "pt.ine.add.PTCONT.1257389",
      "street": "R ARTESANATO QTA DO VALE DA VELHA",
      "house": "",
      "postcode": "3150-311",
      "city": "VILA SECA CDN",
      "lon": "-8.41115676754907",
      "lat": "40.11144333370247"
    },
    {
      "id": "pt.ine.add.PTCONT.1276333",
      "street": "R OUTEIRO DO CARVALHAL",
      "house": "",
      "postcode": "3150-311",
      "city": "VILA SECA CDN",
      "lon": "-8.412087658191657",
      "lat": "40.112485791939704"
    },
    {
      "id": "pt.ine.add.PTCONT.1354306",
      "street": "R OUTEIRO DO CARVALHAL",
      "house": "",
      "postcode": "3150-311",
      "city": "VILA SECA CDN",
      "lon": "-8.411982275937898",
      "lat": "40.1125310757507"
    },
    {
      "id": "pt.ine.add.PTCONT.1357171",
      "street": "R OUTEIRO DO CARVALHAL",
      "house": "",
      "postcode": "3150-311",
      "city": "VILA SECA CDN",
      "lon": "-8.412216425809884",
      "lat": "40.11242243967034"
    }
  ]
}