{
  "data": {
    "distrito": "Lisboa",
    "concelho": "Alenquer",
    "freguesia": "União das freguesias de Alenquer (Santo Estêvão e Triana)",
    "OBJECTID": 591,
    "BGRI2021": "11011900810",
    "DT21": "11",
    "DTMN21": "1101",
    "DTMNFR21": "110119",
    "DTMNFRSEC21": "110119008",
    "SECNUM21": "008",
    "SSNUM21": "10",
    "SECSSNUM21": "00810",
    "OBJECTID_1": 99358,
    "DT": "11",
    "CC": "01",
    "fr": "19",
    "SEC": "008",
    "SS": "10"
  },
  "addresses": [
    {
      "id": "pt.ine.add.PTCONT.2295904",
      "street": "QTA REQUEIXADA",
      "house": "2",
      "postcode": "2580-376",
      "city": "ALENQUER",
      "lon": "-8.993693792822317",
      "lat": "39.05619721673546"
    },
    {
      "id": "pt.ine.add.PTCONT.2370958",
      "street": "QTA REQUEIXADA",
      "house": "1 FASE 2",
      "postcode": "2580-376",
      "city": "ALENQUER",
      "lon": "-8.99387796328605",
      "lat": "39.056141812801705"
    },
    {
      "id": "pt.ine.add.PTCONT.2382751",
      "street": "R ALEXANDRE HERCULANO",
      "house": "",
      "postcode": "2580-376",
      "city": "ALENQUER",
      "lon": "-8.985081555829442",
      "lat": "39.06054800021461"
    },
    {
      "id": "pt.ine.add.PTCONT.2557356",
      "street": "CSL EVARISTO",
      "house": "",
      "postcode": "2580-376",
      "city": "ALENQUER",
      "lon": "-8.987141880182168",
      "lat": "39.057029030474766"
    },
    {
      "id": "pt.ine.add.PTCONT.2686337",
      "street": "R 25 DE ABRIL QTA DO SERRADO",
      "house": "",
      "postcode": "2580-376",
      "city": "ALENQUER",
      "lon": "-8.982711803529075",
      "lat": "39.05947538709151"
    },
    {
      "id": "pt.ine.add.PTCONT.2698322",
      "street": "QTA REQUEIXADA",
      "house": "15",
      "postcode": "2580-376",
      "city": "ALENQUER",
      "lon": "-8.991099245629972",
      "lat": "39.056594647142106"
    },
    {
      "id": "pt.ine.add.PTCONT.2781964",
      "street": "CSL EVARISTO ESTRADA DO CAMARAL",
      "house": "",
      "postcode": "2580-376",
      "city": "ALENQUER",
      "lon": "-8.986899075053083",
      "lat": "39.05701279343017"
    },
    {
      "id": "pt.ine.add.PTCONT.2899376",
      "street": "CSL CARECA",
      "house": "",
      "postcode": "2580-376",
      "city": "ALENQUER",
      "lon": "-8.986702802621872",
      "lat": "39.05702323766237"
    },
    {
      "id": "pt.ine.add.PTCONT.2926328",
      "street": "QTA REQUEIXADA",
      "house": "14",
      "postcode": "2580-376",
      "city": "ALENQUER",
      "lon": "-8.991284073385739",
      "lat": "39.05659328718899"
    },
    {
      "id": "pt.ine.add.PTCONT.2972350",
      "street": "R ALEXANDRE HERCULANO",
      "house": "1",
      "postcode": "2580-376",
      "city": "ALENQUER",
      "lon": "-8.982483996541092",
      "lat": "39.05974727015595"
    },
    {
      "id": "pt.ine.add.PTCONT.3054829",
      "street": "VIVENDA DOS CINCO CORAÇÕES",
      "house": "",
      "postcode": "2580-376",
      "city": "ALENQUER",
      "lon": "-8.989250923377499",
      "lat": "39.05851781114788"
    },
    {
      "id": "pt.ine.add.PTCONT.3074060",
      "street": "",
      "house": "",
      "postcode": "2580-376",
      "city": "ALENQUER",
      "lon": "-8.987615396110572",
      "lat": "39.057016554386834"
    },
    {
      "id": "pt.ine.add.PTCONT.3175995",
      "street": "R ALEXANDRE HERCULANO",
      "house": "3",
      "postcode": "2580-376",
      "city": "ALENQUER",
      "lon": "-8.9825999510308",
      "lat": "39.05978245536698"
    },
    {
      "id": "pt.ine.add.PTCONT.3185770",
      "street": "QTA REQUEIXADA",
      "house": "3",
      "postcode": "2580-376",
      "city": "ALENQUER",
      "lon": "-8.993509949991873",
      "lat": "39.05627964032346"
    },
    {
      "id": "pt.ine.add.PTCONT.3241093",
      "street": "QTA REQUEIXADA",
      "house": "9",
      "postcode": "2580-376",
      "city": "ALENQUER",
      "lon": "-8.992219763707466",
      "lat": "39.0565863979321"
    },
    {
      "id": "pt.ine.add.PTCONT.3342462",
      "street": "QTA MORGADINHO",
      "house": "",
      "postcode": "2580-376",
      "city": "ALENQUER",
      "lon": "-8.989677805192741",
      "lat": "39.05846963919132"
    },
    {
      "id": "pt.ine.add.PTCONT.3379209",
      "street": "QTA REQUEIXADA",
      "house": "6",
      "postcode": "2580-376",
      "city": "ALENQUER",
      "lon": "-8.992969861391401",
      "lat": "39.05651781754956"
    }
  ]
}