{
  "data": {
    "distrito": "Castelo Branco",
    "concelho": "Fundão",
    "freguesia": "União das freguesias de Vale de Prazeres e Mata da Rainha",
    "OBJECTID": 953,
    "BGRI2021": "05043600217",
    "DT21": "05",
    "DTMN21": "0504",
    "DTMNFR21": "050436",
    "DTMNFRSEC21": "050436002",
    "SECNUM21": "002",
    "SSNUM21": "17",
    "SECSSNUM21": "00217",
    "OBJECTID_1": 43106,
    "DT": "05",
    "CC": "04",
    "fr": "36",
    "SEC": "002",
    "SS": "17"
  },
  "addresses": [
    {
      "id": "pt.ine.add.PTCONT.965576",
      "street": "R S DOMINGOS",
      "house": "4",
      "postcode": "6230-788",
      "city": "VALE DE PRAZERES",
      "lon": "-7.4314109717345405",
      "lat": "40.110732192262645"
    },
    {
      "id": "pt.ine.add.PTCONT.974325",
      "street": "LG ADRO",
      "house": "3",
      "postcode": "6230-788",
      "city": "VALE DE PRAZERES",
      "lon": "-7.430942571391862",
      "lat": "40.110657306187676"
    },
    {
      "id": "pt.ine.add.PTCONT.985322",
      "street": "R OUTEIRO",
      "house": "",
      "postcode": "6230-788",
      "city": "VALE DE PRAZERES",
      "lon": "-7.430625345552225",
      "lat": "40.11070941798809"
    },
    {
      "id": "pt.ine.add.PTCONT.990757",
      "street": "R AURÉLIO PINTO CASTELO BRANCO",
      "house": "43",
      "postcode": "6230-788",
      "city": "VALE DE PRAZERES",
      "lon": "-7.431443936318609",
      "lat": "40.11094853381636"
    },
    {
      "id": "pt.ine.add.PTCONT.997980",
      "street": "R CAMPANÁRIO",
      "house": "4",
      "postcode": "6230-788",
      "city": "VALE DE PRAZERES",
      "lon": "-7.431268840890008",
      "lat": "40.11086641971206"
    },
    {
      "id": "pt.ine.add.PTCONT.1022596",
      "street": "R DA IGREJA",
      "house": "",
      "postcode": "6230-788",
      "city": "VALE DE PRAZERES",
      "lon": "-7.4309307502656665",
      "lat": "40.11066624042997"
    },
    {
      "id": "pt.ine.add.PTCONT.1027431",
      "street": "R CAMPANÁRIO",
      "house": "6",
      "postcode": "6230-788",
      "city": "VALE DE PRAZERES",
      "lon": "-7.431257760303729",
      "lat": "40.11080331119564"
    },
    {
      "id": "pt.ine.add.PTCONT.1034416",
      "street": "R S DOMINGOS",
      "house": "2",
      "postcode": "6230-788",
      "city": "VALE DE PRAZERES",
      "lon": "-7.431234858635737",
      "lat": "40.11074913695109"
    },
    {
      "id": "pt.ine.add.PTCONT.1047604",
      "street": "R AURÉLIO PINTO CASTELO BRANCO",
      "house": "45",
      "postcode": "6230-788",
      "city": "VALE DE PRAZERES",
      "lon": "-7.431503041833758",
      "lat": "40.11090386233192"
    },
    {
      "id": "pt.ine.add.PTCONT.1060040",
      "street": "R CAMPANÁRIO",
      "house": "",
      "postcode": "6230-788",
      "city": "VALE DE PRAZERES",
      "lon": "-7.431315014630258",
      "lat": "40.11093874678637"
    },
    {
      "id": "pt.ine.add.PTCONT.1070078",
      "street": "R IGREJA",
      "house": "4",
      "postcode": "6230-788",
      "city": "VALE DE PRAZERES",
      "lon": "-7.430423180332645",
      "lat": "40.11097836889235"
    },
    {
      "id": "pt.ine.add.PTCONT.1072340",
      "street": "LG ADRO",
      "house": "1",
      "postcode": "6230-788",
      "city": "VALE DE PRAZERES",
      "lon": "-7.430682413258398",
      "lat": "40.11086286457789"
    },
    {
      "id": "pt.ine.add.PTCONT.1076071",
      "street": "R AURÉLIO PINTO CASTELO BRANCO",
      "house": "49",
      "postcode": "6230-788",
      "city": "VALE DE PRAZERES",
      "lon": "-7.431621437669431",
      "lat": "40.11079650857007"
    },
    {
      "id": "pt.ine.add.PTCONT.1079854",
      "street": "R PRAÇA",
      "house": "16",
      "postcode": "6230-788",
      "city": "VALE DE PRAZERES",
      "lon": "-7.430400649992643",
      "lat": "40.110888173100726"
    },
    {
      "id": "pt.ine.add.PTCONT.1080639",
      "street": "R AURÉLIO PINTO CASTELO BRANCO",
      "house": "39",
      "postcode": "6230-788",
      "city": "VALE DE PRAZERES",
      "lon": "-7.431361466128288",
      "lat": "40.11098405779545"
    },
    {
      "id": "pt.ine.add.PTCONT.1092277",
      "street": "LG ADRO",
      "house": "5",
      "postcode": "6230-788",
      "city": "VALE DE PRAZERES",
      "lon": "-7.4310603195240175",
      "lat": "40.110612990441055"
    },
    {
      "id": "pt.ine.add.PTCONT.1095904",
      "street": "R CAMPANÁRIO",
      "house": "2",
      "postcode": "6230-788",
      "city": "VALE DE PRAZERES",
      "lon": "-7.431339027100546",
      "lat": "40.11088485682678"
    }
  ]
}