{
  "data": {
    "distrito": "Porto",
    "concelho": "Maia",
    "freguesia": "Castêlo da Maia",
    "OBJECTID": 35,
    "BGRI2021": "13061800308",
    "DT21": "13",
    "DTMN21": "1306",
    "DTMNFR21": "130618",
    "DTMNFRSEC21": "130618003",
    "SECNUM21": "003",
    "SSNUM21": "08",
    "SECSSNUM21": "00308",
    "OBJECTID_1": 130463,
    "DT": "13",
    "CC": "06",
    "fr": "18",
    "SEC": "003",
    "SS": "08"
  },
  "addresses": [
    {
      "id": "pt.ine.add.PTCONT.3543420",
      "street": "R CENTRAL DE CALQUIM",
      "house": "503",
      "postcode": "4475-213",
      "city": "MAIA",
      "lon": "-8.606723511287745",
      "lat": "41.25465269346038"
    },
    {
      "id": "pt.ine.add.PTCONT.3543421",
      "street": "R CENTRAL DE CALQUIM",
      "house": "407",
      "postcode": "4475-213",
      "city": "MAIA",
      "lon": "-8.607852678860608",
      "lat": "41.254053766151465"
    },
    {
      "id": "pt.ine.add.PTCONT.3662749",
      "street": "R CENTRAL DE CALQUIM",
      "house": "513",
      "postcode": "4475-213",
      "city": "MAIA",
      "lon": "-8.606652704005116",
      "lat": "41.25476103505262"
    },
    {
      "id": "pt.ine.add.PTCONT.3667720",
      "street": "R AURÉLIO DA SILVA MAIA",
      "house": "52",
      "postcode": "4475-395",
      "city": "MAIA",
      "lon": "-8.608167389973383",
      "lat": "41.25467375759266"
    },
    {
      "id": "pt.ine.add.PTCONT.3864027",
      "street": "R SERAFIM DA CRUZ",
      "house": "7",
      "postcode": "4475-669",
      "city": "MAIA",
      "lon": "-8.606004535559705",
      "lat": "41.25588021923127"
    },
    {
      "id": "pt.ine.add.PTCONT.3916681",
      "street": "R AVIOSO",
      "house": "20",
      "postcode": "4475-207",
      "city": "MAIA",
      "lon": "-8.608235128232472",
      "lat": "41.25414223052606"
    },
    {
      "id": "pt.ine.add.PTCONT.4016060",
      "street": "R CENTRAL DE CALQUIM",
      "house": "7 ESQ",
      "postcode": "4475-213",
      "city": "MAIA",
      "lon": "-8.606051417220378",
      "lat": "41.25576297214318"
    },
    {
      "id": "pt.ine.add.PTCONT.4090823",
      "street": "R AVIOSO",
      "house": "50",
      "postcode": "4475-207",
      "city": "MAIA",
      "lon": "-8.608129704534626",
      "lat": "41.254412791404064"
    },
    {
      "id": "pt.ine.add.PTCONT.4199991",
      "street": "R AURÉLIO DA SILVA MAIA",
      "house": "40",
      "postcode": "4475-395",
      "city": "MAIA",
      "lon": "-8.607593581461696",
      "lat": "41.25452305239624"
    },
    {
      "id": "pt.ine.add.PTCONT.4199992",
      "street": "R AURÉLIO DA SILVA MAIA",
      "house": "40",
      "postcode": "4475-395",
      "city": "MAIA",
      "lon": "-8.607593581461696",
      "lat": "41.25452305239624"
    },
    {
      "id": "pt.ine.add.PTCONT.4232352",
      "street": "R AURÉLIO DA SILVA MAIA",
      "house": "64",
      "postcode": "4475-395",
      "city": "MAIA",
      "lon": "-8.607977141771567",
      "lat": "41.2547645843623"
    },
    {
      "id": "pt.ine.add.PTCONT.4267459",
      "street": "R CENTRAL CALQUIM",
      "house": "537",
      "postcode": "4475-213",
      "city": "MAIA",
      "lon": "-8.606617430319899",
      "lat": "41.25483321368824"
    },
    {
      "id": "pt.ine.add.PTCONT.4360062",
      "street": "R SERAFIM DA CRUZ",
      "house": "53",
      "postcode": "4475-669",
      "city": "MAIA",
      "lon": "-8.606327270657095",
      "lat": "41.25595993095952"
    }
  ]
}