{
  "data": {
    "distrito": "Viseu",
    "concelho": "Vila Nova de Paiva",
    "freguesia": "União das freguesias de Vila Nova de Paiva, Alhais e Fráguas",
    "OBJECTID": 210,
    "BGRI2021": "18220800123",
    "DT21": "18",
    "DTMN21": "1822",
    "DTMNFR21": "182208",
    "DTMNFRSEC21": "182208001",
    "SECNUM21": "001",
    "SSNUM21": "23",
    "SECSSNUM21": "00123",
    "OBJECTID_1": 200285,
    "DT": "18",
    "CC": "22",
    "fr": "08",
    "SEC": "001",
    "SS": "23"
  },
  "addresses": [
    {
      "id": "pt.ine.add.PTCONT.5498659",
      "street": "AV NSA SRA DA GRAÇA",
      "house": "4",
      "postcode": "3650-010",
      "city": "ALHAIS",
      "lon": "-7.711695168576716",
      "lat": "40.866806383000416"
    },
    {
      "id": "pt.ine.add.PTCONT.5506462",
      "street": "R EIRA",
      "house": "6",
      "postcode": "3650-010",
      "city": "ALHAIS",
      "lon": "-7.709460714311676",
      "lat": "40.86378158630798"
    },
    {
      "id": "pt.ine.add.PTCONT.5521776",
      "street": "AV CÓNEGO MANUEL FONSECA DA GAMA",
      "house": "",
      "postcode": "3650-010",
      "city": "ALHAIS",
      "lon": "-7.710939580319418",
      "lat": "40.86624532187656"
    },
    {
      "id": "pt.ine.add.PTCONT.5540946",
      "street": "AV NSA SRA DA GRAÇA",
      "house": "6",
      "postcode": "3650-010",
      "city": "ALHAIS",
      "lon": "-7.71180089452335",
      "lat": "40.866968855771816"
    },
    {
      "id": "pt.ine.add.PTCONT.5548486",
      "street": "AV NSA SRA DA GRAÇA",
      "house": "2",
      "postcode": "3650-010",
      "city": "ALHAIS",
      "lon": "-7.711317201451114",
      "lat": "40.86655286685744"
    },
    {
      "id": "pt.ine.add.PTCONT.5558245",
      "street": "AV NSA SRA DA GRAÇA",
      "house": "",
      "postcode": "3650-010",
      "city": "ALHAIS",
      "lon": "-7.71132780594837",
      "lat": "40.86675101143587"
    },
    {
      "id": "pt.ine.add.PTCONT.5570249",
      "street": "AV NSA SRA DA GRAÇA",
      "house": "8",
      "postcode": "3650-010",
      "city": "ALHAIS",
      "lon": "-7.711882726759832",
      "lat": "40.867158255615585"
    },
    {
      "id": "pt.ine.add.PTCONT.5583170",
      "street": "AV CONG MANUEL FONSECA GAMA",
      "house": "",
      "postcode": "3650-010",
      "city": "ALHAIS",
      "lon": "-7.709951536866495",
      "lat": "40.86493600392071"
    },
    {
      "id": "pt.ine.add.PTCONT.5592460",
      "street": "R EIRA",
      "house": "4",
      "postcode": "3650-010",
      "city": "ALHAIS",
      "lon": "-7.709544199720871",
      "lat": "40.86370985438961"
    },
    {
      "id": "pt.ine.add.PTCONT.5650635",
      "street": "R EIRA",
      "house": "2",
      "postcode": "3650-010",
      "city": "ALHAIS",
      "lon": "-7.709487936095459",
      "lat": "40.863232392643916"
    },
    {
      "id": "pt.ine.add.PTCONT.5662773",
      "street": "AV NSA SRA GRACA",
      "house": "",
      "postcode": "3650-010",
      "city": "ALHAIS",
      "lon": "-7.710269496448849",
      "lat": "40.865297362369496"
    }
  ]
}