{
  "data": {
    "distrito": "Porto",
    "concelho": "Lousada",
    "freguesia": "Sousela",
    "OBJECTID": 93,
    "BGRI2021": "13052400103",
    "DT21": "13",
    "DTMN21": "1305",
    "DTMNFR21": "130524",
    "DTMNFRSEC21": "130524001",
    "SECNUM21": "001",
    "SSNUM21": "03",
    "SECSSNUM21": "00103",
    "OBJECTID_1": 129827,
    "DT": "13",
    "CC": "05",
    "fr": "24",
    "SEC": "001",
    "SS": "03"
  },
  "addresses": [
    {
      "id": "pt.ine.add.PTCONT.3669805",
      "street": "R OUTEIRO",
      "house": "110",
      "postcode": "4620-725",
      "city": "SOUSELA",
      "lon": "-8.3045100198937",
      "lat": "41.29694553473871"
    },
    {
      "id": "pt.ine.add.PTCONT.3685509",
      "street": "ESTR BRAGADA",
      "house": "671",
      "postcode": "4620-722",
      "city": "SOUSELA",
      "lon": "-8.298410023626532",
      "lat": "41.29735063884566"
    },
    {
      "id": "pt.ine.add.PTCONT.3742078",
      "street": "R OUTEIRO",
      "house": "78",
      "postcode": "4620-725",
      "city": "SOUSELA",
      "lon": "-8.304951680385903",
      "lat": "41.29690885963032"
    },
    {
      "id": "pt.ine.add.PTCONT.3772012",
      "street": "RUELA CERRADO",
      "house": "30",
      "postcode": "4620-725",
      "city": "SOUSELA",
      "lon": "-8.304473377085241",
      "lat": "41.2966304435131"
    },
    {
      "id": "pt.ine.add.PTCONT.3815520",
      "street": "R OUTEIRO",
      "house": "6",
      "postcode": "4620-725",
      "city": "SOUSELA",
      "lon": "-8.305596901697182",
      "lat": "41.29709698211564"
    },
    {
      "id": "pt.ine.add.PTCONT.3935077",
      "street": "ESTR BRAGADA",
      "house": "113",
      "postcode": "4620-722",
      "city": "SOUSELA",
      "lon": "-8.298431174127746",
      "lat": "41.296270108621684"
    },
    {
      "id": "pt.ine.add.PTCONT.3975850",
      "street": "ESTR BRAGADA",
      "house": "821",
      "postcode": "4620-722",
      "city": "SOUSELA",
      "lon": "-8.299876276620688",
      "lat": "41.296448107531404"
    },
    {
      "id": "pt.ine.add.PTCONT.3978834",
      "street": "RUELA FEITORIA",
      "house": "5",
      "postcode": "4620-717",
      "city": "SOUSELA",
      "lon": "-8.304079875006133",
      "lat": "41.2968201160813"
    },
    {
      "id": "pt.ine.add.PTCONT.4022427",
      "street": "ESTR BRAGADA",
      "house": "865",
      "postcode": "4620-722",
      "city": "SOUSELA",
      "lon": "-8.300090930290079",
      "lat": "41.296348750542236"
    },
    {
      "id": "pt.ine.add.PTCONT.4057671",
      "street": "ESTR BRAGADA",
      "house": "261",
      "postcode": "4620-722",
      "city": "SOUSELA",
      "lon": "-8.29640310342323",
      "lat": "41.29691229908822"
    },
    {
      "id": "pt.ine.add.PTCONT.4090746",
      "street": "R OUTEIRO",
      "house": "120",
      "postcode": "4620-725",
      "city": "SOUSELA",
      "lon": "-8.304342892889725",
      "lat": "41.296954787622724"
    },
    {
      "id": "pt.ine.add.PTCONT.4117020",
      "street": "ESTR BRAGADA",
      "house": "733",
      "postcode": "4620-722",
      "city": "SOUSELA",
      "lon": "-8.2988264213442",
      "lat": "41.296764769443065"
    },
    {
      "id": "pt.ine.add.PTCONT.4122137",
      "street": "R FEITORIA",
      "house": "29",
      "postcode": "4620-725",
      "city": "SOUSELA",
      "lon": "-8.304258917468479",
      "lat": "41.29680184169929"
    },
    {
      "id": "pt.ine.add.PTCONT.4182296",
      "street": "RUELA DA FEITORIA",
      "house": "47",
      "postcode": "4620-725",
      "city": "SOUSELA",
      "lon": "-8.304461838421192",
      "lat": "41.296783531497915"
    },
    {
      "id": "pt.ine.add.PTCONT.4234489",
      "street": "ESTR BRAGADA",
      "house": "837",
      "postcode": "4620-722",
      "city": "SOUSELA",
      "lon": "-8.29974538041714",
      "lat": "41.29661937623285"
    },
    {
      "id": "pt.ine.add.PTCONT.4358733",
      "street": "ESTR S MARIA DE SOUSELA",
      "house": "1531",
      "postcode": "4620-469",
      "city": "SOUSELA",
      "lon": "-8.305500320020759",
      "lat": "41.29669193937154"
    }
  ]
}