{
  "data": {
    "distrito": "Leiria",
    "concelho": "Pombal",
    "freguesia": "Redinha",
    "OBJECTID": 471,
    "BGRI2021": "10151000131",
    "DT21": "10",
    "DTMN21": "1015",
    "DTMNFR21": "101510",
    "DTMNFRSEC21": "101510001",
    "SECNUM21": "001",
    "SSNUM21": "31",
    "SECSSNUM21": "00131",
    "OBJECTID_1": 95504,
    "DT": "10",
    "CC": "15",
    "fr": "10",
    "SEC": "001",
    "SS": "31"
  },
  "addresses": [
    {
      "id": "pt.ine.add.PTCONT.2007224",
      "street": "R LUCIO SILVA",
      "house": "22",
      "postcode": "3105-333",
      "city": "REDINHA",
      "lon": "-8.58110294688959",
      "lat": "40.005476722991816"
    },
    {
      "id": "pt.ine.add.PTCONT.2007225",
      "street": "R LUCIO SILVA",
      "house": "24",
      "postcode": "3105-333",
      "city": "REDINHA",
      "lon": "-8.58110294688959",
      "lat": "40.005476722991816"
    },
    {
      "id": "pt.ine.add.PTCONT.2040690",
      "street": "R LUCIO SILVA",
      "house": "28",
      "postcode": "3105-333",
      "city": "REDINHA",
      "lon": "-8.581045274674134",
      "lat": "40.0056120380414"
    },
    {
      "id": "pt.ine.add.PTCONT.2040691",
      "street": "R LUCIO SILVA",
      "house": "28",
      "postcode": "3105-333",
      "city": "REDINHA",
      "lon": "-8.581045274674134",
      "lat": "40.0056120380414"
    },
    {
      "id": "pt.ine.add.PTCONT.2080129",
      "street": "R LUCIO DA SILVA",
      "house": "18",
      "postcode": "3105-333",
      "city": "REDINHA",
      "lon": "-8.581172447628818",
      "lat": "40.00535937446534"
    },
    {
      "id": "pt.ine.add.PTCONT.2094214",
      "street": "R LUCIO SILVA",
      "house": "8",
      "postcode": "3105-333",
      "city": "REDINHA",
      "lon": "-8.581062751772018",
      "lat": "40.0047023500866"
    },
    {
      "id": "pt.ine.add.PTCONT.2112180",
      "street": "R LUCIO DA SILVA",
      "house": "16",
      "postcode": "3105-333",
      "city": "REDINHA",
      "lon": "-8.581230178267688",
      "lat": "40.0052330652639"
    },
    {
      "id": "pt.ine.add.PTCONT.2116829",
      "street": "R ALGARES",
      "house": "7",
      "postcode": "3105-322",
      "city": "REDINHA",
      "lon": "-8.5809820113882",
      "lat": "40.00489179114037"
    },
    {
      "id": "pt.ine.add.PTCONT.2187225",
      "street": "R CAEIRO",
      "house": "9",
      "postcode": "3105-325",
      "city": "REDINHA",
      "lon": "-8.581388241646973",
      "lat": "40.00433183967233"
    },
    {
      "id": "pt.ine.add.PTCONT.2197948",
      "street": "R LUCIO SILVA",
      "house": "10",
      "postcode": "3105-333",
      "city": "REDINHA",
      "lon": "-8.581194044400076",
      "lat": "40.00508010055034"
    },
    {
      "id": "pt.ine.add.PTCONT.2212110",
      "street": "R LUCIO DA SILVA",
      "house": "5",
      "postcode": "3105-333",
      "city": "REDINHA",
      "lon": "-8.581473634403897",
      "lat": "40.00485386566175"
    },
    {
      "id": "pt.ine.add.PTCONT.2227169",
      "street": "R LUCIO SILVA",
      "house": "36",
      "postcode": "3105-333",
      "city": "REDINHA",
      "lon": "-8.580964003550662",
      "lat": "40.005720425830866"
    },
    {
      "id": "pt.ine.add.PTCONT.2227170",
      "street": "R LUCIO SILVA",
      "house": "34",
      "postcode": "3105-333",
      "city": "REDINHA",
      "lon": "-8.580964003550662",
      "lat": "40.005720425830866"
    },
    {
      "id": "pt.ine.add.PTCONT.2227171",
      "street": "R LUCIO SILVA",
      "house": "38",
      "postcode": "3105-333",
      "city": "REDINHA",
      "lon": "-8.580964003550662",
      "lat": "40.005720425830866"
    }
  ]
}