{
  "data": {
    "distrito": "Setúbal",
    "concelho": "Seixal",
    "freguesia": "Fernão Ferro",
    "OBJECTID": 344,
    "BGRI2021": "15100600202",
    "DT21": "15",
    "DTMN21": "1510",
    "DTMNFR21": "151006",
    "DTMNFRSEC21": "151006002",
    "SECNUM21": "002",
    "SSNUM21": "02",
    "SECSSNUM21": "00202",
    "OBJECTID_1": 168689,
    "DT": "15",
    "CC": "10",
    "fr": "06",
    "SEC": "002",
    "SS": "02"
  },
  "addresses": [
    {
      "id": "pt.ine.add.PTCONT.4676112",
      "street": "R JOSE DE BARROS E VASCONCELOS",
      "house": "3835",
      "postcode": "2865-304",
      "city": "FERNÃO FERRO",
      "lon": "-9.061165377948868",
      "lat": "38.55337792563262"
    },
    {
      "id": "pt.ine.add.PTCONT.4693517",
      "street": "R JACOB SARMENTO",
      "house": "1215 A",
      "postcode": "2865-292",
      "city": "FERNÃO FERRO",
      "lon": "-9.061020660828211",
      "lat": "38.553721383540264"
    },
    {
      "id": "pt.ine.add.PTCONT.4727660",
      "street": "R JACOB SARMENTO",
      "house": "3829",
      "postcode": "2865-292",
      "city": "FERNÃO FERRO",
      "lon": "-9.060791133055552",
      "lat": "38.553714194526876"
    },
    {
      "id": "pt.ine.add.PTCONT.4794292",
      "street": "R JOAQUIM BOTELHO COSTA",
      "house": "3833 36",
      "postcode": "2865-301",
      "city": "FERNÃO FERRO",
      "lon": "-9.060960181718965",
      "lat": "38.55347864216351"
    },
    {
      "id": "pt.ine.add.PTCONT.4893129",
      "street": "R JOAQUIM BOTELHO COSTA",
      "house": "3837",
      "postcode": "2865-301",
      "city": "FERNÃO FERRO",
      "lon": "-9.061094238734348",
      "lat": "38.55319832606111"
    },
    {
      "id": "pt.ine.add.PTCONT.4893130",
      "street": "R JOAQUIM BOTELHO DA COSTA",
      "house": "3837 B",
      "postcode": "2865-301",
      "city": "FERNÃO FERRO",
      "lon": "-9.061094238734348",
      "lat": "38.55319832606111"
    },
    {
      "id": "pt.ine.add.PTCONT.5006389",
      "street": "R JOAQUIM BOTELHO DA COSTA",
      "house": "3841",
      "postcode": "2865-301",
      "city": "FERNÃO FERRO",
      "lon": "-9.061238838691622",
      "lat": "38.55284586079067"
    },
    {
      "id": "pt.ine.add.PTCONT.5007035",
      "street": "R JOAQUIM BOTELHO DA COSTA",
      "house": "3841",
      "postcode": "2865-301",
      "city": "FERNÃO FERRO",
      "lon": "-9.061238838691622",
      "lat": "38.55284586079067"
    },
    {
      "id": "pt.ine.add.PTCONT.5017862",
      "street": "R JOSE DE BARROS E VASCONCELOS",
      "house": "3838",
      "postcode": "2865-304",
      "city": "FERNÃO FERRO",
      "lon": "-9.061266180661162",
      "lat": "38.55318795473106"
    },
    {
      "id": "pt.ine.add.PTCONT.5036176",
      "street": "R JOAQUIM BOTELHO COSTA",
      "house": "3837",
      "postcode": "2865-301",
      "city": "FERNÃO FERRO",
      "lon": "-9.061216824255705",
      "lat": "38.5529181007466"
    },
    {
      "id": "pt.ine.add.PTCONT.5050766",
      "street": "R JOSE DE BARROS E VASCONCELOS",
      "house": "1260",
      "postcode": "2865-304",
      "city": "FERNÃO FERRO",
      "lon": "-9.061133282363581",
      "lat": "38.55355834360451"
    }
  ]
}