{
  "data": {
    "distrito": "Setúbal",
    "concelho": "Seixal",
    "freguesia": "Fernão Ferro",
    "OBJECTID": 363,
    "BGRI2021": "15100600213",
    "DT21": "15",
    "DTMN21": "1510",
    "DTMNFR21": "151006",
    "DTMNFRSEC21": "151006002",
    "SECNUM21": "002",
    "SSNUM21": "13",
    "SECSSNUM21": "00213",
    "OBJECTID_1": 168001,
    "DT": "15",
    "CC": "10",
    "fr": "06",
    "SEC": "002",
    "SS": "13"
  },
  "addresses": [
    {
      "id": "pt.ine.add.PTCONT.4687372",
      "street": "R FERNÃO DE MAGALHÃES FAZENDA GRANDE",
      "house": "",
      "postcode": "2865-275",
      "city": "FERNÃO FERRO",
      "lon": "-9.067926305876867",
      "lat": "38.54837864178921"
    },
    {
      "id": "pt.ine.add.PTCONT.4709497",
      "street": "R RESERVA NATURAL DE CAMBARINHO",
      "house": "",
      "postcode": "2865-745",
      "city": "FERNÃO FERRO",
      "lon": "-9.069035769517626",
      "lat": "38.55432418075445"
    },
    {
      "id": "pt.ine.add.PTCONT.4780210",
      "street": "R FERNÃO DE MAGALHÃES",
      "house": "",
      "postcode": "2865-275",
      "city": "FERNÃO FERRO",
      "lon": "-9.067097921715975",
      "lat": "38.548187073797415"
    },
    {
      "id": "pt.ine.add.PTCONT.4851058",
      "street": "TV MOINHO DE CORROIOS",
      "house": "",
      "postcode": "2865-746",
      "city": "FERNÃO FERRO",
      "lon": "-9.068304644914825",
      "lat": "38.54659200014417"
    },
    {
      "id": "pt.ine.add.PTCONT.4856492",
      "street": "TV MOINHO DE CORROIOS",
      "house": "",
      "postcode": "2865-746",
      "city": "FERNÃO FERRO",
      "lon": "-9.068260750418835",
      "lat": "38.546745489885936"
    },
    {
      "id": "pt.ine.add.PTCONT.4902132",
      "street": "TV MOINHO DE CORROIOS",
      "house": "",
      "postcode": "2865-746",
      "city": "FERNÃO FERRO",
      "lon": "-9.068569259017872",
      "lat": "38.54665294326693"
    },
    {
      "id": "pt.ine.add.PTCONT.4927094",
      "street": "AV CASAL SAPO",
      "house": "9",
      "postcode": "2865-202",
      "city": "FERNÃO FERRO",
      "lon": "-9.07138793972095",
      "lat": "38.54906259436913"
    },
    {
      "id": "pt.ine.add.PTCONT.4927095",
      "street": "R ESCOLA",
      "house": "",
      "postcode": "2865-190",
      "city": "FERNÃO FERRO",
      "lon": "-9.07138793972095",
      "lat": "38.54906259436913"
    },
    {
      "id": "pt.ine.add.PTCONT.4927096",
      "street": "R ESCOLA",
      "house": "",
      "postcode": "2865-190",
      "city": "FERNÃO FERRO",
      "lon": "-9.07138793972095",
      "lat": "38.54906259436913"
    },
    {
      "id": "pt.ine.add.PTCONT.4927596",
      "street": "R ESCOLA",
      "house": "",
      "postcode": "2865-190",
      "city": "FERNÃO FERRO",
      "lon": "-9.07138793972095",
      "lat": "38.54906259436913"
    },
    {
      "id": "pt.ine.add.PTCONT.5061723",
      "street": "R FERNÃO DE MAGALHÃES FAZENDA GRANDE",
      "house": "",
      "postcode": "2865-275",
      "city": "FERNÃO FERRO",
      "lon": "-9.068278483936183",
      "lat": "38.548114591782515"
    }
  ]
}