{
  "data": {
    "distrito": "Vila Real",
    "concelho": "Valpaços",
    "freguesia": "Algeriz",
    "OBJECTID": 1017,
    "BGRI2021": "17120300130",
    "DT21": "17",
    "DTMN21": "1712",
    "DTMNFR21": "171203",
    "DTMNFRSEC21": "171203001",
    "SECNUM21": "001",
    "SSNUM21": "30",
    "SECSSNUM21": "00130",
    "OBJECTID_1": 186056,
    "DT": "17",
    "CC": "12",
    "fr": "03",
    "SEC": "001",
    "SS": "30"
  },
  "addresses": [
    {
      "id": "pt.ine.add.PTCONT.5296784",
      "street": "R DA TOUÇA",
      "house": "1",
      "postcode": "5445-013",
      "city": "ARGERIZ",
      "lon": "-7.404386318996892",
      "lat": "41.5989344226719"
    },
    {
      "id": "pt.ine.add.PTCONT.5306802",
      "street": "BR DAS REGADAS",
      "house": "",
      "postcode": "5445-014",
      "city": "ARGERIZ",
      "lon": "-7.413457487412563",
      "lat": "41.588934522739024"
    },
    {
      "id": "pt.ine.add.PTCONT.5309610",
      "street": "LG DA CAPELA",
      "house": "5",
      "postcode": "5445-013",
      "city": "ARGERIZ",
      "lon": "-7.404573856704902",
      "lat": "41.601456620992586"
    },
    {
      "id": "pt.ine.add.PTCONT.5321720",
      "street": "R DA EIRA DE CIMA",
      "house": "",
      "postcode": "5445-013",
      "city": "ARGERIZ",
      "lon": "-7.405053019069117",
      "lat": "41.59937982352393"
    },
    {
      "id": "pt.ine.add.PTCONT.5333556",
      "street": "R DA TOUÇA",
      "house": "3",
      "postcode": "5445-013",
      "city": "ARGERIZ",
      "lon": "-7.404776853787871",
      "lat": "41.599405085090034"
    },
    {
      "id": "pt.ine.add.PTCONT.5358305",
      "street": "R ALEM",
      "house": "",
      "postcode": "5445-013",
      "city": "ARGERIZ",
      "lon": "-7.404948361122721",
      "lat": "41.598019615791706"
    },
    {
      "id": "pt.ine.add.PTCONT.5388090",
      "street": "R DA EIRA DE CIMA",
      "house": "3",
      "postcode": "5445-013",
      "city": "ARGERIZ",
      "lon": "-7.405563704332293",
      "lat": "41.59983323687034"
    },
    {
      "id": "pt.ine.add.PTCONT.5392398",
      "street": "LG DA CAPELA",
      "house": "1",
      "postcode": "5445-013",
      "city": "ARGERIZ",
      "lon": "-7.404271526009519",
      "lat": "41.60060836583808"
    },
    {
      "id": "pt.ine.add.PTCONT.5394461",
      "street": "LG DA CAPELA",
      "house": "3",
      "postcode": "5445-013",
      "city": "ARGERIZ",
      "lon": "-7.404411405102733",
      "lat": "41.6009693967566"
    },
    {
      "id": "pt.ine.add.PTCONT.5401032",
      "street": "R DA EIRA DE CIMA",
      "house": "5",
      "postcode": "5445-013",
      "city": "ARGERIZ",
      "lon": "-7.405108132147855",
      "lat": "41.59981234568348"
    }
  ]
}