{
  "data": {
    "distrito": "Viseu",
    "concelho": "Tondela",
    "freguesia": "Molelos",
    "OBJECTID": 83,
    "BGRI2021": "18211100108",
    "DT21": "18",
    "DTMN21": "1821",
    "DTMNFR21": "182111",
    "DTMNFRSEC21": "182111001",
    "SECNUM21": "001",
    "SSNUM21": "08",
    "SECSSNUM21": "00108",
    "OBJECTID_1": 199352,
    "DT": "18",
    "CC": "21",
    "fr": "11",
    "SEC": "001",
    "SS": "08"
  },
  "addresses": [
    {
      "id": "pt.ine.add.PTCONT.5437268",
      "street": "R CAMPELINHO",
      "house": "261",
      "postcode": "3460-210",
      "city": "TONDELA",
      "lon": "-8.117143051314152",
      "lat": "40.51697882312989"
    },
    {
      "id": "pt.ine.add.PTCONT.5437269",
      "street": "R RACHADA DO MOINHO",
      "house": "400",
      "postcode": "3460-210",
      "city": "TONDELA",
      "lon": "-8.115467572341972",
      "lat": "40.51656433146201"
    },
    {
      "id": "pt.ine.add.PTCONT.5464548",
      "street": "R CAMPELINHO",
      "house": "173",
      "postcode": "3460-210",
      "city": "TONDELA",
      "lon": "-8.116257922615176",
      "lat": "40.51751902094253"
    },
    {
      "id": "pt.ine.add.PTCONT.5470663",
      "street": "SIT CAMPELINHO",
      "house": "",
      "postcode": "3460-246",
      "city": "TONDELA",
      "lon": "-8.115514416240657",
      "lat": "40.517924152718194"
    },
    {
      "id": "pt.ine.add.PTCONT.5503996",
      "street": "R CAMPELINHO",
      "house": "",
      "postcode": "3460-210",
      "city": "TONDELA",
      "lon": "-8.11596279855847",
      "lat": "40.51800526862839"
    },
    {
      "id": "pt.ine.add.PTCONT.5575798",
      "street": "R CAMPELINHO",
      "house": "197",
      "postcode": "3460-210",
      "city": "TONDELA",
      "lon": "-8.116741746992396",
      "lat": "40.517420031176876"
    },
    {
      "id": "pt.ine.add.PTCONT.5634175",
      "street": "LG DO CAMPELINHO",
      "house": "133",
      "postcode": "3460-210",
      "city": "TONDELA",
      "lon": "-8.116234214227472",
      "lat": "40.51795127623783"
    },
    {
      "id": "pt.ine.add.PTCONT.5660316",
      "street": "R RACHADA DO MOINHO",
      "house": "236",
      "postcode": "3460-210",
      "city": "TONDELA",
      "lon": "-8.114063253836058",
      "lat": "40.517050399728724"
    },
    {
      "id": "pt.ine.add.PTCONT.5662150",
      "street": "R CAMPELINHO",
      "house": "133",
      "postcode": "3460-210",
      "city": "TONDELA",
      "lon": "-8.116187043329795",
      "lat": "40.51783419926398"
    },
    {
      "id": "pt.ine.add.PTCONT.5667493",
      "street": "R CAMPELINHO",
      "house": "105",
      "postcode": "3460-210",
      "city": "TONDELA",
      "lon": "-8.116883372919684",
      "lat": "40.51731198645289"
    }
  ]
}