{
  "data": {
    "distrito": "Lisboa",
    "concelho": "Torres Vedras",
    "freguesia": "Silveira",
    "OBJECTID": 981,
    "BGRI2021": "11131600218",
    "DT21": "11",
    "DTMN21": "1113",
    "DTMNFR21": "111316",
    "DTMNFRSEC21": "111316002",
    "SECNUM21": "002",
    "SSNUM21": "18",
    "SECSSNUM21": "00218",
    "OBJECTID_1": 115946,
    "DT": "11",
    "CC": "13",
    "fr": "16",
    "SEC": "002",
    "SS": "18"
  },
  "addresses": [
    {
      "id": "pt.ine.add.PTCONT.2336791",
      "street": "R PARTICULAR",
      "house": "1",
      "postcode": "2560-407",
      "city": "SILVEIRA",
      "lon": "-9.339151404725628",
      "lat": "39.106476935707754"
    },
    {
      "id": "pt.ine.add.PTCONT.2336798",
      "street": "R COLMEIA",
      "house": "6",
      "postcode": "2560-407",
      "city": "SILVEIRA",
      "lon": "-9.339676190498931",
      "lat": "39.106066182129396"
    },
    {
      "id": "pt.ine.add.PTCONT.2402722",
      "street": "R STO ANTÓNIO",
      "house": "4",
      "postcode": "2560-407",
      "city": "SILVEIRA",
      "lon": "-9.338387868941927",
      "lat": "39.107124342309724"
    },
    {
      "id": "pt.ine.add.PTCONT.2450632",
      "street": "R SANTO ANTÓNIO",
      "house": "2",
      "postcode": "2560-407",
      "city": "SILVEIRA",
      "lon": "-9.338525039376377",
      "lat": "39.107032852187636"
    },
    {
      "id": "pt.ine.add.PTCONT.2482482",
      "street": "R PRINCIPAL",
      "house": "9",
      "postcode": "2560-407",
      "city": "SILVEIRA",
      "lon": "-9.338244158551124",
      "lat": "39.10615305314126"
    },
    {
      "id": "pt.ine.add.PTCONT.2497121",
      "street": "R COLMEIA",
      "house": "4",
      "postcode": "2560-407",
      "city": "SILVEIRA",
      "lon": "-9.339294144774291",
      "lat": "39.10603410720351"
    },
    {
      "id": "pt.ine.add.PTCONT.2510126",
      "street": "TV COELHO",
      "house": "4",
      "postcode": "2560-407",
      "city": "SILVEIRA",
      "lon": "-9.339507418430577",
      "lat": "39.10633814416919"
    },
    {
      "id": "pt.ine.add.PTCONT.2606176",
      "street": "R PRINCIPAL",
      "house": "15",
      "postcode": "2560-407",
      "city": "SILVEIRA",
      "lon": "-9.337930332254961",
      "lat": "39.10673275644292"
    },
    {
      "id": "pt.ine.add.PTCONT.2742397",
      "street": "R PRINCIPAL",
      "house": "5",
      "postcode": "2560-407",
      "city": "SILVEIRA",
      "lon": "-9.338205035263478",
      "lat": "39.10589224947694"
    },
    {
      "id": "pt.ine.add.PTCONT.2784208",
      "street": "R PRINCIPAL",
      "house": "17",
      "postcode": "2560-407",
      "city": "SILVEIRA",
      "lon": "-9.337908748273987",
      "lat": "39.106823051284614"
    },
    {
      "id": "pt.ine.add.PTCONT.2847554",
      "street": "R PRINCIPAL",
      "house": "13",
      "postcode": "2560-407",
      "city": "SILVEIRA",
      "lon": "-9.33825878458237",
      "lat": "39.10633304546027"
    },
    {
      "id": "pt.ine.add.PTCONT.3175746",
      "street": "R PRINCIPAL",
      "house": "11",
      "postcode": "2560-407",
      "city": "SILVEIRA",
      "lon": "-9.338176187483759",
      "lat": "39.106234820417285"
    },
    {
      "id": "pt.ine.add.PTCONT.3386841",
      "street": "R SANTO ANTÓNIO",
      "house": "6",
      "postcode": "2560-407",
      "city": "SILVEIRA",
      "lon": "-9.338296472915898",
      "lat": "39.107188337500155"
    },
    {
      "id": "pt.ine.add.PTCONT.3420476",
      "street": "R PRINCIPAL",
      "house": "7",
      "postcode": "2560-407",
      "city": "SILVEIRA",
      "lon": "-9.338218740917101",
      "lat": "39.10601820826387"
    }
  ]
}