{
  "data": {
    "distrito": "Guarda",
    "concelho": "Guarda",
    "freguesia": "Famalicão",
    "OBJECTID": 904,
    "BGRI2021": "09071700101",
    "DT21": "09",
    "DTMN21": "0907",
    "DTMNFR21": "090717",
    "DTMNFRSEC21": "090717001",
    "SECNUM21": "001",
    "SSNUM21": "01",
    "SECSSNUM21": "00101",
    "OBJECTID_1": 78242,
    "DT": "09",
    "CC": "07",
    "fr": "17",
    "SEC": "001",
    "SS": "01"
  },
  "addresses": [
    {
      "id": "pt.ine.add.PTCONT.1899812",
      "street": "QTA LUGAR DOS CAMPOS",
      "house": "",
      "postcode": "6300-100",
      "city": "FAMALICÃO GRD",
      "lon": "-7.381816785650684",
      "lat": "40.428671749851084"
    },
    {
      "id": "pt.ine.add.PTCONT.1962357",
      "street": "QTA DOS CHAPASSEIROS",
      "house": "",
      "postcode": "6300-100",
      "city": "FAMALICÃO GRD",
      "lon": "-7.3807314330419755",
      "lat": "40.424549219977074"
    },
    {
      "id": "pt.ine.add.PTCONT.1966817",
      "street": "QTA DA CARAPITA",
      "house": "",
      "postcode": "6300-100",
      "city": "FAMALICÃO GRD",
      "lon": "-7.388538923038536",
      "lat": "40.42500500996542"
    },
    {
      "id": "pt.ine.add.PTCONT.1855599",
      "street": "QTA DO SOURINHO",
      "house": "",
      "postcode": "6300-100",
      "city": "FAMALICÃO GRD",
      "lon": "-7.381640478327286",
      "lat": "40.42757194442519"
    },
    {
      "id": "pt.ine.add.PTCONT.1857493",
      "street": "QTA DA CARAPITA",
      "house": "",
      "postcode": "6300-100",
      "city": "FAMALICÃO GRD",
      "lon": "-7.386045248518431",
      "lat": "40.424601690230055"
    },
    {
      "id": "pt.ine.add.PTCONT.1865166",
      "street": "QTA DO CASTELÃO",
      "house": "",
      "postcode": "6300-100",
      "city": "FAMALICÃO GRD",
      "lon": "-7.3812589408794835",
      "lat": "40.420563253111965"
    },
    {
      "id": "pt.ine.add.PTCONT.1870847",
      "street": "QTA DA CARAPITA",
      "house": "",
      "postcode": "6300-100",
      "city": "FAMALICÃO GRD",
      "lon": "-7.384688336074332",
      "lat": "40.42476401687966"
    },
    {
      "id": "pt.ine.add.PTCONT.1887405",
      "street": "QTA DA CARAPITA",
      "house": "",
      "postcode": "6300-100",
      "city": "FAMALICÃO GRD",
      "lon": "-7.385164408659626",
      "lat": "40.422209560149824"
    }
  ]
}