{
  "data": {
    "distrito": "Guarda",
    "concelho": "Guarda",
    "freguesia": "Famalicão",
    "OBJECTID": 1021,
    "BGRI2021": "09071700121",
    "DT21": "09",
    "DTMN21": "0907",
    "DTMNFR21": "090717",
    "DTMNFRSEC21": "090717001",
    "SECNUM21": "001",
    "SSNUM21": "21",
    "SECSSNUM21": "00121",
    "OBJECTID_1": 78244,
    "DT": "09",
    "CC": "07",
    "fr": "17",
    "SEC": "001",
    "SS": "21"
  },
  "addresses": [
    {
      "id": "pt.ine.add.PTCONT.1901471",
      "street": "QTA BORGES",
      "house": "",
      "postcode": "6300-100",
      "city": "FAMALICÃO GRD",
      "lon": "-7.392516991385337",
      "lat": "40.43725990157857"
    },
    {
      "id": "pt.ine.add.PTCONT.1901472",
      "street": "QTA CASAL MIRAGAIA",
      "house": "",
      "postcode": "6300-100",
      "city": "FAMALICÃO GRD",
      "lon": "-7.398242436912341",
      "lat": "40.43748555234932"
    },
    {
      "id": "pt.ine.add.PTCONT.1902705",
      "street": "QTA BABOSA",
      "house": "",
      "postcode": "6300-100",
      "city": "FAMALICÃO GRD",
      "lon": "-7.396264836847481",
      "lat": "40.43510454441519"
    },
    {
      "id": "pt.ine.add.PTCONT.1915652",
      "street": "QTA DAS LAMEIRAS",
      "house": "",
      "postcode": "6300-100",
      "city": "FAMALICÃO GRD",
      "lon": "-7.395994106226312",
      "lat": "40.42643961725936"
    },
    {
      "id": "pt.ine.add.PTCONT.1931616",
      "street": "QTA DA TAPADA DA EIRA",
      "house": "",
      "postcode": "6300-100",
      "city": "FAMALICÃO GRD",
      "lon": "-7.3866714096281605",
      "lat": "40.445768417335074"
    },
    {
      "id": "pt.ine.add.PTCONT.1931930",
      "street": "QTA BORGES",
      "house": "",
      "postcode": "6300-100",
      "city": "FAMALICÃO GRD",
      "lon": "-7.392933909516814",
      "lat": "40.43685732892972"
    },
    {
      "id": "pt.ine.add.PTCONT.1850829",
      "street": "QTA DAS LAMEIRAS",
      "house": "",
      "postcode": "6300-100",
      "city": "FAMALICÃO GRD",
      "lon": "-7.394578128181113",
      "lat": "40.4276913381356"
    },
    {
      "id": "pt.ine.add.PTCONT.1853172",
      "street": "QTA DAS LAMEIRAS",
      "house": "",
      "postcode": "6300-100",
      "city": "FAMALICÃO GRD",
      "lon": "-7.396635799056955",
      "lat": "40.42486775925816"
    },
    {
      "id": "pt.ine.add.PTCONT.1856806",
      "street": "QTA DA TAPADA DA EIRA",
      "house": "",
      "postcode": "6300-100",
      "city": "FAMALICÃO GRD",
      "lon": "-7.387190052871683",
      "lat": "40.446834400002246"
    },
    {
      "id": "pt.ine.add.PTCONT.1863180",
      "street": "QTA DO AMIAL",
      "house": "",
      "postcode": "6300-100",
      "city": "FAMALICÃO GRD",
      "lon": "-7.389823108060335",
      "lat": "40.4421505502978"
    },
    {
      "id": "pt.ine.add.PTCONT.1867910",
      "street": "QTA DA TAPADA DA EIRA",
      "house": "",
      "postcode": "6300-100",
      "city": "FAMALICÃO GRD",
      "lon": "-7.390608581269497",
      "lat": "40.44574874657735"
    },
    {
      "id": "pt.ine.add.PTCONT.1887400",
      "street": "R SOITO GRANDE",
      "house": "",
      "postcode": "6300-100",
      "city": "FAMALICÃO GRD",
      "lon": "-7.3824301993167625",
      "lat": "40.4423909510346"
    },
    {
      "id": "pt.ine.add.PTCONT.1887401",
      "street": "R CHAO DA CAPELA",
      "house": "",
      "postcode": "6300-100",
      "city": "FAMALICÃO GRD",
      "lon": "-7.3824301993167625",
      "lat": "40.4423909510346"
    }
  ]
}