{
  "data": {
    "distrito": "Porto",
    "concelho": "Penafiel",
    "freguesia": "Duas Igrejas",
    "OBJECTID": 1332,
    "BGRI2021": "13110900109",
    "DT21": "13",
    "DTMN21": "1311",
    "DTMNFR21": "131109",
    "DTMNFRSEC21": "131109001",
    "SECNUM21": "001",
    "SSNUM21": "09",
    "SECSSNUM21": "00109",
    "OBJECTID_1": 137514,
    "DT": "13",
    "CC": "11",
    "fr": "09",
    "SEC": "001",
    "SS": "09"
  },
  "addresses": [
    {
      "id": "pt.ine.add.PTCONT.3545144",
      "street": "R DA EIRA VELHA",
      "house": "",
      "postcode": "4560-071",
      "city": "DUAS IGREJAS PNF",
      "lon": "-8.285377982664642",
      "lat": "41.17650443170493"
    },
    {
      "id": "pt.ine.add.PTCONT.3568057",
      "street": "R CARVALHAL",
      "house": "140",
      "postcode": "4560-073",
      "city": "DUAS IGREJAS PNF",
      "lon": "-8.287313936889575",
      "lat": "41.17369249671712"
    },
    {
      "id": "pt.ine.add.PTCONT.3611557",
      "street": "R LIBERDADE",
      "house": "405",
      "postcode": "4560-071",
      "city": "DUAS IGREJAS PNF",
      "lon": "-8.28580276578102",
      "lat": "41.17467598503979"
    },
    {
      "id": "pt.ine.add.PTCONT.3611558",
      "street": "R LIBERDADE",
      "house": "405",
      "postcode": "4560-071",
      "city": "DUAS IGREJAS PNF",
      "lon": "-8.28580276578102",
      "lat": "41.17467598503979"
    },
    {
      "id": "pt.ine.add.PTCONT.3784148",
      "street": "R CARVALHAL",
      "house": "248",
      "postcode": "4560-073",
      "city": "DUAS IGREJAS PNF",
      "lon": "-8.288160357334409",
      "lat": "41.1738264257964"
    },
    {
      "id": "pt.ine.add.PTCONT.4216578",
      "street": "CC EIRA VELHA",
      "house": "",
      "postcode": "4560-071",
      "city": "DUAS IGREJAS PNF",
      "lon": "-8.285126196732568",
      "lat": "41.1758474463559"
    },
    {
      "id": "pt.ine.add.PTCONT.4229302",
      "street": "CC EIRA VELHA",
      "house": "",
      "postcode": "4560-071",
      "city": "DUAS IGREJAS PNF",
      "lon": "-8.285234244244547",
      "lat": "41.17618946921295"
    },
    {
      "id": "pt.ine.add.PTCONT.4242519",
      "street": "R CARVALHAL",
      "house": "266",
      "postcode": "4560-073",
      "city": "DUAS IGREJAS PNF",
      "lon": "-8.28829197505361",
      "lat": "41.1740513575094"
    },
    {
      "id": "pt.ine.add.PTCONT.4335641",
      "street": "R CARVALHAL",
      "house": "",
      "postcode": "4560-073",
      "city": "DUAS IGREJAS PNF",
      "lon": "-8.286753210035982",
      "lat": "41.17342311527784"
    },
    {
      "id": "pt.ine.add.PTCONT.4361169",
      "street": "R CARVALHAL",
      "house": "",
      "postcode": "4560-073",
      "city": "DUAS IGREJAS PNF",
      "lon": "-8.287445192180337",
      "lat": "41.17376435578891"
    },
    {
      "id": "pt.ine.add.PTCONT.4367634",
      "street": "R CARVALHAL",
      "house": "40",
      "postcode": "4560-073",
      "city": "DUAS IGREJAS PNF",
      "lon": "-8.287049614394155",
      "lat": "41.17277440558789"
    }
  ]
}