{
  "data": {
    "distrito": "Porto",
    "concelho": "Paredes",
    "freguesia": "Paredes",
    "OBJECTID": 380,
    "BGRI2021": "13102500615",
    "DT21": "13",
    "DTMN21": "1310",
    "DTMNFR21": "131025",
    "DTMNFRSEC21": "131025006",
    "SECNUM21": "006",
    "SSNUM21": "15",
    "SECSSNUM21": "00615",
    "OBJECTID_1": 135582,
    "DT": "13",
    "CC": "10",
    "fr": "25",
    "SEC": "006",
    "SS": "15"
  },
  "addresses": [
    {
      "id": "pt.ine.add.PTCONT.3632246",
      "street": "R ALQUEIDﾃグ QTA DO ALQUEIDﾃグ",
      "house": "77",
      "postcode": "4580-594",
      "city": "MOURIZ",
      "lon": "-8.362039719895128",
      "lat": "41.196070049806785"
    },
    {
      "id": "pt.ine.add.PTCONT.3671021",
      "street": "R CENTRAL DE MOURIZ CASA DO CRUZEIRO",
      "house": "993",
      "postcode": "4580-590",
      "city": "MOURIZ",
      "lon": "-8.36101889197525",
      "lat": "41.197332678965225"
    },
    {
      "id": "pt.ine.add.PTCONT.3742871",
      "street": "TV CASINHA",
      "house": "48",
      "postcode": "4580-594",
      "city": "MOURIZ",
      "lon": "-8.361516826363104",
      "lat": "41.196539312576924"
    },
    {
      "id": "pt.ine.add.PTCONT.3768013",
      "street": "TV CASINHA",
      "house": "58",
      "postcode": "4580-594",
      "city": "MOURIZ",
      "lon": "-8.361171460547501",
      "lat": "41.19663904450319"
    },
    {
      "id": "pt.ine.add.PTCONT.3837644",
      "street": "R ALQUEIDﾃグ",
      "house": "85",
      "postcode": "4580-594",
      "city": "MOURIZ",
      "lon": "-8.361991691135593",
      "lat": "41.19597109776055"
    },
    {
      "id": "pt.ine.add.PTCONT.3929865",
      "street": "R ALQUEIDAO",
      "house": "N 85",
      "postcode": "4580-594",
      "city": "MOURIZ",
      "lon": "-8.36186081182504",
      "lat": "41.19604339234216"
    },
    {
      "id": "pt.ine.add.PTCONT.4000221",
      "street": "TV CASINHA",
      "house": "58",
      "postcode": "4580-594",
      "city": "MOURIZ",
      "lon": "-8.361350557635088",
      "lat": "41.19671972856747"
    },
    {
      "id": "pt.ine.add.PTCONT.4072593",
      "street": "R CENTRAL DE MOURIZ CASA DA PORTELA",
      "house": "1037",
      "postcode": "4580-590",
      "city": "MOURIZ",
      "lon": "-8.361804215808734",
      "lat": "41.196907919280925"
    },
    {
      "id": "pt.ine.add.PTCONT.4078652",
      "street": "R CASINHA",
      "house": "7",
      "postcode": "4580-594",
      "city": "MOURIZ",
      "lon": "-8.362494758661887",
      "lat": "41.196654425074854"
    },
    {
      "id": "pt.ine.add.PTCONT.4111215",
      "street": "R ALQUEIDAO",
      "house": "85",
      "postcode": "4580-594",
      "city": "MOURIZ",
      "lon": "-8.361883932623241",
      "lat": "41.19583624708058"
    },
    {
      "id": "pt.ine.add.PTCONT.4144407",
      "street": "R CASINHA",
      "house": "7",
      "postcode": "4580-594",
      "city": "MOURIZ",
      "lon": "-8.36239979882189",
      "lat": "41.19677167030121"
    },
    {
      "id": "pt.ine.add.PTCONT.4157478",
      "street": "R ALQUEIDﾃグ",
      "house": "208",
      "postcode": "4580-594",
      "city": "MOURIZ",
      "lon": "-8.359545327343602",
      "lat": "41.19522857506554"
    },
    {
      "id": "pt.ine.add.PTCONT.4219216",
      "street": "TV CASINHA",
      "house": "25",
      "postcode": "4580-594",
      "city": "MOURIZ",
      "lon": "-8.361577026340044",
      "lat": "41.19671027520997"
    },
    {
      "id": "pt.ine.add.PTCONT.4315755",
      "street": "R CENTRAL DE MOURIZ CASA DO CRUZEIRO",
      "house": "993",
      "postcode": "4580-590",
      "city": "MOURIZ",
      "lon": "-8.360935631152442",
      "lat": "41.197386869603505"
    },
    {
      "id": "pt.ine.add.PTCONT.4321837",
      "street": "R CENTRAL DE MOURIZ",
      "house": "1027",
      "postcode": "4580-590",
      "city": "MOURIZ",
      "lon": "-8.361709504992112",
      "lat": "41.19709719797716"
    },
    {
      "id": "pt.ine.add.PTCONT.4378634",
      "street": "TV CASINHA",
      "house": "25",
      "postcode": "4580-594",
      "city": "MOURIZ",
      "lon": "-8.361779872238019",
      "lat": "41.196763898537526"
    }
  ]
}