{
  "data": {
    "distrito": "Aveiro",
    "concelho": "Sever do Vouga",
    "freguesia": "Sever do Vouga",
    "OBJECTID": 11,
    "BGRI2021": "01170600312",
    "DT21": "01",
    "DTMN21": "0117",
    "DTMNFR21": "011706",
    "DTMNFRSEC21": "011706003",
    "SECNUM21": "003",
    "SSNUM21": "12",
    "SECSSNUM21": "00312",
    "OBJECTID_1": 11349,
    "DT": "01",
    "CC": "17",
    "fr": "06",
    "SEC": "003",
    "SS": "12"
  },
  "addresses": [
    {
      "id": "pt.ine.add.PTCONT.297069",
      "street": "CORTINHA",
      "house": "",
      "postcode": "3740-206",
      "city": "SEVER DO VOUGA",
      "lon": "-8.372583953986922",
      "lat": "40.72778701769854"
    },
    {
      "id": "pt.ine.add.PTCONT.339517",
      "street": "R ADEAO",
      "house": "",
      "postcode": "3740-220",
      "city": "SEVER DO VOUGA",
      "lon": "-8.373678467502868",
      "lat": "40.72931560013083"
    },
    {
      "id": "pt.ine.add.PTCONT.342947",
      "street": "R PORTELADA",
      "house": "",
      "postcode": "3740-220",
      "city": "SEVER DO VOUGA",
      "lon": "-8.373572580702518",
      "lat": "40.729495921718815"
    },
    {
      "id": "pt.ine.add.PTCONT.344379",
      "street": "R PORTELADA",
      "house": "",
      "postcode": "3740-220",
      "city": "SEVER DO VOUGA",
      "lon": "-8.373240457448006",
      "lat": "40.729307507123245"
    },
    {
      "id": "pt.ine.add.PTCONT.32884",
      "street": "R PORTELADA",
      "house": "",
      "postcode": "3740-220",
      "city": "SEVER DO VOUGA",
      "lon": "-8.373252845011992",
      "lat": "40.72946056716458"
    },
    {
      "id": "pt.ine.add.PTCONT.136910",
      "street": "R LAMEIRAS",
      "house": "",
      "postcode": "3740-219",
      "city": "SEVER DO VOUGA",
      "lon": "-8.372571180942012",
      "lat": "40.72752589773131"
    },
    {
      "id": "pt.ine.add.PTCONT.191567",
      "street": "TV PORTELADA",
      "house": "",
      "postcode": "3740-220",
      "city": "SEVER DO VOUGA",
      "lon": "-8.37275458167993",
      "lat": "40.7291554310696"
    }
  ]
}