{
  "data": {
    "distrito": "Lisboa",
    "concelho": "Sintra",
    "freguesia": "União das freguesias de Sintra (Santa Maria e São Miguel, São Martinho e São Pedro de Penaferrim)",
    "OBJECTID": 1595,
    "BGRI2021": "11112800702",
    "DT21": "11",
    "DTMN21": "1111",
    "DTMNFR21": "111128",
    "DTMNFRSEC21": "111128007",
    "SECNUM21": "007",
    "SSNUM21": "02",
    "SECSSNUM21": "00702",
    "OBJECTID_1": 114496,
    "DT": "11",
    "CC": "11",
    "fr": "28",
    "SEC": "007",
    "SS": "02"
  },
  "addresses": [
    {
      "id": "pt.ine.add.PTCONT.2500394",
      "street": "R AUGUSTO TEODORO DA SILVA",
      "house": "9",
      "postcode": "2710-352",
      "city": "SINTRA",
      "lon": "-9.368577388644562",
      "lat": "38.81045669132782"
    },
    {
      "id": "pt.ine.add.PTCONT.2994621",
      "street": "ESTR S ROMAO",
      "house": "18",
      "postcode": "2710-388",
      "city": "SINTRA",
      "lon": "-9.368511903949939",
      "lat": "38.81066455846254"
    },
    {
      "id": "pt.ine.add.PTCONT.3078424",
      "street": "R AUGUSTO TEODORO DA SILVA",
      "house": "5",
      "postcode": "2710-352",
      "city": "SINTRA",
      "lon": "-9.36880977694828",
      "lat": "38.81058033973959"
    },
    {
      "id": "pt.ine.add.PTCONT.3078426",
      "street": "R AUGUSTO TEODORO SILVA",
      "house": "1 A",
      "postcode": "2710-352",
      "city": "SINTRA",
      "lon": "-9.369171272369956",
      "lat": "38.810846743168916"
    },
    {
      "id": "pt.ine.add.PTCONT.3142360",
      "street": "ESTR S ROMÃO",
      "house": "10",
      "postcode": "2710-388",
      "city": "SINTRA",
      "lon": "-9.368721116146501",
      "lat": "38.810779444537985"
    },
    {
      "id": "pt.ine.add.PTCONT.3173747",
      "street": "ESTR S ROMÃO",
      "house": "4",
      "postcode": "2710-388",
      "city": "SINTRA",
      "lon": "-9.36897699377721",
      "lat": "38.81092986693062"
    },
    {
      "id": "pt.ine.add.PTCONT.3190213",
      "street": "ESTR S ROMÃO",
      "house": "8",
      "postcode": "2710-388",
      "city": "SINTRA",
      "lon": "-9.36888397553751",
      "lat": "38.81087680539062"
    },
    {
      "id": "pt.ine.add.PTCONT.3390656",
      "street": "ESTR S ROMÃO",
      "house": "18",
      "postcode": "2710-388",
      "city": "SINTRA",
      "lon": "-9.368416864069998",
      "lat": "38.81049441922695"
    }
  ]
}