{
  "data": {
    "distrito": "Beja",
    "concelho": "Mértola",
    "freguesia": "Mértola",
    "OBJECTID": 550,
    "BGRI2021": "02090400120",
    "DT21": "02",
    "DTMN21": "0209",
    "DTMNFR21": "020904",
    "DTMNFRSEC21": "020904001",
    "SECNUM21": "001",
    "SSNUM21": "20",
    "SECSSNUM21": "00120",
    "OBJECTID_1": 15639,
    "DT": "02",
    "CC": "09",
    "fr": "04",
    "SEC": "001",
    "SS": "20"
  },
  "addresses": [
    {
      "id": "pt.ine.add.PTCONT.456735",
      "street": "",
      "house": "",
      "postcode": "7750-313",
      "city": "MÉRTOLA",
      "lon": "-7.619960563805963",
      "lat": "37.62087054489069"
    },
    {
      "id": "pt.ine.add.PTCONT.368156",
      "street": "",
      "house": "",
      "postcode": "7750-313",
      "city": "MÉRTOLA",
      "lon": "-7.620066565592147",
      "lat": "37.620664636726566"
    },
    {
      "id": "pt.ine.add.PTCONT.384039",
      "street": "R DAS ANDORINHAS",
      "house": "",
      "postcode": "7750-313",
      "city": "MÉRTOLA",
      "lon": "-7.619771388420029",
      "lat": "37.620762460591564"
    },
    {
      "id": "pt.ine.add.PTCONT.402401",
      "street": "R ANDORINHAS",
      "house": "",
      "postcode": "7750-313",
      "city": "MÉRTOLA",
      "lon": "-7.619839225180472",
      "lat": "37.620780775252605"
    },
    {
      "id": "pt.ine.add.PTCONT.402993",
      "street": "TV FORNO",
      "house": "",
      "postcode": "7750-313",
      "city": "MÉRTOLA",
      "lon": "-7.619839225180472",
      "lat": "37.620780775252605"
    },
    {
      "id": "pt.ine.add.PTCONT.416803",
      "street": "R POCO MOUTA CIMA",
      "house": "",
      "postcode": "7750-313",
      "city": "MÉRTOLA",
      "lon": "-7.620044242181813",
      "lat": "37.6207730850337"
    },
    {
      "id": "pt.ine.add.PTCONT.418063",
      "street": "",
      "house": "",
      "postcode": "7750-313",
      "city": "MÉRTOLA",
      "lon": "-7.61986365778971",
      "lat": "37.620644017508525"
    },
    {
      "id": "pt.ine.add.PTCONT.443292",
      "street": "",
      "house": "",
      "postcode": "7750-313",
      "city": "MÉRTOLA",
      "lon": "-7.620054805429486",
      "lat": "37.62072765408011"
    },
    {
      "id": "pt.ine.add.PTCONT.448986",
      "street": "",
      "house": "",
      "postcode": "7750-313",
      "city": "MÉRTOLA",
      "lon": "-7.619952245237787",
      "lat": "37.620817305944165"
    }
  ]
}