{
  "data": {
    "distrito": "Viseu",
    "concelho": "Oliveira de Frades",
    "freguesia": "União das freguesias de Arca e Varzielas",
    "OBJECTID": 499,
    "BGRI2021": "18101300121",
    "DT21": "18",
    "DTMN21": "1810",
    "DTMNFR21": "181013",
    "DTMNFRSEC21": "181013001",
    "SECNUM21": "001",
    "SSNUM21": "21",
    "SECSSNUM21": "00121",
    "OBJECTID_1": 194193,
    "DT": "18",
    "CC": "10",
    "fr": "13",
    "SEC": "001",
    "SS": "21"
  },
  "addresses": [
    {
      "id": "pt.ine.add.PTCONT.5523450",
      "street": "R SINTEIRO",
      "house": "2",
      "postcode": "3475-020",
      "city": "VARZIELAS",
      "lon": "-8.183810565609189",
      "lat": "40.592595583741286"
    },
    {
      "id": "pt.ine.add.PTCONT.5540491",
      "street": "R PRINCIPAL",
      "house": "7",
      "postcode": "3475-020",
      "city": "VARZIELAS",
      "lon": "-8.184849272580538",
      "lat": "40.59148747444289"
    },
    {
      "id": "pt.ine.add.PTCONT.5548616",
      "street": "R CABEÇA DA MUNHA",
      "house": "3",
      "postcode": "3475-020",
      "city": "VARZIELAS",
      "lon": "-8.184034783937172",
      "lat": "40.5922893058106"
    },
    {
      "id": "pt.ine.add.PTCONT.5561413",
      "street": "TV CAMPO DA BOLA",
      "house": "2",
      "postcode": "3475-020",
      "city": "VARZIELAS",
      "lon": "-8.184743336602695",
      "lat": "40.59198281194317"
    },
    {
      "id": "pt.ine.add.PTCONT.5566754",
      "street": "TV CAMPO DA BOLA",
      "house": "1",
      "postcode": "3475-020",
      "city": "VARZIELAS",
      "lon": "-8.184081797142985",
      "lat": "40.591974100487725"
    },
    {
      "id": "pt.ine.add.PTCONT.5577730",
      "street": "R CAMPO DA BOLA",
      "house": "1",
      "postcode": "3475-020",
      "city": "VARZIELAS",
      "lon": "-8.1848730999555",
      "lat": "40.591748616733405"
    },
    {
      "id": "pt.ine.add.PTCONT.5603857",
      "street": "R PRINCIPAL",
      "house": "5",
      "postcode": "3475-020",
      "city": "VARZIELAS",
      "lon": "-8.184376711501953",
      "lat": "40.59143365349772"
    },
    {
      "id": "pt.ine.add.PTCONT.5624294",
      "street": "R CABEÇA DA MUNHA",
      "house": "1",
      "postcode": "3475-020",
      "city": "VARZIELAS",
      "lon": "-8.184353525504592",
      "lat": "40.59201000135619"
    },
    {
      "id": "pt.ine.add.PTCONT.5641405",
      "street": "R CABEÇA DA MUNHA",
      "house": "5",
      "postcode": "3475-020",
      "city": "VARZIELAS",
      "lon": "-8.18379858920966",
      "lat": "40.59237946243715"
    }
  ]
}