{
  "data": {
    "distrito": "Viseu",
    "concelho": "Oliveira de Frades",
    "freguesia": "União das freguesias de Arca e Varzielas",
    "OBJECTID": 196,
    "BGRI2021": "18101300165",
    "DT21": "18",
    "DTMN21": "1810",
    "DTMNFR21": "181013",
    "DTMNFRSEC21": "181013001",
    "SECNUM21": "001",
    "SSNUM21": "65",
    "SECSSNUM21": "00165",
    "OBJECTID_1": 194248,
    "DT": "18",
    "CC": "10",
    "fr": "13",
    "SEC": "001",
    "SS": "65"
  },
  "addresses": [
    {
      "id": "pt.ine.add.PTCONT.5448872",
      "street": "R FUNDO DO LUGAR",
      "house": "1-3",
      "postcode": "3475-010",
      "city": "ARCA",
      "lon": "-8.22120593149018",
      "lat": "40.62462279079632"
    },
    {
      "id": "pt.ine.add.PTCONT.5454436",
      "street": "R FUNDO DO LUGAR",
      "house": "1-3",
      "postcode": "3475-010",
      "city": "ARCA",
      "lon": "-8.221264871679306",
      "lat": "40.62450567793486"
    },
    {
      "id": "pt.ine.add.PTCONT.5510243",
      "street": "R CARVALHO",
      "house": "2",
      "postcode": "3475-010",
      "city": "ARCA",
      "lon": "-8.2213722485269",
      "lat": "40.625271039756406"
    },
    {
      "id": "pt.ine.add.PTCONT.5568989",
      "street": "R CABO",
      "house": "4",
      "postcode": "3475-010",
      "city": "ARCA",
      "lon": "-8.22078025372048",
      "lat": "40.62447002594197"
    },
    {
      "id": "pt.ine.add.PTCONT.5578227",
      "street": "FUNDO DO LUGAR",
      "house": "7",
      "postcode": "3475-010",
      "city": "ARCA",
      "lon": "-8.221536656602423",
      "lat": "40.62446944927073"
    },
    {
      "id": "pt.ine.add.PTCONT.5620881",
      "street": "R CHÃO DO CAMINHO",
      "house": "",
      "postcode": "3475-010",
      "city": "ARCA",
      "lon": "-8.22326090504135",
      "lat": "40.62350455735899"
    },
    {
      "id": "pt.ine.add.PTCONT.5634201",
      "street": "R FUNDO",
      "house": "N 5",
      "postcode": "3475-010",
      "city": "ARCA",
      "lon": "-8.221631337742775",
      "lat": "40.62456843418172"
    }
  ]
}