{
  "data": {
    "distrito": "Castelo Branco",
    "concelho": "Fundão",
    "freguesia": "Castelo Novo",
    "OBJECTID": 827,
    "BGRI2021": "05041300117",
    "DT21": "05",
    "DTMN21": "0504",
    "DTMNFR21": "050413",
    "DTMNFRSEC21": "050413001",
    "SECNUM21": "001",
    "SSNUM21": "17",
    "SECSSNUM21": "00117",
    "OBJECTID_1": 43943,
    "DT": "05",
    "CC": "04",
    "fr": "13",
    "SEC": "001",
    "SS": "17"
  },
  "addresses": [
    {
      "id": "pt.ine.add.PTCONT.958860",
      "street": "R NSA SRA DAS GRAÇAS",
      "house": "5",
      "postcode": "6230-160",
      "city": "CASTELO NOVO",
      "lon": "-7.496210947453178",
      "lat": "40.077226253158045"
    },
    {
      "id": "pt.ine.add.PTCONT.969784",
      "street": "R GAMA LOBO",
      "house": "",
      "postcode": "6230-160",
      "city": "CASTELO NOVO",
      "lon": "-7.496095648155812",
      "lat": "40.07701848159602"
    },
    {
      "id": "pt.ine.add.PTCONT.972187",
      "street": "R PARQUE DO ALARDO",
      "house": "4",
      "postcode": "6230-160",
      "city": "CASTELO NOVO",
      "lon": "-7.496854116482441",
      "lat": "40.07740090115223"
    },
    {
      "id": "pt.ine.add.PTCONT.978279",
      "street": "AZ LAGARICA",
      "house": "3",
      "postcode": "6230-160",
      "city": "CASTELO NOVO",
      "lon": "-7.4967499510584",
      "lat": "40.077256233270454"
    },
    {
      "id": "pt.ine.add.PTCONT.987585",
      "street": "LG LAGARICA",
      "house": "",
      "postcode": "6230-160",
      "city": "CASTELO NOVO",
      "lon": "-7.497112440685854",
      "lat": "40.07735728977575"
    },
    {
      "id": "pt.ine.add.PTCONT.992281",
      "street": "CC TEMPLÁRIOS",
      "house": "2",
      "postcode": "6230-160",
      "city": "CASTELO NOVO",
      "lon": "-7.496529814774439",
      "lat": "40.076975838328266"
    },
    {
      "id": "pt.ine.add.PTCONT.1000358",
      "street": "R PARQUE DO ALARDO",
      "house": "2",
      "postcode": "6230-160",
      "city": "CASTELO NOVO",
      "lon": "-7.496912144657721",
      "lat": "40.07746426172711"
    },
    {
      "id": "pt.ine.add.PTCONT.1017602",
      "street": "PTO LAGARICA",
      "house": "2",
      "postcode": "6230-160",
      "city": "CASTELO NOVO",
      "lon": "-7.496690833321706",
      "lat": "40.0773099443972"
    },
    {
      "id": "pt.ine.add.PTCONT.1031122",
      "street": "R NSA SRA DAS GRAÇAS",
      "house": "15",
      "postcode": "6230-160",
      "city": "CASTELO NOVO",
      "lon": "-7.497002408993404",
      "lat": "40.0778430086513"
    },
    {
      "id": "pt.ine.add.PTCONT.1045963",
      "street": "R NSA SRA DAS GRAÇAS",
      "house": "",
      "postcode": "6230-160",
      "city": "CASTELO NOVO",
      "lon": "-7.496864079328338",
      "lat": "40.07759008149385"
    },
    {
      "id": "pt.ine.add.PTCONT.1050023",
      "street": "R GAMA LOBO",
      "house": "2",
      "postcode": "6230-160",
      "city": "CASTELO NOVO",
      "lon": "-7.496024471509179",
      "lat": "40.077108150001685"
    },
    {
      "id": "pt.ine.add.PTCONT.1051599",
      "street": "R NSA SRA DAS GRAÇAS",
      "house": "11",
      "postcode": "6230-160",
      "city": "CASTELO NOVO",
      "lon": "-7.496619740989757",
      "lat": "40.07739060764639"
    },
    {
      "id": "pt.ine.add.PTCONT.1052749",
      "street": "BC FERREIRO",
      "house": "2",
      "postcode": "6230-160",
      "city": "CASTELO NOVO",
      "lon": "-7.496211702557614",
      "lat": "40.07714520346906"
    },
    {
      "id": "pt.ine.add.PTCONT.1076712",
      "street": "CC TEMPLÁRIOS",
      "house": "4",
      "postcode": "6230-160",
      "city": "CASTELO NOVO",
      "lon": "-7.4972312618561245",
      "lat": "40.077186828397785"
    },
    {
      "id": "pt.ine.add.PTCONT.1079107",
      "street": "LG PETRUS GUTERRI",
      "house": "3",
      "postcode": "6230-160",
      "city": "CASTELO NOVO",
      "lon": "-7.496783611027335",
      "lat": "40.077418525850014"
    },
    {
      "id": "pt.ine.add.PTCONT.1079108",
      "street": "R NSA SRA DAS GRAÇAS",
      "house": "3",
      "postcode": "6230-160",
      "city": "CASTELO NOVO",
      "lon": "-7.496117331792631",
      "lat": "40.0772077264608"
    },
    {
      "id": "pt.ine.add.PTCONT.1081224",
      "street": "LG PETRUS GUTERRI",
      "house": "2",
      "postcode": "6230-160",
      "city": "CASTELO NOVO",
      "lon": "-7.496689827266627",
      "lat": "40.077418010655904"
    },
    {
      "id": "pt.ine.add.PTCONT.1085794",
      "street": "R NSA SRA DAS GRAÇAS",
      "house": "9",
      "postcode": "6230-160",
      "city": "CASTELO NOVO",
      "lon": "-7.496549654769486",
      "lat": "40.07736320459476"
    },
    {
      "id": "pt.ine.add.PTCONT.1086423",
      "street": "R NSA SRA DAS GRAÇAS",
      "house": "1",
      "postcode": "6230-160",
      "city": "CASTELO NOVO",
      "lon": "-7.495988631326209",
      "lat": "40.077180000748946"
    },
    {
      "id": "pt.ine.add.PTCONT.1088013",
      "street": "LG LAGARICA",
      "house": "",
      "postcode": "6230-160",
      "city": "CASTELO NOVO",
      "lon": "-7.497042521880952",
      "lat": "40.0773118759763"
    },
    {
      "id": "pt.ine.add.PTCONT.1090220",
      "street": "R NSA SRA DAS GRAÇAS",
      "house": "7",
      "postcode": "6230-160",
      "city": "CASTELO NOVO",
      "lon": "-7.496304647053772",
      "lat": "40.077235774258874"
    },
    {
      "id": "pt.ine.add.PTCONT.1097069",
      "street": "LG PETRUS CUTERRI",
      "house": "5",
      "postcode": "6230-160",
      "city": "CASTELO NOVO",
      "lon": "-7.4968294132503335",
      "lat": "40.07753585519977"
    }
  ]
}