{
  "data": {
    "distrito": "Portalegre",
    "concelho": "Castelo de Vide",
    "freguesia": "Nossa Senhora da Graça de Póvoa e Meadas",
    "OBJECTID": 158,
    "BGRI2021": "12050100101",
    "DT21": "12",
    "DTMN21": "1205",
    "DTMNFR21": "120501",
    "DTMNFRSEC21": "120501001",
    "SECNUM21": "001",
    "SSNUM21": "01",
    "SECSSNUM21": "00101",
    "OBJECTID_1": 121204,
    "DT": "12",
    "CC": "05",
    "fr": "01",
    "SEC": "001",
    "SS": "01"
  },
  "addresses": [
    {
      "id": "pt.ine.add.PTCONT.3538514",
      "street": "QTA BISPO",
      "house": "",
      "postcode": "7320-015",
      "city": "N SRA GRAÇA PÓVOA MEADAS",
      "lon": "-7.519197271755856",
      "lat": "39.50136074433749"
    },
    {
      "id": "pt.ine.add.PTCONT.3463499",
      "street": "R ESTRADA",
      "house": "",
      "postcode": "7320-011",
      "city": "N SRA GRAÇA PÓVOA MEADAS",
      "lon": "-7.519946113050923",
      "lat": "39.50314029138147"
    },
    {
      "id": "pt.ine.add.PTCONT.3479188",
      "street": "R ESTRADA",
      "house": "",
      "postcode": "7320-011",
      "city": "N SRA GRAÇA PÓVOA MEADAS",
      "lon": "-7.518712742322723",
      "lat": "39.50652627795739"
    },
    {
      "id": "pt.ine.add.PTCONT.3495828",
      "street": "QTA BISPO",
      "house": "",
      "postcode": "7320-015",
      "city": "N SRA GRAÇA PÓVOA MEADAS",
      "lon": "-7.519379946513523",
      "lat": "39.50141699117185"
    },
    {
      "id": "pt.ine.add.PTCONT.3512254",
      "street": "QTA CEREJEIRA",
      "house": "",
      "postcode": "7320-011",
      "city": "N SRA GRAÇA PÓVOA MEADAS",
      "lon": "-7.51350129261479",
      "lat": "39.50487146959843"
    },
    {
      "id": "pt.ine.add.PTCONT.3517200",
      "street": "R ESTRADA CASINHA DA PÓVOA",
      "house": "",
      "postcode": "7320-011",
      "city": "N SRA GRAÇA PÓVOA MEADAS",
      "lon": "-7.519604747884629",
      "lat": "39.5049398647909"
    }
  ]
}