{
  "data": {
    "distrito": "Porto",
    "concelho": "Penafiel",
    "freguesia": "Lagares e Figueira",
    "OBJECTID": 59,
    "BGRI2021": "13114200223",
    "DT21": "13",
    "DTMN21": "1311",
    "DTMNFR21": "131142",
    "DTMNFRSEC21": "131142002",
    "SECNUM21": "002",
    "SSNUM21": "23",
    "SECSSNUM21": "00223",
    "OBJECTID_1": 137689,
    "DT": "13",
    "CC": "11",
    "fr": "42",
    "SEC": "002",
    "SS": "23"
  },
  "addresses": [
    {
      "id": "pt.ine.add.PTCONT.3613355",
      "street": "R MONTE SANTO",
      "house": "45",
      "postcode": "4560-190",
      "city": "LAGARES PNF",
      "lon": "-8.361978630040658",
      "lat": "41.12372001490286"
    },
    {
      "id": "pt.ine.add.PTCONT.3651560",
      "street": "R VESSADA",
      "house": "221",
      "postcode": "4560-201",
      "city": "LAGARES PNF",
      "lon": "-8.36372640993656",
      "lat": "41.12635482745774"
    },
    {
      "id": "pt.ine.add.PTCONT.3723396",
      "street": "BC MONTE SANTO",
      "house": "31",
      "postcode": "4560-190",
      "city": "LAGARES PNF",
      "lon": "-8.362359743361344",
      "lat": "41.123737266019106"
    },
    {
      "id": "pt.ine.add.PTCONT.3777759",
      "street": "R LAGARES",
      "house": "79",
      "postcode": "4560-201",
      "city": "LAGARES PNF",
      "lon": "-8.362979170748677",
      "lat": "41.123799062777216"
    },
    {
      "id": "pt.ine.add.PTCONT.3833305",
      "street": "TV MONTE SANTO",
      "house": "53",
      "postcode": "4560-190",
      "city": "LAGARES PNF",
      "lon": "-8.362062360416123",
      "lat": "41.123827901717604"
    },
    {
      "id": "pt.ine.add.PTCONT.3900114",
      "street": "TV MONTE SANTO",
      "house": "131",
      "postcode": "4560-190",
      "city": "LAGARES PNF",
      "lon": "-8.362860877400317",
      "lat": "41.12402440953648"
    },
    {
      "id": "pt.ine.add.PTCONT.3932384",
      "street": "TV MONTE SANTO",
      "house": "91",
      "postcode": "4560-190",
      "city": "LAGARES PNF",
      "lon": "-8.362479511472936",
      "lat": "41.12393512513007"
    },
    {
      "id": "pt.ine.add.PTCONT.3932740",
      "street": "TV MONTE SANTO",
      "house": "91",
      "postcode": "4560-190",
      "city": "LAGARES PNF",
      "lon": "-8.362479511472936",
      "lat": "41.12393512513007"
    },
    {
      "id": "pt.ine.add.PTCONT.4050763",
      "street": "R CARREIRO VELHO",
      "house": "15",
      "postcode": "4560-203",
      "city": "LAGARES PNF",
      "lon": "-8.362847336564574",
      "lat": "41.12355620608285"
    },
    {
      "id": "pt.ine.add.PTCONT.4072819",
      "street": "BC MONTE SANTO",
      "house": "43",
      "postcode": "4560-190",
      "city": "LAGARES PNF",
      "lon": "-8.362359931377819",
      "lat": "41.12379129223664"
    },
    {
      "id": "pt.ine.add.PTCONT.4204616",
      "street": "R LAGARES",
      "house": "127",
      "postcode": "4560-201",
      "city": "LAGARES PNF",
      "lon": "-8.363230399364058",
      "lat": "41.12413172519949"
    },
    {
      "id": "pt.ine.add.PTCONT.4223145",
      "street": "BC MONTE SANTO",
      "house": "7",
      "postcode": "4560-190",
      "city": "LAGARES PNF",
      "lon": "-8.362145026634828",
      "lat": "41.12362963989925"
    },
    {
      "id": "pt.ine.add.PTCONT.4315982",
      "street": "TV MONTE SANTO",
      "house": "63",
      "postcode": "4560-190",
      "city": "LAGARES PNF",
      "lon": "-8.36227670175755",
      "lat": "41.12382747555305"
    },
    {
      "id": "pt.ine.add.PTCONT.4372530",
      "street": "BC MONTE SANTO",
      "house": "29",
      "postcode": "4560-190",
      "city": "LAGARES PNF",
      "lon": "-8.362276200562807",
      "lat": "41.123683405638616"
    },
    {
      "id": "pt.ine.add.PTCONT.4377121",
      "street": "R LAGARES",
      "house": "93",
      "postcode": "4560-201",
      "city": "LAGARES PNF",
      "lon": "-8.363051026425344",
      "lat": "41.12391597699524"
    }
  ]
}