{
  "data": {
    "distrito": "Porto",
    "concelho": "Penafiel",
    "freguesia": "Lagares e Figueira",
    "OBJECTID": 647,
    "BGRI2021": "13114200228",
    "DT21": "13",
    "DTMN21": "1311",
    "DTMNFR21": "131142",
    "DTMNFRSEC21": "131142002",
    "SECNUM21": "002",
    "SSNUM21": "28",
    "SECSSNUM21": "00228",
    "OBJECTID_1": 136795,
    "DT": "13",
    "CC": "11",
    "fr": "42",
    "SEC": "002",
    "SS": "28"
  },
  "addresses": [
    {
      "id": "pt.ine.add.PTCONT.3682510",
      "street": "R DEVESAS",
      "house": "317",
      "postcode": "4560-185",
      "city": "LAGARES PNF",
      "lon": "-8.36742026653531",
      "lat": "41.13033633389726"
    },
    {
      "id": "pt.ine.add.PTCONT.3761915",
      "street": "R ROSENDO",
      "house": "90",
      "postcode": "4560-185",
      "city": "LAGARES PNF",
      "lon": "-8.368094422508726",
      "lat": "41.1290293195499"
    },
    {
      "id": "pt.ine.add.PTCONT.3790576",
      "street": "R ESCOLA NOVA",
      "house": "31",
      "postcode": "4560-185",
      "city": "LAGARES PNF",
      "lon": "-8.368548115198731",
      "lat": "41.12935255247076"
    },
    {
      "id": "pt.ine.add.PTCONT.3906416",
      "street": "R DEVESAS",
      "house": "275",
      "postcode": "4560-185",
      "city": "LAGARES PNF",
      "lon": "-8.36711088783409",
      "lat": "41.13040899809356"
    },
    {
      "id": "pt.ine.add.PTCONT.4114166",
      "street": "R ANIBAL COELHO RODRIGUES",
      "house": "792",
      "postcode": "4560-187",
      "city": "LAGARES PNF",
      "lon": "-8.368341066003582",
      "lat": "41.12806534283907"
    },
    {
      "id": "pt.ine.add.PTCONT.4386041",
      "street": "R ROSENDO",
      "house": "85",
      "postcode": "4560-185",
      "city": "LAGARES PNF",
      "lon": "-8.368535530436764",
      "lat": "41.12916348531032"
    }
  ]
}