{
  "data": {
    "distrito": "Santarém",
    "concelho": "Mação",
    "freguesia": "Amêndoa",
    "OBJECTID": 487,
    "BGRI2021": "14130200125",
    "DT21": "14",
    "DTMN21": "1413",
    "DTMNFR21": "141302",
    "DTMNFRSEC21": "141302001",
    "SECNUM21": "001",
    "SSNUM21": "25",
    "SECSSNUM21": "00125",
    "OBJECTID_1": 152558,
    "DT": "14",
    "CC": "13",
    "fr": "02",
    "SEC": "001",
    "SS": "25"
  },
  "addresses": [
    {
      "id": "pt.ine.add.PTCONT.4394674",
      "street": "TV TAPADA",
      "house": "34",
      "postcode": "6120-162",
      "city": "AMÊNDOA",
      "lon": "-7.99107030834962",
      "lat": "39.64929342154"
    },
    {
      "id": "pt.ine.add.PTCONT.4398975",
      "street": "TV CANADA",
      "house": "24",
      "postcode": "6120-162",
      "city": "AMÊNDOA",
      "lon": "-7.990965541365972",
      "lat": "39.649248259681215"
    },
    {
      "id": "pt.ine.add.PTCONT.4425714",
      "street": "R CASAIS",
      "house": "2",
      "postcode": "6120-162",
      "city": "AMÊNDOA",
      "lon": "-7.990989636333534",
      "lat": "39.64886099933325"
    },
    {
      "id": "pt.ine.add.PTCONT.4431776",
      "street": "TV TAPADA",
      "house": "70",
      "postcode": "6120-162",
      "city": "AMÊNDOA",
      "lon": "-7.9913847204557005",
      "lat": "39.649374866244784"
    },
    {
      "id": "pt.ine.add.PTCONT.4450342",
      "street": "TV TAPADA",
      "house": "22",
      "postcode": "6120-162",
      "city": "AMÊNDOA",
      "lon": "-7.991501194070642",
      "lat": "39.64939302177784"
    },
    {
      "id": "pt.ine.add.PTCONT.4488005",
      "street": "R CERRO",
      "house": "Z16",
      "postcode": "6120-162",
      "city": "AMÊNDOA",
      "lon": "-7.992400259409806",
      "lat": "39.6484393998642"
    },
    {
      "id": "pt.ine.add.PTCONT.4506226",
      "street": "R CERRO",
      "house": "202",
      "postcode": "6120-162",
      "city": "AMÊNDOA",
      "lon": "-7.992260741253058",
      "lat": "39.64829512290945"
    },
    {
      "id": "pt.ine.add.PTCONT.4507245",
      "street": "R CERRO",
      "house": "19Z",
      "postcode": "6120-162",
      "city": "AMÊNDOA",
      "lon": "-7.992202486975643",
      "lat": "39.64829505225744"
    },
    {
      "id": "pt.ine.add.PTCONT.4508961",
      "street": "R TABERNA",
      "house": "263",
      "postcode": "6120-162",
      "city": "AMÊNDOA",
      "lon": "-7.991130000391427",
      "lat": "39.64859096876301"
    },
    {
      "id": "pt.ine.add.PTCONT.4511946",
      "street": "TV LEÃO",
      "house": "Z4",
      "postcode": "6120-162",
      "city": "AMÊNDOA",
      "lon": "-7.991421861294333",
      "lat": "39.64830310942059"
    },
    {
      "id": "pt.ine.add.PTCONT.4540208",
      "street": "ESTR NACIONAL",
      "house": "185",
      "postcode": "6120-153",
      "city": "AMÊNDOA",
      "lon": "-7.991355579389464",
      "lat": "39.646528700213274"
    },
    {
      "id": "pt.ine.add.PTCONT.4555081",
      "street": "R TAPADA",
      "house": "",
      "postcode": "6120-153",
      "city": "AMÊNDOA",
      "lon": "-7.991865565129223",
      "lat": "39.64782629248112"
    },
    {
      "id": "pt.ine.add.PTCONT.4608018",
      "street": "R LAREIRA BRAVA",
      "house": "",
      "postcode": "6120-162",
      "city": "AMÊNDOA",
      "lon": "-7.991570384060518",
      "lat": "39.64974436894863"
    },
    {
      "id": "pt.ine.add.PTCONT.4611957",
      "street": "R CASAL",
      "house": "171",
      "postcode": "6120-152",
      "city": "AMÊNDOA",
      "lon": "-7.992690638659353",
      "lat": "39.648881081566934"
    },
    {
      "id": "pt.ine.add.PTCONT.4632645",
      "street": "R LAZEIRA",
      "house": "103",
      "postcode": "6120-153",
      "city": "AMÊNDOA",
      "lon": "-7.992030030531559",
      "lat": "39.6471599933851"
    },
    {
      "id": "pt.ine.add.PTCONT.4636972",
      "street": "R TABERNAS",
      "house": "Z7",
      "postcode": "6120-153",
      "city": "AMÊNDOA",
      "lon": "-7.990644285373205",
      "lat": "39.64682505255805"
    }
  ]
}