{
  "data": {
    "distrito": "Santarém",
    "concelho": "Mação",
    "freguesia": "Amêndoa",
    "OBJECTID": 161,
    "BGRI2021": "14130200148",
    "DT21": "14",
    "DTMN21": "1413",
    "DTMNFR21": "141302",
    "DTMNFRSEC21": "141302001",
    "SECNUM21": "001",
    "SSNUM21": "48",
    "SECSSNUM21": "00148",
    "OBJECTID_1": 152463,
    "DT": "14",
    "CC": "13",
    "fr": "02",
    "SEC": "001",
    "SS": "48"
  },
  "addresses": [
    {
      "id": "pt.ine.add.PTCONT.4421469",
      "street": "R LAMEIRA BRAVA",
      "house": "239",
      "postcode": "6120-162",
      "city": "AMÊNDOA",
      "lon": "-7.993680209953537",
      "lat": "39.6492605567168"
    },
    {
      "id": "pt.ine.add.PTCONT.4446187",
      "street": "ESTR PRINCIPAL",
      "house": "258",
      "postcode": "6120-167",
      "city": "AMÊNDOA",
      "lon": "-8.00357271727395",
      "lat": "39.64884869317648"
    },
    {
      "id": "pt.ine.add.PTCONT.4470982",
      "street": "R OUTEIRO",
      "house": "150",
      "postcode": "6120-167",
      "city": "AMÊNDOA",
      "lon": "-8.003628065532096",
      "lat": "39.65040692095101"
    },
    {
      "id": "pt.ine.add.PTCONT.4503298",
      "street": "ESTR PRINCIPAL",
      "house": "244",
      "postcode": "6120-167",
      "city": "AMÊNDOA",
      "lon": "-8.003444674551039",
      "lat": "39.64878550312364"
    },
    {
      "id": "pt.ine.add.PTCONT.4511945",
      "street": "TV LAREIRA BRAVA",
      "house": "361",
      "postcode": "6120-162",
      "city": "AMÊNDOA",
      "lon": "-7.993106984822785",
      "lat": "39.65041272984464"
    },
    {
      "id": "pt.ine.add.PTCONT.4543326",
      "street": "ESTR PRINCIPAL",
      "house": "595",
      "postcode": "6120-167",
      "city": "AMÊNDOA",
      "lon": "-7.990228394262182",
      "lat": "39.650769494118016"
    },
    {
      "id": "pt.ine.add.PTCONT.4572659",
      "street": "R 1 DE MAIO",
      "house": "48",
      "postcode": "6120-167",
      "city": "AMÊNDOA",
      "lon": "-8.002221733144049",
      "lat": "39.648567969728944"
    },
    {
      "id": "pt.ine.add.PTCONT.4605419",
      "street": "R SERRACAO",
      "house": "",
      "postcode": "6120-153",
      "city": "AMÊNDOA",
      "lon": "-7.997446886518614",
      "lat": "39.647526715846"
    },
    {
      "id": "pt.ine.add.PTCONT.4610016",
      "street": "ESTR PRINCIPAL",
      "house": "",
      "postcode": "6120-167",
      "city": "AMÊNDOA",
      "lon": "-8.00169824375111",
      "lat": "39.64814406179374"
    }
  ]
}