{
  "data": {
    "distrito": "Santarém",
    "concelho": "Cartaxo",
    "freguesia": "Vila Chã de Ourique",
    "OBJECTID": 202,
    "BGRI2021": "14060700128",
    "DT21": "14",
    "DTMN21": "1406",
    "DTMNFR21": "140607",
    "DTMNFRSEC21": "140607001",
    "SECNUM21": "001",
    "SSNUM21": "28",
    "SECSSNUM21": "00128",
    "OBJECTID_1": 149524,
    "DT": "14",
    "CC": "06",
    "fr": "07",
    "SEC": "001",
    "SS": "28"
  },
  "addresses": [
    {
      "id": "pt.ine.add.PTCONT.4422451",
      "street": "R CÂNDIDO DOS REIS",
      "house": "19",
      "postcode": "2070-639",
      "city": "VILA CHÃ DE OURIQUE",
      "lon": "-8.76832541744248",
      "lat": "39.17113652938134"
    },
    {
      "id": "pt.ine.add.PTCONT.4478161",
      "street": "R MARIANO DE CARVALHO",
      "house": "102",
      "postcode": "2070-668",
      "city": "VILA CHÃ DE OURIQUE",
      "lon": "-8.76756100037963",
      "lat": "39.17105962747962"
    },
    {
      "id": "pt.ine.add.PTCONT.4495137",
      "street": "TV HENRIQUE GALVÃO",
      "house": "11",
      "postcode": "2070-680",
      "city": "VILA CHÃ DE OURIQUE",
      "lon": "-8.768163017835501",
      "lat": "39.17109237766594"
    },
    {
      "id": "pt.ine.add.PTCONT.4516134",
      "street": "R MARIANO DE CARVALHO",
      "house": "86",
      "postcode": "2070-668",
      "city": "VILA CHÃ DE OURIQUE",
      "lon": "-8.767713528553493",
      "lat": "39.17129298865991"
    },
    {
      "id": "pt.ine.add.PTCONT.4617926",
      "street": "TV POÇO",
      "house": "4",
      "postcode": "2070-686",
      "city": "VILA CHÃ DE OURIQUE",
      "lon": "-8.768217713284976",
      "lat": "39.17074079195873"
    },
    {
      "id": "pt.ine.add.PTCONT.4619402",
      "street": "R MARIANO CARVALHO",
      "house": "3",
      "postcode": "2070-668",
      "city": "VILA CHÃ DE OURIQUE",
      "lon": "-8.767631640704085",
      "lat": "39.171194353468174"
    },
    {
      "id": "pt.ine.add.PTCONT.4644186",
      "street": "LG IGREJA",
      "house": "2",
      "postcode": "2070-631",
      "city": "VILA CHÃ DE OURIQUE",
      "lon": "-8.768135096327429",
      "lat": "39.17056109470808"
    },
    {
      "id": "pt.ine.add.PTCONT.4649948",
      "street": "TV HENRIQUE GALVÃO",
      "house": "6",
      "postcode": "2070-680",
      "city": "VILA CHÃ DE OURIQUE",
      "lon": "-8.768288921719122",
      "lat": "39.17093856608042"
    }
  ]
}