{
  "data": {
    "distrito": "Beja",
    "concelho": "Serpa",
    "freguesia": "União das freguesias de Vila Nova de São Bento e Vale de Vargo",
    "OBJECTID": 631,
    "BGRI2021": "02130900206",
    "DT21": "02",
    "DTMN21": "0213",
    "DTMNFR21": "021309",
    "DTMNFRSEC21": "021309002",
    "SECNUM21": "002",
    "SSNUM21": "06",
    "SECSSNUM21": "00206",
    "OBJECTID_1": 18708,
    "DT": "02",
    "CC": "13",
    "fr": "09",
    "SEC": "002",
    "SS": "06"
  },
  "addresses": [
    {
      "id": "pt.ine.add.PTCONT.352460",
      "street": "MONTE",
      "house": "",
      "postcode": "7830-023",
      "city": "VILA NOVA DE SÃO BENTO",
      "lon": "-7.403908608007707",
      "lat": "37.80276309932628"
    },
    {
      "id": "pt.ine.add.PTCONT.358507",
      "street": "MTE ANTÓNIO CANEIRO",
      "house": "",
      "postcode": "7830-023",
      "city": "VILA NOVA DE SÃO BENTO",
      "lon": "-7.393757902845233",
      "lat": "37.82207903748709"
    },
    {
      "id": "pt.ine.add.PTCONT.369026",
      "street": "MONTE",
      "house": "",
      "postcode": "7830-023",
      "city": "VILA NOVA DE SÃO BENTO",
      "lon": "-7.401767829501868",
      "lat": "37.80338048741673"
    },
    {
      "id": "pt.ine.add.PTCONT.375536",
      "street": "MTE VIRGILIO JOSE PEREIRA",
      "house": "",
      "postcode": "7830-023",
      "city": "VILA NOVA DE SÃO BENTO",
      "lon": "-7.409941345205154",
      "lat": "37.80474632114695"
    },
    {
      "id": "pt.ine.add.PTCONT.402023",
      "street": "MTE BOA VIDA",
      "house": "",
      "postcode": "7830-023",
      "city": "VILA NOVA DE SÃO BENTO",
      "lon": "-7.40086527474896",
      "lat": "37.8062398730464"
    },
    {
      "id": "pt.ine.add.PTCONT.406201",
      "street": "MTE TOZE SILVA",
      "house": "",
      "postcode": "7830-023",
      "city": "VILA NOVA DE SÃO BENTO",
      "lon": "-7.397877510013235",
      "lat": "37.81782536704219"
    },
    {
      "id": "pt.ine.add.PTCONT.435287",
      "street": "MTE ROSA MARIA",
      "house": "",
      "postcode": "7830-023",
      "city": "VILA NOVA DE SÃO BENTO",
      "lon": "-7.397526613374473",
      "lat": "37.813129282990225"
    }
  ]
}