{
  "data": {
    "distrito": "Viseu",
    "concelho": "Resende",
    "freguesia": "União das freguesias de Felgueiras e Feirão",
    "OBJECTID": 107,
    "BGRI2021": "18131700126",
    "DT21": "18",
    "DTMN21": "1813",
    "DTMNFR21": "181317",
    "DTMNFRSEC21": "181317001",
    "SECNUM21": "001",
    "SSNUM21": "26",
    "SECSSNUM21": "00126",
    "OBJECTID_1": 195421,
    "DT": "18",
    "CC": "13",
    "fr": "17",
    "SEC": "001",
    "SS": "26"
  },
  "addresses": [
    {
      "id": "pt.ine.add.PTCONT.5430125",
      "street": "R MOITEDO",
      "house": "6",
      "postcode": "4660-080",
      "city": "FELGUEIRAS RSD",
      "lon": "-7.931621623047384",
      "lat": "41.06679982322703"
    },
    {
      "id": "pt.ine.add.PTCONT.5481534",
      "street": "R FELGUEIRAS",
      "house": "",
      "postcode": "4660-080",
      "city": "FELGUEIRAS RSD",
      "lon": "-7.932222530799416",
      "lat": "41.06481987681053"
    },
    {
      "id": "pt.ine.add.PTCONT.5485134",
      "street": "CC ESPÍRITO SANTO",
      "house": "3684",
      "postcode": "4660-080",
      "city": "FELGUEIRAS RSD",
      "lon": "-7.931425086709581",
      "lat": "41.064926538258554"
    },
    {
      "id": "pt.ine.add.PTCONT.5512485",
      "street": "CC ESPIRITO SANTO",
      "house": "",
      "postcode": "4660-080",
      "city": "FELGUEIRAS RSD",
      "lon": "-7.931876715290364",
      "lat": "41.06508040472705"
    },
    {
      "id": "pt.ine.add.PTCONT.5521159",
      "street": "R FELGUEIRAS",
      "house": "",
      "postcode": "4660-080",
      "city": "FELGUEIRAS RSD",
      "lon": "-7.93208765791559",
      "lat": "41.06613430234457"
    },
    {
      "id": "pt.ine.add.PTCONT.5620437",
      "street": "R MOITEDO",
      "house": "",
      "postcode": "4660-080",
      "city": "FELGUEIRAS RSD",
      "lon": "-7.931394193178084",
      "lat": "41.067249651507346"
    },
    {
      "id": "pt.ine.add.PTCONT.5651111",
      "street": "R ESPÍRITO SANTO",
      "house": "",
      "postcode": "4660-080",
      "city": "FELGUEIRAS RSD",
      "lon": "-7.932245037493929",
      "lat": "41.06524312877442"
    }
  ]
}