{
  "data": {
    "distrito": "Viseu",
    "concelho": "Resende",
    "freguesia": "União das freguesias de Felgueiras e Feirão",
    "OBJECTID": 5,
    "BGRI2021": "18131700128",
    "DT21": "18",
    "DTMN21": "1813",
    "DTMNFR21": "181317",
    "DTMNFRSEC21": "181317001",
    "SECNUM21": "001",
    "SSNUM21": "28",
    "SECSSNUM21": "00128",
    "OBJECTID_1": 195318,
    "DT": "18",
    "CC": "13",
    "fr": "17",
    "SEC": "001",
    "SS": "28"
  },
  "addresses": [
    {
      "id": "pt.ine.add.PTCONT.5427376",
      "street": "CAM EIRA DE BAIXO",
      "house": "35",
      "postcode": "4660-083",
      "city": "FELGUEIRAS RSD",
      "lon": "-7.928326293567025",
      "lat": "41.07436681342079"
    },
    {
      "id": "pt.ine.add.PTCONT.5461961",
      "street": "LUGAR DO PICOTINHO",
      "house": "17",
      "postcode": "4660-083",
      "city": "FELGUEIRAS RSD",
      "lon": "-7.929174095944262",
      "lat": "41.07340483413239"
    },
    {
      "id": "pt.ine.add.PTCONT.5465040",
      "street": "R PIMENTOL",
      "house": "1113",
      "postcode": "4660-083",
      "city": "FELGUEIRAS RSD",
      "lon": "-7.928709235160702",
      "lat": "41.07366514138237"
    },
    {
      "id": "pt.ine.add.PTCONT.5466818",
      "street": "LG MON MANUEL ALMEIDA",
      "house": "",
      "postcode": "4660-083",
      "city": "FELGUEIRAS RSD",
      "lon": "-7.928030638918127",
      "lat": "41.07378099437199"
    },
    {
      "id": "pt.ine.add.PTCONT.5470245",
      "street": "LG MONSENHOR MANUEL DE ALMEIDA",
      "house": "",
      "postcode": "4660-083",
      "city": "FELGUEIRAS RSD",
      "lon": "-7.928124850663592",
      "lat": "41.07409631991642"
    },
    {
      "id": "pt.ine.add.PTCONT.5470246",
      "street": "CAM EIRA DE BAIXO",
      "house": "10",
      "postcode": "4660-083",
      "city": "FELGUEIRAS RSD",
      "lon": "-7.928255570773481",
      "lat": "41.07415057944278"
    },
    {
      "id": "pt.ine.add.PTCONT.5502561",
      "street": "R FONTE DA ALDEIA",
      "house": "",
      "postcode": "4660-083",
      "city": "FELGUEIRAS RSD",
      "lon": "-7.927709510482262",
      "lat": "41.07373539986496"
    },
    {
      "id": "pt.ine.add.PTCONT.5513263",
      "street": "R NSA SRA DA GUIA",
      "house": "",
      "postcode": "4660-083",
      "city": "FELGUEIRAS RSD",
      "lon": "-7.928433607469413",
      "lat": "41.0742949679871"
    },
    {
      "id": "pt.ine.add.PTCONT.5516133",
      "street": "CAM CAMPO DA ALDEIA",
      "house": "2",
      "postcode": "4660-083",
      "city": "FELGUEIRAS RSD",
      "lon": "-7.92791078258963",
      "lat": "41.07405992087735"
    },
    {
      "id": "pt.ine.add.PTCONT.5523532",
      "street": "R FONTE DA ALDEIA",
      "house": "",
      "postcode": "4660-083",
      "city": "FELGUEIRAS RSD",
      "lon": "-7.927696854895063",
      "lat": "41.073978499131634"
    },
    {
      "id": "pt.ine.add.PTCONT.5555731",
      "street": "R PIMEIROL",
      "house": "142",
      "postcode": "4660-083",
      "city": "FELGUEIRAS RSD",
      "lon": "-7.928090636636394",
      "lat": "41.07361901990994"
    },
    {
      "id": "pt.ine.add.PTCONT.5599990",
      "street": "CAM CAMPO DA ALDEIA",
      "house": "",
      "postcode": "4660-083",
      "city": "FELGUEIRAS RSD",
      "lon": "-7.928100745171001",
      "lat": "41.0741953266619"
    },
    {
      "id": "pt.ine.add.PTCONT.5613030",
      "street": "R NSA SRA DA GUIA",
      "house": "",
      "postcode": "4660-083",
      "city": "FELGUEIRAS RSD",
      "lon": "-7.929506316930573",
      "lat": "41.07371157502562"
    },
    {
      "id": "pt.ine.add.PTCONT.5629940",
      "street": "R NSA SRA DA GUIA",
      "house": "",
      "postcode": "4660-083",
      "city": "FELGUEIRAS RSD",
      "lon": "-7.929958333676714",
      "lat": "41.073757395347286"
    },
    {
      "id": "pt.ine.add.PTCONT.5634625",
      "street": "CAM CAMPO DA ALDEIA",
      "house": "",
      "postcode": "4660-083",
      "city": "FELGUEIRAS RSD",
      "lon": "-7.927875870039953",
      "lat": "41.07380773236895"
    },
    {
      "id": "pt.ine.add.PTCONT.5649132",
      "street": "R FONTE DA ALDEIA",
      "house": "21",
      "postcode": "4660-083",
      "city": "FELGUEIRAS RSD",
      "lon": "-7.927971480625533",
      "lat": "41.07367283492806"
    },
    {
      "id": "pt.ine.add.PTCONT.5652422",
      "street": "R NSA SRA DA GUIA",
      "house": "",
      "postcode": "4660-083",
      "city": "FELGUEIRAS RSD",
      "lon": "-7.927033948568749",
      "lat": "41.07287876501219"
    },
    {
      "id": "pt.ine.add.PTCONT.5662611",
      "street": "R NSA SRA DA GUIA",
      "house": "",
      "postcode": "4660-083",
      "city": "FELGUEIRAS RSD",
      "lon": "-7.928874480943882",
      "lat": "41.07409765095228"
    }
  ]
}