{
  "data": {
    "distrito": "Castelo Branco",
    "concelho": "Covilhã",
    "freguesia": "União das freguesias de Teixoso e Sarzedo",
    "OBJECTID": 937,
    "BGRI2021": "05033700316",
    "DT21": "05",
    "DTMN21": "0503",
    "DTMNFR21": "050337",
    "DTMNFRSEC21": "050337003",
    "SECNUM21": "003",
    "SSNUM21": "16",
    "SECSSNUM21": "00316",
    "OBJECTID_1": 42940,
    "DT": "05",
    "CC": "03",
    "fr": "37",
    "SEC": "003",
    "SS": "16"
  },
  "addresses": [
    {
      "id": "pt.ine.add.PTCONT.967620",
      "street": "QTA PINHAL",
      "house": "21",
      "postcode": "6200-707",
      "city": "TEIXOSO",
      "lon": "-7.465932252428206",
      "lat": "40.31774451148645"
    },
    {
      "id": "pt.ine.add.PTCONT.982257",
      "street": "R PINHAL",
      "house": "14",
      "postcode": "6200-707",
      "city": "TEIXOSO",
      "lon": "-7.464710269005024",
      "lat": "40.317584362139726"
    },
    {
      "id": "pt.ine.add.PTCONT.995680",
      "street": "R FONTE DO FUNDO",
      "house": "22",
      "postcode": "6200-674",
      "city": "TEIXOSO",
      "lon": "-7.463954418350749",
      "lat": "40.317877177270766"
    },
    {
      "id": "pt.ine.add.PTCONT.1019542",
      "street": "QTA EREDES",
      "house": "",
      "postcode": "6200-690",
      "city": "TEIXOSO",
      "lon": "-7.464456097680352",
      "lat": "40.32068982526313"
    },
    {
      "id": "pt.ine.add.PTCONT.1057206",
      "street": "R FONTE DO FUNDO",
      "house": "",
      "postcode": "6200-674",
      "city": "TEIXOSO",
      "lon": "-7.4634159063067935",
      "lat": "40.31641515335717"
    },
    {
      "id": "pt.ine.add.PTCONT.1058330",
      "street": "R FONTE DO FUNDO",
      "house": "24",
      "postcode": "6200-674",
      "city": "TEIXOSO",
      "lon": "-7.463077431339514",
      "lat": "40.31733176490731"
    },
    {
      "id": "pt.ine.add.PTCONT.1061825",
      "street": "R FONTE DO FUNDO",
      "house": "20",
      "postcode": "6200-674",
      "city": "TEIXOSO",
      "lon": "-7.4636102039386385",
      "lat": "40.31699263662395"
    },
    {
      "id": "pt.ine.add.PTCONT.1085077",
      "street": "R FONTE DO FUNDO",
      "house": "",
      "postcode": "6200-674",
      "city": "TEIXOSO",
      "lon": "-7.462864417320698",
      "lat": "40.316267869757304"
    }
  ]
}