{
  "data": {
    "distrito": "Ã‰vora",
    "concelho": "Arraiolos",
    "freguesia": "Arraiolos",
    "OBJECTID": 222,
    "BGRI2021": "07020100143",
    "DT21": "07",
    "DTMN21": "0702",
    "DTMNFR21": "070201",
    "DTMNFRSEC21": "070201001",
    "SECNUM21": "001",
    "SSNUM21": "43",
    "SECSSNUM21": "00143",
    "OBJECTID_1": 58889,
    "DT": "07",
    "CC": "02",
    "fr": "01",
    "SEC": "001",
    "SS": "43"
  },
  "addresses": [
    {
      "id": "pt.ine.add.PTCONT.1369144",
      "street": "MTE MONTINHO",
      "house": "",
      "postcode": "7040-090",
      "city": "ARRAIOLOS",
      "lon": "-7.971121956719128",
      "lat": "38.70695094720208"
    },
    {
      "id": "pt.ine.add.PTCONT.1376820",
      "street": "HRD VALE MELAO",
      "house": "",
      "postcode": "7040-113",
      "city": "ARRAIOLOS",
      "lon": "-7.945017124960922",
      "lat": "38.71427156133147"
    },
    {
      "id": "pt.ine.add.PTCONT.1378129",
      "street": "HRD VALE MALAO",
      "house": "",
      "postcode": "7040-113",
      "city": "ARRAIOLOS",
      "lon": "-7.944948469601984",
      "lat": "38.71414533629359"
    },
    {
      "id": "pt.ine.add.PTCONT.1384973",
      "street": "CORELA DA MESQUITA",
      "house": "",
      "postcode": "7040-113",
      "city": "ARRAIOLOS",
      "lon": "-7.971372433529665",
      "lat": "38.71313992268275"
    },
    {
      "id": "pt.ine.add.PTCONT.1387059",
      "street": "HRD VALE MELAO",
      "house": "",
      "postcode": "7040-113",
      "city": "ARRAIOLOS",
      "lon": "-7.944879838107791",
      "lat": "38.714010103066954"
    },
    {
      "id": "pt.ine.add.PTCONT.1389420",
      "street": "MTE TORRE",
      "house": "2",
      "postcode": "7040-090",
      "city": "ARRAIOLOS",
      "lon": "-7.954370809452032",
      "lat": "38.69799040450213"
    },
    {
      "id": "pt.ine.add.PTCONT.1408355",
      "street": "MTE TORRE",
      "house": "3",
      "postcode": "7040-113",
      "city": "ARRAIOLOS",
      "lon": "-7.954451386934265",
      "lat": "38.697945486581816"
    },
    {
      "id": "pt.ine.add.PTCONT.1416482",
      "street": "VALE MELAO CIMA",
      "house": "APARTADO21",
      "postcode": "7040-113",
      "city": "ARRAIOLOS",
      "lon": "-7.950252441116787",
      "lat": "38.71275748244466"
    },
    {
      "id": "pt.ine.add.PTCONT.1437465",
      "street": "MTE TORRE",
      "house": "2",
      "postcode": "7040-090",
      "city": "ARRAIOLOS",
      "lon": "-7.954313423851857",
      "lat": "38.69795428393685"
    },
    {
      "id": "pt.ine.add.PTCONT.1450671",
      "street": "",
      "house": "",
      "postcode": "7040-113",
      "city": "ARRAIOLOS",
      "lon": "-7.944765831066186",
      "lat": "38.71364058391366"
    },
    {
      "id": "pt.ine.add.PTCONT.1452146",
      "street": "MTE CARMO",
      "house": "",
      "postcode": "7040-090",
      "city": "ARRAIOLOS",
      "lon": "-7.960450538038176",
      "lat": "38.708043685321115"
    },
    {
      "id": "pt.ine.add.PTCONT.1461247",
      "street": "HORTA DA NEVE",
      "house": "",
      "postcode": "7040-114",
      "city": "ARRAIOLOS",
      "lon": "-7.964648386263071",
      "lat": "38.71228365880507"
    }
  ]
}