{
  "data": {
    "distrito": "Coimbra",
    "concelho": "Figueira da Foz",
    "freguesia": "Bom Sucesso",
    "OBJECTID": 141,
    "BGRI2021": "06051500225",
    "DT21": "06",
    "DTMN21": "0605",
    "DTMNFR21": "060515",
    "DTMNFRSEC21": "060515002",
    "SECNUM21": "002",
    "SSNUM21": "25",
    "SECSSNUM21": "00225",
    "OBJECTID_1": 51520,
    "DT": "06",
    "CC": "05",
    "fr": "15",
    "SEC": "002",
    "SS": "25"
  },
  "addresses": [
    {
      "id": "pt.ine.add.PTCONT.1111060",
      "street": "R CAPELA",
      "house": "7",
      "postcode": "3080-751",
      "city": "BOM SUCESSO",
      "lon": "-8.783071957372625",
      "lat": "40.26739287049844"
    },
    {
      "id": "pt.ine.add.PTCONT.1146017",
      "street": "LG ELÍSIO TOCHA",
      "house": "",
      "postcode": "3080-751",
      "city": "BOM SUCESSO",
      "lon": "-8.781989713208123",
      "lat": "40.2660931198182"
    },
    {
      "id": "pt.ine.add.PTCONT.1228431",
      "street": "LG ELÍSIO TOCHA",
      "house": "29",
      "postcode": "3080-751",
      "city": "BOM SUCESSO",
      "lon": "-8.781671025938568",
      "lat": "40.26595982112715"
    },
    {
      "id": "pt.ine.add.PTCONT.1240493",
      "street": "R CAPELA",
      "house": "",
      "postcode": "3080-751",
      "city": "BOM SUCESSO",
      "lon": "-8.783081816632436",
      "lat": "40.26719469003877"
    },
    {
      "id": "pt.ine.add.PTCONT.1248834",
      "street": "R IGREJA",
      "house": "93",
      "postcode": "3080-751",
      "city": "BOM SUCESSO",
      "lon": "-8.783709459501438",
      "lat": "40.26644369089268"
    },
    {
      "id": "pt.ine.add.PTCONT.1261684",
      "street": "LG ELÍSIO TOCHA",
      "house": "11",
      "postcode": "3080-751",
      "city": "BOM SUCESSO",
      "lon": "-8.782376523650942",
      "lat": "40.26597387616118"
    },
    {
      "id": "pt.ine.add.PTCONT.1304020",
      "street": "R ALMOCREVES",
      "house": "190",
      "postcode": "3080-751",
      "city": "BOM SUCESSO",
      "lon": "-8.784381759914965",
      "lat": "40.26789882997138"
    },
    {
      "id": "pt.ine.add.PTCONT.1351766",
      "street": "R ASSOCIAÇÃO",
      "house": "13",
      "postcode": "3080-751",
      "city": "BOM SUCESSO",
      "lon": "-8.780823420332139",
      "lat": "40.26460470963051"
    }
  ]
}