{
  "data": {
    "distrito": "Porto",
    "concelho": "Marco de Canaveses",
    "freguesia": "Marco",
    "OBJECTID": 470,
    "BGRI2021": "13073600143",
    "DT21": "13",
    "DTMN21": "1307",
    "DTMNFR21": "130736",
    "DTMNFRSEC21": "130736001",
    "SECNUM21": "001",
    "SSNUM21": "43",
    "SECSSNUM21": "00143",
    "OBJECTID_1": 130893,
    "DT": "13",
    "CC": "07",
    "fr": "36",
    "SEC": "001",
    "SS": "43"
  },
  "addresses": [
    {
      "id": "pt.ine.add.PTCONT.3554408",
      "street": "R OUTEIRO",
      "house": "",
      "postcode": "4630-408",
      "city": "MARCO DE CANAVESES",
      "lon": "-8.16785538502351",
      "lat": "41.1683158259969"
    },
    {
      "id": "pt.ine.add.PTCONT.3567226",
      "street": "R SOUTO",
      "house": "319",
      "postcode": "4630-444",
      "city": "MARCO DE CANAVESES",
      "lon": "-8.172622594869003",
      "lat": "41.16966494483586"
    },
    {
      "id": "pt.ine.add.PTCONT.3631558",
      "street": "TV SOUTO",
      "house": "80",
      "postcode": "4630-324",
      "city": "MARCO DE CANAVESES",
      "lon": "-8.171490315569688",
      "lat": "41.169260131059815"
    },
    {
      "id": "pt.ine.add.PTCONT.3728968",
      "street": "R CIMO DE VILA",
      "house": "342",
      "postcode": "4630-258",
      "city": "MARCO DE CANAVESES",
      "lon": "-8.169608035878383",
      "lat": "41.17011615800734"
    },
    {
      "id": "pt.ine.add.PTCONT.3754751",
      "street": "R PENSAIS",
      "house": "",
      "postcode": "4630-495",
      "city": "MARCO DE CANAVESES",
      "lon": "-8.176724522376038",
      "lat": "41.17379646871549"
    },
    {
      "id": "pt.ine.add.PTCONT.3825623",
      "street": "R CASA DO OUTEIRO",
      "house": "51",
      "postcode": "4630-240",
      "city": "MARCO DE CANAVESES",
      "lon": "-8.16687788496662",
      "lat": "41.1675597494509"
    },
    {
      "id": "pt.ine.add.PTCONT.3837215",
      "street": "R PENSAIS",
      "house": "909",
      "postcode": "4630-495",
      "city": "MARCO DE CANAVESES",
      "lon": "-8.17153901676437",
      "lat": "41.17103397547487"
    },
    {
      "id": "pt.ine.add.PTCONT.3883656",
      "street": "R OUTEIRO",
      "house": "161",
      "postcode": "4630-408",
      "city": "MARCO DE CANAVESES",
      "lon": "-8.167545521970117",
      "lat": "41.168225875336894"
    },
    {
      "id": "pt.ine.add.PTCONT.3916522",
      "street": "R SOUTO",
      "house": "269",
      "postcode": "4630-444",
      "city": "MARCO DE CANAVESES",
      "lon": "-8.17219357276174",
      "lat": "41.169602060627696"
    },
    {
      "id": "pt.ine.add.PTCONT.3944804",
      "street": "R CIMO DE VILA",
      "house": "240",
      "postcode": "4630-258",
      "city": "MARCO DE CANAVESES",
      "lon": "-8.170001683661262",
      "lat": "41.170845386426436"
    },
    {
      "id": "pt.ine.add.PTCONT.3979920",
      "street": "R CIMO DE VILA",
      "house": "356",
      "postcode": "4630-258",
      "city": "MARCO DE CANAVESES",
      "lon": "-8.169834481201011",
      "lat": "41.170179116609745"
    },
    {
      "id": "pt.ine.add.PTCONT.4123725",
      "street": "TV SOUTO",
      "house": "26",
      "postcode": "4630-324",
      "city": "MARCO DE CANAVESES",
      "lon": "-8.171847986211736",
      "lat": "41.16957516426804"
    },
    {
      "id": "pt.ine.add.PTCONT.4195807",
      "street": "R CIMO DE VILA",
      "house": "372",
      "postcode": "4630-258",
      "city": "MARCO DE CANAVESES",
      "lon": "-8.169476826870984",
      "lat": "41.16988208591497"
    },
    {
      "id": "pt.ine.add.PTCONT.4215673",
      "street": "R CASA OUTEIRO",
      "house": "165",
      "postcode": "4630-240",
      "city": "MARCO DE CANAVESES",
      "lon": "-8.167879321742372",
      "lat": "41.16851391494802"
    },
    {
      "id": "pt.ine.add.PTCONT.4321815",
      "street": "R SOUTO",
      "house": "76",
      "postcode": "4630-444",
      "city": "MARCO DE CANAVESES",
      "lon": "-8.170489577596753",
      "lat": "41.16964764808796"
    }
  ]
}