{
  "data": {
    "distrito": "Ã‰vora",
    "concelho": "Arraiolos",
    "freguesia": "Arraiolos",
    "OBJECTID": 284,
    "BGRI2021": "07020100228",
    "DT21": "07",
    "DTMN21": "0702",
    "DTMNFR21": "070201",
    "DTMNFRSEC21": "070201002",
    "SECNUM21": "002",
    "SSNUM21": "28",
    "SECSSNUM21": "00228",
    "OBJECTID_1": 58773,
    "DT": "07",
    "CC": "02",
    "fr": "01",
    "SEC": "002",
    "SS": "28"
  },
  "addresses": [
    {
      "id": "pt.ine.add.PTCONT.1373005",
      "street": "R S FRANCISCO",
      "house": "4",
      "postcode": "7040-050",
      "city": "ARRAIOLOS",
      "lon": "-7.983448816016031",
      "lat": "38.723310179826"
    },
    {
      "id": "pt.ine.add.PTCONT.1387949",
      "street": "R S FRANCISCO",
      "house": "8",
      "postcode": "7040-050",
      "city": "ARRAIOLOS",
      "lon": "-7.98326175939125",
      "lat": "38.72325277977023"
    },
    {
      "id": "pt.ine.add.PTCONT.1400090",
      "street": "PC REPUBLICA",
      "house": "12",
      "postcode": "7040-026",
      "city": "ARRAIOLOS",
      "lon": "-7.983882217401596",
      "lat": "38.72327360660308"
    },
    {
      "id": "pt.ine.add.PTCONT.1411890",
      "street": "PC REPUBLICA",
      "house": "14",
      "postcode": "7040-026",
      "city": "ARRAIOLOS",
      "lon": "-7.983742399143125",
      "lat": "38.72342108554753"
    },
    {
      "id": "pt.ine.add.PTCONT.1420332",
      "street": "R S FRANCISCO",
      "house": "6",
      "postcode": "7040-050",
      "city": "ARRAIOLOS",
      "lon": "-7.9833586380832795",
      "lat": "38.723284995513005"
    },
    {
      "id": "pt.ine.add.PTCONT.1420333",
      "street": "LG 25 ABRIL",
      "house": "10",
      "postcode": "7040-016",
      "city": "ARRAIOLOS",
      "lon": "-7.984087232064102",
      "lat": "38.72305011585223"
    },
    {
      "id": "pt.ine.add.PTCONT.1435575",
      "street": "LG 25 DE ABRIL",
      "house": "11",
      "postcode": "7040-016",
      "city": "ARRAIOLOS",
      "lon": "-7.983922061541838",
      "lat": "38.72323953178483"
    },
    {
      "id": "pt.ine.add.PTCONT.1443717",
      "street": "R S FRANCISCO",
      "house": "10",
      "postcode": "7040-050",
      "city": "ARRAIOLOS",
      "lon": "-7.983154806388595",
      "lat": "38.723232114819666"
    },
    {
      "id": "pt.ine.add.PTCONT.1445397",
      "street": "PC REPUBLICA",
      "house": "13",
      "postcode": "7040-026",
      "city": "ARRAIOLOS",
      "lon": "-7.983828379995538",
      "lat": "38.72332586996227"
    },
    {
      "id": "pt.ine.add.PTCONT.1459708",
      "street": "R COMBATENTES DA GRANDE GUERRA",
      "house": "17",
      "postcode": "7040-061",
      "city": "ARRAIOLOS",
      "lon": "-7.983206939822047",
      "lat": "38.72300107335974"
    },
    {
      "id": "pt.ine.add.PTCONT.1459709",
      "street": "R COMBATENTES DA GRANDE GUERRA",
      "house": "17",
      "postcode": "7040-061",
      "city": "ARRAIOLOS",
      "lon": "-7.983206939822047",
      "lat": "38.72300107335974"
    }
  ]
}