{
  "data": {
    "ilha": "Ilha da Madeira (Madeira)",
    "concelho": "Machico",
    "freguesia": "Machico",
    "OBJECTID": 106,
    "BGRI2021": "31040300114",
    "DT21": "31",
    "DTMN21": "3104",
    "DTMNFR21": "310403",
    "DTMNFRSEC21": "310403001",
    "SECNUM21": "001",
    "SSNUM21": "14",
    "SECSSNUM21": "00114",
    "OBJECTID_1": 204491,
    "DT": "31",
    "CC": "04",
    "fr": "03",
    "SEC": "001",
    "SS": "14",
    "BGRI2021_1": "31040300114"
  },
  "addresses": [
    {
      "id": "pt.ine.add.MAD.30507",
      "street": "BC POÇOS C",
      "house": "1",
      "postcode": "9200-122",
      "city": "MACHICO",
      "lon": "-16.771745439874465",
      "lat": "32.71890191962092"
    },
    {
      "id": "pt.ine.add.MAD.30508",
      "street": "ESTR SANTOS COSTA",
      "house": "23",
      "postcode": "9200-142",
      "city": "MACHICO",
      "lon": "-16.7700533945978",
      "lat": "32.717500824312275"
    },
    {
      "id": "pt.ine.add.MAD.58801",
      "street": "SIT SITIO SERRA D AGUA",
      "house": "",
      "postcode": "9200-127",
      "city": "MACHICO",
      "lon": "-16.771731563930132",
      "lat": "32.71873977414244"
    },
    {
      "id": "pt.ine.add.MAD.73655",
      "street": "CAM POÇOS",
      "house": "22",
      "postcode": "9200-131",
      "city": "MACHICO",
      "lon": "-16.771627578963145",
      "lat": "32.71887652847072"
    },
    {
      "id": "pt.ine.add.MAD.79840",
      "street": "ESTR SANTOS COSTA",
      "house": "27",
      "postcode": "9200-142",
      "city": "MACHICO",
      "lon": "-16.770840199260935",
      "lat": "32.71790458519525"
    },
    {
      "id": "pt.ine.add.MAD.123134",
      "street": "CAM POÇOS",
      "house": "24",
      "postcode": "9200-131",
      "city": "MACHICO",
      "lon": "-16.771572822481975",
      "lat": "32.71880515050729"
    }
  ]
}