{
  "data": {
    "distrito": "Guarda",
    "concelho": "Guarda",
    "freguesia": "Guarda",
    "OBJECTID": 624,
    "BGRI2021": "09075801002",
    "DT21": "09",
    "DTMN21": "0907",
    "DTMNFR21": "090758",
    "DTMNFRSEC21": "090758010",
    "SECNUM21": "010",
    "SSNUM21": "02",
    "SECSSNUM21": "01002",
    "OBJECTID_1": 78504,
    "DT": "09",
    "CC": "07",
    "fr": "58",
    "SEC": "010",
    "SS": "02"
  },
  "addresses": [
    {
      "id": "pt.ine.add.PTCONT.1915105",
      "street": "QTA DAS TERRAS",
      "house": "",
      "postcode": "6300-872",
      "city": "GUARDA",
      "lon": "-7.216948153258663",
      "lat": "40.54799107590359"
    },
    {
      "id": "pt.ine.add.PTCONT.1925003",
      "street": "QTA DAS TAPADAS",
      "house": "",
      "postcode": "6300-815",
      "city": "GUARDA",
      "lon": "-7.2225732774708655",
      "lat": "40.546684771705955"
    },
    {
      "id": "pt.ine.add.PTCONT.1927032",
      "street": "QTA DAS TERRAS",
      "house": "",
      "postcode": "6300-872",
      "city": "GUARDA",
      "lon": "-7.219794105244692",
      "lat": "40.54618556091131"
    },
    {
      "id": "pt.ine.add.PTCONT.1943276",
      "street": "R DO CALVÁRIO",
      "house": "",
      "postcode": "6300-815",
      "city": "GUARDA",
      "lon": "-7.22895795985643",
      "lat": "40.546815961520444"
    },
    {
      "id": "pt.ine.add.PTCONT.1954205",
      "street": "QTA DAS TAPADAS",
      "house": "",
      "postcode": "6300-815",
      "city": "GUARDA",
      "lon": "-7.222772232259524",
      "lat": "40.54681241189866"
    },
    {
      "id": "pt.ine.add.PTCONT.1977462",
      "street": "SIT CALVARIO SEQUEIRA",
      "house": "",
      "postcode": "6300-815",
      "city": "GUARDA",
      "lon": "-7.2288903429430755",
      "lat": "40.547454799308746"
    },
    {
      "id": "pt.ine.add.PTCONT.1978841",
      "street": "R DO CALVÁRIO",
      "house": "",
      "postcode": "6300-815",
      "city": "GUARDA",
      "lon": "-7.229376234924251",
      "lat": "40.54731451850409"
    },
    {
      "id": "pt.ine.add.PTCONT.1870048",
      "street": "QTA DAS TAPADAS",
      "house": "",
      "postcode": "6300-815",
      "city": "GUARDA",
      "lon": "-7.225559745329035",
      "lat": "40.54844626760347"
    },
    {
      "id": "pt.ine.add.PTCONT.1882884",
      "street": "R DO CALVÁRIO",
      "house": "",
      "postcode": "6300-815",
      "city": "GUARDA",
      "lon": "-7.228909413025523",
      "lat": "40.54691463844106"
    }
  ]
}