{
  "data": {
    "distrito": "Évora",
    "concelho": "Évora",
    "freguesia": "União das freguesias de Évora (São Mamede, Sé, São Pedro e Santo Antão)",
    "OBJECTID": 26,
    "BGRI2021": "07052300745",
    "DT21": "07",
    "DTMN21": "0705",
    "DTMNFR21": "070523",
    "DTMNFRSEC21": "070523007",
    "SECNUM21": "007",
    "SSNUM21": "45",
    "SECSSNUM21": "00745",
    "OBJECTID_1": 60814,
    "DT": "07",
    "CC": "05",
    "fr": "23",
    "SEC": "007",
    "SS": "45"
  },
  "addresses": [
    {
      "id": "pt.ine.add.PTCONT.1372342",
      "street": "LG DO COLÉGIO",
      "house": "1",
      "postcode": "7000-803",
      "city": "ÉVORA",
      "lon": "-7.904536795494323",
      "lat": "38.572284346521464"
    },
    {
      "id": "pt.ine.add.PTCONT.1372343",
      "street": "LG DO COLÉGIO",
      "house": "1",
      "postcode": "7000-803",
      "city": "ÉVORA",
      "lon": "-7.904536795494323",
      "lat": "38.572284346521464"
    },
    {
      "id": "pt.ine.add.PTCONT.1379237",
      "street": "TV DA AMÊNDOA",
      "house": "5",
      "postcode": "7000-953",
      "city": "ÉVORA",
      "lon": "-7.904377739677926",
      "lat": "38.57176907164948"
    },
    {
      "id": "pt.ine.add.PTCONT.1388196",
      "street": "R CONDE DA SERRA DA TOUREGA",
      "house": "",
      "postcode": "7000-875",
      "city": "ÉVORA",
      "lon": "-7.904733427698503",
      "lat": "38.57241249822339"
    },
    {
      "id": "pt.ine.add.PTCONT.1401808",
      "street": "TV CORDOVIL",
      "house": "7",
      "postcode": "7000-956",
      "city": "ÉVORA",
      "lon": "-7.904422382744648",
      "lat": "38.572165528396766"
    },
    {
      "id": "pt.ine.add.PTCONT.1401809",
      "street": "TV CORDOVIL",
      "house": "7",
      "postcode": "7000-956",
      "city": "ÉVORA",
      "lon": "-7.904422382744648",
      "lat": "38.572165528396766"
    },
    {
      "id": "pt.ine.add.PTCONT.1401810",
      "street": "TV CORDOVIL",
      "house": "7",
      "postcode": "7000-956",
      "city": "ÉVORA",
      "lon": "-7.904422382744648",
      "lat": "38.572165528396766"
    },
    {
      "id": "pt.ine.add.PTCONT.1401811",
      "street": "TV CORDOVIL",
      "house": "7",
      "postcode": "7000-956",
      "city": "ÉVORA",
      "lon": "-7.904422382744648",
      "lat": "38.572165528396766"
    },
    {
      "id": "pt.ine.add.PTCONT.1401812",
      "street": "TV CORDOVIL",
      "house": "7",
      "postcode": "7000-956",
      "city": "ÉVORA",
      "lon": "-7.904422382744648",
      "lat": "38.572165528396766"
    },
    {
      "id": "pt.ine.add.PTCONT.1401813",
      "street": "TV CORDOVIL",
      "house": "7",
      "postcode": "7000-956",
      "city": "ÉVORA",
      "lon": "-7.904422382744648",
      "lat": "38.572165528396766"
    },
    {
      "id": "pt.ine.add.PTCONT.1402249",
      "street": "TV CORDOVIL",
      "house": "7",
      "postcode": "7000-956",
      "city": "ÉVORA",
      "lon": "-7.904422382744648",
      "lat": "38.572165528396766"
    },
    {
      "id": "pt.ine.add.PTCONT.1408205",
      "street": "R MACHEDE",
      "house": "1",
      "postcode": "7000-864",
      "city": "ÉVORA",
      "lon": "-7.9042837740570695",
      "lat": "38.57167846890119"
    },
    {
      "id": "pt.ine.add.PTCONT.1429119",
      "street": "R MACHEDE",
      "house": "49 B",
      "postcode": "7000-864",
      "city": "ÉVORA",
      "lon": "-7.904215460199668",
      "lat": "38.57168717437937"
    },
    {
      "id": "pt.ine.add.PTCONT.1429120",
      "street": "R MACHEDE",
      "house": "49",
      "postcode": "7000-864",
      "city": "ÉVORA",
      "lon": "-7.904215460199668",
      "lat": "38.57168717437937"
    },
    {
      "id": "pt.ine.add.PTCONT.1441702",
      "street": "R MACHEDE",
      "house": "51",
      "postcode": "7000-864",
      "city": "ÉVORA",
      "lon": "-7.904146792704646",
      "lat": "38.57171618765966"
    },
    {
      "id": "pt.ine.add.PTCONT.1450907",
      "street": "R CONDE DA SERRA DA TOUREGA",
      "house": "38",
      "postcode": "7000-875",
      "city": "ÉVORA",
      "lon": "-7.904757751225011",
      "lat": "38.57235780794986"
    },
    {
      "id": "pt.ine.add.PTCONT.1458851",
      "street": "R CONDE DA SERRA DA TOUREGA",
      "house": "34",
      "postcode": "7000-875",
      "city": "ÉVORA",
      "lon": "-7.904816855589154",
      "lat": "38.572238928607206"
    }
  ]
}