{
  "data": {
    "distrito": "Faro",
    "concelho": "Olhão",
    "freguesia": "Pechão",
    "OBJECTID": 134,
    "BGRI2021": "08100400110",
    "DT21": "08",
    "DTMN21": "0810",
    "DTMNFR21": "081004",
    "DTMNFRSEC21": "081004001",
    "SECNUM21": "001",
    "SSNUM21": "10",
    "SECSSNUM21": "00110",
    "OBJECTID_1": 70636,
    "DT": "08",
    "CC": "10",
    "fr": "04",
    "SEC": "001",
    "SS": "10"
  },
  "addresses": [
    {
      "id": "pt.ine.add.PTCONT.1482537",
      "street": "URB HORTA TOPA",
      "house": "6",
      "postcode": "8700-259",
      "city": "OLHÃO",
      "lon": "-7.85095945088588",
      "lat": "37.03516980953747"
    },
    {
      "id": "pt.ine.add.PTCONT.1505855",
      "street": "URB TOPA",
      "house": "8",
      "postcode": "8700-259",
      "city": "OLHÃO",
      "lon": "-7.85096965700346",
      "lat": "37.03544916674467"
    },
    {
      "id": "pt.ine.add.PTCONT.1559232",
      "street": "EN 125 HORTA JOÃO DA TERCA",
      "house": "",
      "postcode": "8700-580",
      "city": "OLHÃO",
      "lon": "-7.850650090388407",
      "lat": "37.03069073399504"
    },
    {
      "id": "pt.ine.add.PTCONT.1559391",
      "street": "CAM JOÃO DA TERCA",
      "house": "30",
      "postcode": "8700-580",
      "city": "OLHÃO",
      "lon": "-7.85101530758098",
      "lat": "37.03222342956943"
    },
    {
      "id": "pt.ine.add.PTCONT.1578772",
      "street": "CAM JOÃO DA TERÇA",
      "house": "28",
      "postcode": "8700-259",
      "city": "OLHÃO",
      "lon": "-7.850622106314449",
      "lat": "37.032177440433294"
    },
    {
      "id": "pt.ine.add.PTCONT.1596835",
      "street": "SIT OLHÃO",
      "house": "",
      "postcode": "8700-259",
      "city": "OLHÃO",
      "lon": "-7.850948544742392",
      "lat": "37.035079676201335"
    },
    {
      "id": "pt.ine.add.PTCONT.1619887",
      "street": "URB HORTA DO TOPA",
      "house": "",
      "postcode": "8700-259",
      "city": "OLHÃO",
      "lon": "-7.850686999407029",
      "lat": "37.03589903128068"
    },
    {
      "id": "pt.ine.add.PTCONT.1635992",
      "street": "URB BENTO RODRIGUES",
      "house": "10",
      "postcode": "8700-259",
      "city": "OLHÃO",
      "lon": "-7.8509573839766755",
      "lat": "37.03572847048739"
    },
    {
      "id": "pt.ine.add.PTCONT.1646045",
      "street": "URB HORTA DO TOPA",
      "house": "",
      "postcode": "8700-259",
      "city": "OLHÃO",
      "lon": "-7.850946577776636",
      "lat": "37.03561130517862"
    },
    {
      "id": "pt.ine.add.PTCONT.1648634",
      "street": "URB TOPA",
      "house": "N 12",
      "postcode": "8700-259",
      "city": "OLHÃO",
      "lon": "-7.850990069442933",
      "lat": "37.036007881117875"
    },
    {
      "id": "pt.ine.add.PTCONT.1659804",
      "street": "URB TOPA",
      "house": "22",
      "postcode": "8700-259",
      "city": "OLHÃO",
      "lon": "-7.850676694163339",
      "lat": "37.03564670605442"
    },
    {
      "id": "pt.ine.add.PTCONT.1674133",
      "street": "ESTR 125",
      "house": "",
      "postcode": "8700-174",
      "city": "OLHÃO",
      "lon": "-7.852640396580911",
      "lat": "37.03041612176002"
    },
    {
      "id": "pt.ine.add.PTCONT.1707937",
      "street": "CAM JOÃO DA TERCA HORTA DA GENOVEVA",
      "house": "",
      "postcode": "8700-259",
      "city": "OLHÃO",
      "lon": "-7.850511606197168",
      "lat": "37.03470018528176"
    },
    {
      "id": "pt.ine.add.PTCONT.1746818",
      "street": "SIT OLHÃO",
      "house": "",
      "postcode": "8700-259",
      "city": "OLHÃO",
      "lon": "-7.850970023697654",
      "lat": "37.03535004947845"
    },
    {
      "id": "pt.ine.add.PTCONT.1794136",
      "street": "CAM JOÃO DA TERCA",
      "house": "30",
      "postcode": "8700-259",
      "city": "OLHÃO",
      "lon": "-7.850654989331611",
      "lat": "37.032402787322965"
    },
    {
      "id": "pt.ine.add.PTCONT.1795078",
      "street": "URB HORTA DO TOPA",
      "house": "",
      "postcode": "8700-259",
      "city": "OLHÃO",
      "lon": "-7.850644577352837",
      "lat": "37.035214114097876"
    },
    {
      "id": "pt.ine.add.PTCONT.1805145",
      "street": "SIT BELMONTE",
      "house": "21",
      "postcode": "8700-259",
      "city": "OLHÃO",
      "lon": "-7.8506660552648215",
      "lat": "37.03548448741953"
    },
    {
      "id": "pt.ine.add.PTCONT.1826981",
      "street": "URB HORTA TOPA",
      "house": "",
      "postcode": "8700-259",
      "city": "OLHÃO",
      "lon": "-7.850676293713019",
      "lat": "37.03575483397298"
    },
    {
      "id": "pt.ine.add.PTCONT.1832678",
      "street": "URB HORTA DO TOPA",
      "house": "",
      "postcode": "8700-259",
      "city": "OLHÃO",
      "lon": "-7.850655316290573",
      "lat": "37.03534930076064"
    },
    {
      "id": "pt.ine.add.PTCONT.1838467",
      "street": "URB HORTA DO TOPA",
      "house": "",
      "postcode": "8700-259",
      "city": "OLHÃO",
      "lon": "-7.850686598967661",
      "lat": "37.036007159194746"
    }
  ]
}