{
  "data": {
    "distrito": "Faro",
    "concelho": "Loulé",
    "freguesia": "União de freguesias de Querença, Tôr e Benafim",
    "OBJECTID": 1885,
    "BGRI2021": "08081200125",
    "DT21": "08",
    "DTMN21": "0808",
    "DTMNFR21": "080812",
    "DTMNFRSEC21": "080812001",
    "SECNUM21": "001",
    "SSNUM21": "25",
    "SECSSNUM21": "00125",
    "OBJECTID_1": 69480,
    "DT": "08",
    "CC": "08",
    "fr": "12",
    "SEC": "001",
    "SS": "25"
  },
  "addresses": [
    {
      "id": "pt.ine.add.PTCONT.1539807",
      "street": "SIT ARNEIRINHA",
      "house": "",
      "postcode": "8100-129",
      "city": "QUERENÇA",
      "lon": "-7.9987608087246596",
      "lat": "37.2260938849351"
    },
    {
      "id": "pt.ine.add.PTCONT.1560214",
      "street": "SIT TOJEIRA",
      "house": "",
      "postcode": "8100-130",
      "city": "QUERENÇA",
      "lon": "-8.000660386950425",
      "lat": "37.22233865600263"
    },
    {
      "id": "pt.ine.add.PTCONT.1587374",
      "street": "SIT TOJEIRA CASA PICA PAU",
      "house": "",
      "postcode": "8100-130",
      "city": "QUERENÇA",
      "lon": "-8.00255156131325",
      "lat": "37.22334992926733"
    },
    {
      "id": "pt.ine.add.PTCONT.1603458",
      "street": "SIT ARNEIRINHA",
      "house": "",
      "postcode": "8100-129",
      "city": "QUERENÇA",
      "lon": "-7.9993236626274395",
      "lat": "37.22640087813051"
    },
    {
      "id": "pt.ine.add.PTCONT.1606581",
      "street": "SIT TOJEIRA",
      "house": "",
      "postcode": "8100-130",
      "city": "QUERENÇA",
      "lon": "-8.000051586362945",
      "lat": "37.22254521465246"
    },
    {
      "id": "pt.ine.add.PTCONT.1612356",
      "street": "SIT TOJEIRA CASA DE FARO",
      "house": "",
      "postcode": "8100-130",
      "city": "QUERENÇA",
      "lon": "-8.003125244848935",
      "lat": "37.22390920982216"
    },
    {
      "id": "pt.ine.add.PTCONT.1775959",
      "street": "SIT TOJEIRA CASA CAMELIA",
      "house": "",
      "postcode": "8100-130",
      "city": "QUERENÇA",
      "lon": "-8.003475280014728",
      "lat": "37.223477090559015"
    }
  ]
}