{
  "data": {
    "distrito": "Viseu",
    "concelho": "Tondela",
    "freguesia": "Castelões",
    "OBJECTID": 625,
    "BGRI2021": "18210500215",
    "DT21": "18",
    "DTMN21": "1821",
    "DTMNFR21": "182105",
    "DTMNFRSEC21": "182105002",
    "SECNUM21": "002",
    "SSNUM21": "15",
    "SECSSNUM21": "00215",
    "OBJECTID_1": 199311,
    "DT": "18",
    "CC": "21",
    "fr": "05",
    "SEC": "002",
    "SS": "15"
  },
  "addresses": [
    {
      "id": "pt.ine.add.PTCONT.5435343",
      "street": "R COVA",
      "house": "82",
      "postcode": "3465-123",
      "city": "CASTELÕES TND",
      "lon": "-8.150363308565188",
      "lat": "40.530639801074045"
    },
    {
      "id": "pt.ine.add.PTCONT.5449379",
      "street": "R PRINCIPAL",
      "house": "771",
      "postcode": "3465-123",
      "city": "CASTELÕES TND",
      "lon": "-8.148274304070497",
      "lat": "40.530658104879656"
    },
    {
      "id": "pt.ine.add.PTCONT.5471324",
      "street": "R COVA",
      "house": "172",
      "postcode": "3465-123",
      "city": "CASTELÕES TND",
      "lon": "-8.150599586531438",
      "lat": "40.53153129716448"
    },
    {
      "id": "pt.ine.add.PTCONT.5473123",
      "street": "R CABECO",
      "house": "",
      "postcode": "3465-123",
      "city": "CASTELÕES TND",
      "lon": "-8.151308063311838",
      "lat": "40.532746912454044"
    },
    {
      "id": "pt.ine.add.PTCONT.5479099",
      "street": "R CAIADA",
      "house": "155",
      "postcode": "3465-123",
      "city": "CASTELÕES TND",
      "lon": "-8.15022202908775",
      "lat": "40.53200863824542"
    },
    {
      "id": "pt.ine.add.PTCONT.5491807",
      "street": "R PRINCIPAL",
      "house": "709",
      "postcode": "3465-123",
      "city": "CASTELÕES TND",
      "lon": "-8.148899752591001",
      "lat": "40.53034283311983"
    },
    {
      "id": "pt.ine.add.PTCONT.5526413",
      "street": "R ESCOLA",
      "house": "150",
      "postcode": "3465-123",
      "city": "CASTELÕES TND",
      "lon": "-8.148463141053824",
      "lat": "40.53065807994056"
    },
    {
      "id": "pt.ine.add.PTCONT.5532428",
      "street": "R COVA",
      "house": "12",
      "postcode": "3465-123",
      "city": "CASTELÕES TND",
      "lon": "-8.149973667589357",
      "lat": "40.52998246651389"
    },
    {
      "id": "pt.ine.add.PTCONT.5596328",
      "street": "R COVA",
      "house": "158",
      "postcode": "3465-123",
      "city": "CASTELÕES TND",
      "lon": "-8.15063489069125",
      "lat": "40.531135055558636"
    },
    {
      "id": "pt.ine.add.PTCONT.5608108",
      "street": "R PRINCIPAL",
      "house": "",
      "postcode": "3465-123",
      "city": "CASTELÕES TND",
      "lon": "-8.149407232148892",
      "lat": "40.530270719683536"
    },
    {
      "id": "pt.ine.add.PTCONT.5663011",
      "street": "R COVA",
      "house": "",
      "postcode": "3465-123",
      "city": "CASTELÕES TND",
      "lon": "-8.149962095515036",
      "lat": "40.530901016030036"
    },
    {
      "id": "pt.ine.add.PTCONT.5664844",
      "street": "R CABECO",
      "house": "174",
      "postcode": "3465-123",
      "city": "CASTELÕES TND",
      "lon": "-8.151449715088214",
      "lat": "40.532818932993656"
    }
  ]
}