{
  "data": {
    "distrito": "Viseu",
    "concelho": "Tondela",
    "freguesia": "Castelões",
    "OBJECTID": 1070,
    "BGRI2021": "18210500223",
    "DT21": "18",
    "DTMN21": "1821",
    "DTMNFR21": "182105",
    "DTMNFRSEC21": "182105002",
    "SECNUM21": "002",
    "SSNUM21": "23",
    "SECSSNUM21": "00223",
    "OBJECTID_1": 200188,
    "DT": "18",
    "CC": "21",
    "fr": "05",
    "SEC": "002",
    "SS": "23"
  },
  "addresses": [
    {
      "id": "pt.ine.add.PTCONT.5433575",
      "street": "R CILHA",
      "house": "84",
      "postcode": "3465-131",
      "city": "CASTELÕES TND",
      "lon": "-8.170533040246838",
      "lat": "40.52989658839828"
    },
    {
      "id": "pt.ine.add.PTCONT.5438705",
      "street": "R LINHEIRO",
      "house": "2",
      "postcode": "3465-131",
      "city": "CASTELÕES TND",
      "lon": "-8.165741872176248",
      "lat": "40.530960674578694"
    },
    {
      "id": "pt.ine.add.PTCONT.5446410",
      "street": "R LINHEIRO",
      "house": "184",
      "postcode": "3465-131",
      "city": "CASTELÕES TND",
      "lon": "-8.16694539612766",
      "lat": "40.530329952488636"
    },
    {
      "id": "pt.ine.add.PTCONT.5486500",
      "street": "R LINHEIRO",
      "house": "162",
      "postcode": "3465-131",
      "city": "CASTELÕES TND",
      "lon": "-8.166756605133589",
      "lat": "40.53042006132647"
    },
    {
      "id": "pt.ine.add.PTCONT.5506449",
      "street": "R LINHEIRO",
      "house": "",
      "postcode": "3465-131",
      "city": "CASTELÕES TND",
      "lon": "-8.170237732377132",
      "lat": "40.529437409701835"
    },
    {
      "id": "pt.ine.add.PTCONT.5519551",
      "street": "R PEREIRO DA LATA",
      "house": "213",
      "postcode": "3465-131",
      "city": "CASTELÕES TND",
      "lon": "-8.16570757353876",
      "lat": "40.533248047755585"
    },
    {
      "id": "pt.ine.add.PTCONT.5575765",
      "street": "R POUSADAS",
      "house": "",
      "postcode": "3465-131",
      "city": "CASTELÕES TND",
      "lon": "-8.165387900669293",
      "lat": "40.53116789750825"
    },
    {
      "id": "pt.ine.add.PTCONT.5644888",
      "street": "R LINHEIRO",
      "house": "130",
      "postcode": "3465-131",
      "city": "CASTELÕES TND",
      "lon": "-8.169340938032583",
      "lat": "40.52974387703043"
    },
    {
      "id": "pt.ine.add.PTCONT.5657114",
      "street": "R PEREIRO DA LATA",
      "house": "",
      "postcode": "3465-131",
      "city": "CASTELÕES TND",
      "lon": "-8.16586071131534",
      "lat": "40.532635639508996"
    }
  ]
}