{
  "data": {
    "distrito": "Viseu",
    "concelho": "Tondela",
    "freguesia": "Castelões",
    "OBJECTID": 1102,
    "BGRI2021": "18210500256",
    "DT21": "18",
    "DTMN21": "1821",
    "DTMNFR21": "182105",
    "DTMNFRSEC21": "182105002",
    "SECNUM21": "002",
    "SSNUM21": "56",
    "SECSSNUM21": "00256",
    "OBJECTID_1": 200002,
    "DT": "18",
    "CC": "21",
    "fr": "05",
    "SEC": "002",
    "SS": "56"
  },
  "addresses": [
    {
      "id": "pt.ine.add.PTCONT.5452052",
      "street": "R PEDREIRA",
      "house": "310",
      "postcode": "3465-126",
      "city": "CASTELÕES TND",
      "lon": "-8.138952203059127",
      "lat": "40.55051576025676"
    },
    {
      "id": "pt.ine.add.PTCONT.5499362",
      "street": "R CAVADAO",
      "house": "126",
      "postcode": "3465-126",
      "city": "CASTELÕES TND",
      "lon": "-8.141265990720024",
      "lat": "40.54929089375336"
    },
    {
      "id": "pt.ine.add.PTCONT.5501766",
      "street": "TV CRUZ",
      "house": "",
      "postcode": "3465-126",
      "city": "CASTELÕES TND",
      "lon": "-8.141608272904119",
      "lat": "40.548660495144595"
    },
    {
      "id": "pt.ine.add.PTCONT.5526409",
      "street": "R CAVADAO CASA DA CRUZ",
      "house": "160",
      "postcode": "3465-126",
      "city": "CASTELÕES TND",
      "lon": "-8.141230610965092",
      "lat": "40.54959707784658"
    },
    {
      "id": "pt.ine.add.PTCONT.5560889",
      "street": "R PEDREIRA",
      "house": "",
      "postcode": "3465-129",
      "city": "CASTELÕES TND",
      "lon": "-8.136898116155338",
      "lat": "40.552677126974075"
    },
    {
      "id": "pt.ine.add.PTCONT.5583132",
      "street": "TV AREAL",
      "house": "45",
      "postcode": "3465-126",
      "city": "CASTELÕES TND",
      "lon": "-8.137098504726769",
      "lat": "40.547345958758605"
    },
    {
      "id": "pt.ine.add.PTCONT.5626778",
      "street": "TV CRUZ",
      "house": "26",
      "postcode": "3465-126",
      "city": "CASTELÕES TND",
      "lon": "-8.141537416364885",
      "lat": "40.548471388141685"
    },
    {
      "id": "pt.ine.add.PTCONT.5629786",
      "street": "R CAVADAO",
      "house": "",
      "postcode": "3465-126",
      "city": "CASTELÕES TND",
      "lon": "-8.140640383648373",
      "lat": "40.550083406222676"
    },
    {
      "id": "pt.ine.add.PTCONT.5639282",
      "street": "R CAVADAO",
      "house": "792",
      "postcode": "3465-129",
      "city": "CASTELÕES TND",
      "lon": "-8.137429443325434",
      "lat": "40.553442561845884"
    },
    {
      "id": "pt.ine.add.PTCONT.5659778",
      "street": "TV CRUZ",
      "house": "100",
      "postcode": "3465-126",
      "city": "CASTELÕES TND",
      "lon": "-8.141608309338013",
      "lat": "40.548948666092116"
    }
  ]
}