{
  "data": {
    "distrito": "Castelo Branco",
    "concelho": "Proença-A-Nova",
    "freguesia": "União das freguesias de Sobreira Formosa e Alvito da Beira",
    "OBJECTID": 110,
    "BGRI2021": "05080800321",
    "DT21": "05",
    "DTMN21": "0508",
    "DTMNFR21": "050808",
    "DTMNFRSEC21": "050808003",
    "SECNUM21": "003",
    "SSNUM21": "21",
    "SECSSNUM21": "00321",
    "OBJECTID_1": 45621,
    "DT": "05",
    "CC": "08",
    "fr": "08",
    "SEC": "003",
    "SS": "21"
  },
  "addresses": [
    {
      "id": "pt.ine.add.PTCONT.953573",
      "street": "R JOGO DA BOLA",
      "house": "43",
      "postcode": "6150-737",
      "city": "SOBREIRA FORMOSA",
      "lon": "-7.852862369920646",
      "lat": "39.77402717308419"
    },
    {
      "id": "pt.ine.add.PTCONT.979246",
      "street": "R CURRAIS",
      "house": "1",
      "postcode": "6150-737",
      "city": "SOBREIRA FORMOSA",
      "lon": "-7.850938378792616",
      "lat": "39.77356317832759"
    },
    {
      "id": "pt.ine.add.PTCONT.989406",
      "street": "ESTR PÓVOA",
      "house": "12",
      "postcode": "6150-737",
      "city": "SOBREIRA FORMOSA",
      "lon": "-7.854526463210824",
      "lat": "39.772373977286854"
    },
    {
      "id": "pt.ine.add.PTCONT.993614",
      "street": "R S BARTOLOMEU",
      "house": "27",
      "postcode": "6150-737",
      "city": "SOBREIRA FORMOSA",
      "lon": "-7.851300977110574",
      "lat": "39.77337492213833"
    },
    {
      "id": "pt.ine.add.PTCONT.1004533",
      "street": "ESTR PÓVOA",
      "house": "",
      "postcode": "6150-737",
      "city": "SOBREIRA FORMOSA",
      "lon": "-7.853921494669475",
      "lat": "39.77477726769352"
    },
    {
      "id": "pt.ine.add.PTCONT.1046244",
      "street": "LG DEVESA",
      "house": "12",
      "postcode": "6150-737",
      "city": "SOBREIRA FORMOSA",
      "lon": "-7.852623144920027",
      "lat": "39.77257654349637"
    },
    {
      "id": "pt.ine.add.PTCONT.1052968",
      "street": "R JOGO DA BOLA",
      "house": "17",
      "postcode": "6150-737",
      "city": "SOBREIRA FORMOSA",
      "lon": "-7.852399810037417",
      "lat": "39.77296328448054"
    },
    {
      "id": "pt.ine.add.PTCONT.1067738",
      "street": "ESTR PÓVOA",
      "house": "10",
      "postcode": "6150-737",
      "city": "SOBREIRA FORMOSA",
      "lon": "-7.854258233470605",
      "lat": "39.772319293951846"
    },
    {
      "id": "pt.ine.add.PTCONT.1071373",
      "street": "ESTR PÓVOA",
      "house": "8",
      "postcode": "6150-737",
      "city": "SOBREIRA FORMOSA",
      "lon": "-7.853989458532125",
      "lat": "39.77239970669596"
    },
    {
      "id": "pt.ine.add.PTCONT.1083613",
      "street": "R CURRAIS",
      "house": "41",
      "postcode": "6150-737",
      "city": "SOBREIRA FORMOSA",
      "lon": "-7.851553133410101",
      "lat": "39.774510357043994"
    },
    {
      "id": "pt.ine.add.PTCONT.1096627",
      "street": "R BOGO DA BOLA",
      "house": "34",
      "postcode": "6150-737",
      "city": "SOBREIRA FORMOSA",
      "lon": "-7.852829691965882",
      "lat": "39.77345067614788"
    },
    {
      "id": "pt.ine.add.PTCONT.1098443",
      "street": "SOBREIRA FORMOSA",
      "house": "",
      "postcode": "6150-737",
      "city": "SOBREIRA FORMOSA",
      "lon": "-7.851752510827838",
      "lat": "39.77427667075152"
    }
  ]
}