{
  "data": {
    "distrito": "Braga",
    "concelho": "Barcelos",
    "freguesia": "União das freguesias de Carreira e Fonte Coberta",
    "OBJECTID": 443,
    "BGRI2021": "03029500113",
    "DT21": "03",
    "DTMN21": "0302",
    "DTMNFR21": "030295",
    "DTMNFRSEC21": "030295001",
    "SECNUM21": "001",
    "SSNUM21": "13",
    "SECSSNUM21": "00113",
    "OBJECTID_1": 21161,
    "DT": "03",
    "CC": "02",
    "fr": "95",
    "SEC": "001",
    "SS": "13"
  },
  "addresses": [
    {
      "id": "pt.ine.add.PTCONT.485966",
      "street": "R POCA",
      "house": "237",
      "postcode": "4775-101",
      "city": "FONTE COBERTA",
      "lon": "-8.562201077984623",
      "lat": "41.47938767410705"
    },
    {
      "id": "pt.ine.add.PTCONT.499942",
      "street": "R S MIGUEL",
      "house": "660",
      "postcode": "4775-060",
      "city": "CARREIRA BCL",
      "lon": "-8.56231893388118",
      "lat": "41.477289336455854"
    },
    {
      "id": "pt.ine.add.PTCONT.544678",
      "street": "MTE DA POÇA",
      "house": "",
      "postcode": "4775-101",
      "city": "FONTE COBERTA",
      "lon": "-8.562923768606291",
      "lat": "41.48004225705596"
    },
    {
      "id": "pt.ine.add.PTCONT.556407",
      "street": "R MONTE DA POCA",
      "house": "371",
      "postcode": "4775-101",
      "city": "FONTE COBERTA",
      "lon": "-8.563011945987492",
      "lat": "41.47707965977202"
    },
    {
      "id": "pt.ine.add.PTCONT.559605",
      "street": "TV MONTINHO",
      "house": "36",
      "postcode": "4775-099",
      "city": "FONTE COBERTA",
      "lon": "-8.563078579036532",
      "lat": "41.479915624552376"
    },
    {
      "id": "pt.ine.add.PTCONT.563055",
      "street": "R POCA",
      "house": "297",
      "postcode": "4775-101",
      "city": "FONTE COBERTA",
      "lon": "-8.562167832910578",
      "lat": "41.47979297145508"
    },
    {
      "id": "pt.ine.add.PTCONT.603776",
      "street": "R S MIGUEL",
      "house": "624",
      "postcode": "4775-060",
      "city": "CARREIRA BCL",
      "lon": "-8.561864172873895",
      "lat": "41.47731804402772"
    },
    {
      "id": "pt.ine.add.PTCONT.700991",
      "street": "R S MIGUEL",
      "house": "600",
      "postcode": "4775-060",
      "city": "CARREIRA BCL",
      "lon": "-8.561637237016754",
      "lat": "41.4773999243987"
    },
    {
      "id": "pt.ine.add.PTCONT.736260",
      "street": "MTE DA POÇA",
      "house": "",
      "postcode": "4775-101",
      "city": "FONTE COBERTA",
      "lon": "-8.5630479216071",
      "lat": "41.47708852916528"
    },
    {
      "id": "pt.ine.add.PTCONT.748914",
      "street": "TV TUNEL",
      "house": "15",
      "postcode": "4775-101",
      "city": "FONTE COBERTA",
      "lon": "-8.561843136153424",
      "lat": "41.477759311340805"
    },
    {
      "id": "pt.ine.add.PTCONT.748915",
      "street": "TV TUNEL",
      "house": "15",
      "postcode": "4775-101",
      "city": "FONTE COBERTA",
      "lon": "-8.561843136153424",
      "lat": "41.477759311340805"
    },
    {
      "id": "pt.ine.add.PTCONT.784917",
      "street": "R POCA",
      "house": "171",
      "postcode": "4775-101",
      "city": "FONTE COBERTA",
      "lon": "-8.56186199171192",
      "lat": "41.478803688119186"
    },
    {
      "id": "pt.ine.add.PTCONT.794791",
      "street": "TV MONTINHO",
      "house": "88",
      "postcode": "4775-099",
      "city": "FONTE COBERTA",
      "lon": "-8.562923828096993",
      "lat": "41.4800512606847"
    }
  ]
}