{
  "data": {
    "distrito": "Braga",
    "concelho": "Barcelos",
    "freguesia": "União das freguesias de Creixomil e Mariz",
    "OBJECTID": 709,
    "BGRI2021": "03029700108",
    "DT21": "03",
    "DTMN21": "0302",
    "DTMNFR21": "030297",
    "DTMNFRSEC21": "030297001",
    "SECNUM21": "001",
    "SSNUM21": "08",
    "SECSSNUM21": "00108",
    "OBJECTID_1": 21404,
    "DT": "03",
    "CC": "02",
    "fr": "97",
    "SEC": "001",
    "SS": "08"
  },
  "addresses": [
    {
      "id": "pt.ine.add.PTCONT.470625",
      "street": "R NSA SRA DA CONCEIÇÃO",
      "house": "145",
      "postcode": "4750-572",
      "city": "MARIZ",
      "lon": "-8.670900483020624",
      "lat": "41.528460699775955"
    },
    {
      "id": "pt.ine.add.PTCONT.473861",
      "street": "R LODEIRO",
      "house": "129",
      "postcode": "4750-571",
      "city": "MARIZ",
      "lon": "-8.665871651313",
      "lat": "41.52888927597695"
    },
    {
      "id": "pt.ine.add.PTCONT.485872",
      "street": "R TERREIRO",
      "house": "86",
      "postcode": "4750-572",
      "city": "MARIZ",
      "lon": "-8.66956862294565",
      "lat": "41.52823282271385"
    },
    {
      "id": "pt.ine.add.PTCONT.512538",
      "street": "R SOUTO",
      "house": "",
      "postcode": "4750-571",
      "city": "MARIZ",
      "lon": "-8.673150198076584",
      "lat": "41.52955761916715"
    },
    {
      "id": "pt.ine.add.PTCONT.560218",
      "street": "R DR FRANCISCO SA CARNEIRO",
      "house": "220",
      "postcode": "4750-430",
      "city": "CREIXOMIL",
      "lon": "-8.683557086691097",
      "lat": "41.53315479640462"
    },
    {
      "id": "pt.ine.add.PTCONT.572796",
      "street": "LG TERREIRO",
      "house": "47",
      "postcode": "4750-571",
      "city": "MARIZ",
      "lon": "-8.670050851729846",
      "lat": "41.528590722497455"
    },
    {
      "id": "pt.ine.add.PTCONT.582217",
      "street": "R LODEIRO",
      "house": "131",
      "postcode": "4750-571",
      "city": "MARIZ",
      "lon": "-8.665826310788068",
      "lat": "41.529204617541254"
    },
    {
      "id": "pt.ine.add.PTCONT.595282",
      "street": "R TERREIRO",
      "house": "76",
      "postcode": "4750-572",
      "city": "MARIZ",
      "lon": "-8.669483564172339",
      "lat": "41.52808915933267"
    },
    {
      "id": "pt.ine.add.PTCONT.606713",
      "street": "R LODEIRO",
      "house": "403",
      "postcode": "4750-571",
      "city": "MARIZ",
      "lon": "-8.667572811392454",
      "lat": "41.53031297970605"
    },
    {
      "id": "pt.ine.add.PTCONT.610220",
      "street": "R MARIZ",
      "house": "15",
      "postcode": "4750-571",
      "city": "MARIZ",
      "lon": "-8.665874621125697",
      "lat": "41.52779080363231"
    },
    {
      "id": "pt.ine.add.PTCONT.610221",
      "street": "R NSA SRA DA CONCEIÇÃO",
      "house": "154",
      "postcode": "4750-572",
      "city": "MARIZ",
      "lon": "-8.670733937219428",
      "lat": "41.5286055386205"
    },
    {
      "id": "pt.ine.add.PTCONT.618985",
      "street": "R LODEIRO",
      "house": "215",
      "postcode": "4750-571",
      "city": "MARIZ",
      "lon": "-8.665697246875396",
      "lat": "41.529538354356504"
    },
    {
      "id": "pt.ine.add.PTCONT.631373",
      "street": "R LODEIRO",
      "house": "119",
      "postcode": "4750-571",
      "city": "MARIZ",
      "lon": "-8.665176951088737",
      "lat": "41.52891950350278"
    },
    {
      "id": "pt.ine.add.PTCONT.653477",
      "street": "R LODEIRO",
      "house": "291",
      "postcode": "4750-571",
      "city": "MARIZ",
      "lon": "-8.666225247020373",
      "lat": "41.52963494918905"
    },
    {
      "id": "pt.ine.add.PTCONT.653480",
      "street": "TV PACO",
      "house": "48",
      "postcode": "4750-572",
      "city": "MARIZ",
      "lon": "-8.670530254385197",
      "lat": "41.52860649065636"
    },
    {
      "id": "pt.ine.add.PTCONT.663532",
      "street": "R LODEIRO",
      "house": "365",
      "postcode": "4750-571",
      "city": "MARIZ",
      "lon": "-8.667211658182945",
      "lat": "41.53010757123003"
    },
    {
      "id": "pt.ine.add.PTCONT.694499",
      "street": "R LODEIRO",
      "house": "151",
      "postcode": "4750-571",
      "city": "MARIZ",
      "lon": "-8.665420859939472",
      "lat": "41.529440592702045"
    },
    {
      "id": "pt.ine.add.PTCONT.697954",
      "street": "R LODEIRO",
      "house": "291",
      "postcode": "4750-571",
      "city": "MARIZ",
      "lon": "-8.666226355776981",
      "lat": "41.52977000039986"
    },
    {
      "id": "pt.ine.add.PTCONT.709577",
      "street": "R FONTE",
      "house": "170",
      "postcode": "4750-571",
      "city": "MARIZ",
      "lon": "-8.667723802459497",
      "lat": "41.52827742876916"
    },
    {
      "id": "pt.ine.add.PTCONT.715909",
      "street": "R AFONSO NUNES DE MARIZ",
      "house": "2450",
      "postcode": "4750-571",
      "city": "MARIZ",
      "lon": "-8.678185302712837",
      "lat": "41.52987600662611"
    },
    {
      "id": "pt.ine.add.PTCONT.754906",
      "street": "R SO",
      "house": "96",
      "postcode": "4750-571",
      "city": "MARIZ",
      "lon": "-8.671816216495285",
      "lat": "41.52907767300114"
    },
    {
      "id": "pt.ine.add.PTCONT.809149",
      "street": "R TERREIRO",
      "house": "37",
      "postcode": "4750-572",
      "city": "MARIZ",
      "lon": "-8.669976805091979",
      "lat": "41.52832995922008"
    },
    {
      "id": "pt.ine.add.PTCONT.826812",
      "street": "LG TERREIRO",
      "house": "57",
      "postcode": "4750-571",
      "city": "MARIZ",
      "lon": "-8.669748267686604",
      "lat": "41.528222980798645"
    },
    {
      "id": "pt.ine.add.PTCONT.835839",
      "street": "R MARIZ",
      "house": "79",
      "postcode": "4750-571",
      "city": "MARIZ",
      "lon": "-8.665965286189664",
      "lat": "41.5286187294076"
    }
  ]
}