{
  "data": {
    "distrito": "Guarda",
    "concelho": "Celorico da Beira",
    "freguesia": "União das freguesias de Rapa e Cadafaz",
    "OBJECTID": 261,
    "BGRI2021": "09032600124",
    "DT21": "09",
    "DTMN21": "0903",
    "DTMNFR21": "090326",
    "DTMNFRSEC21": "090326001",
    "SECNUM21": "001",
    "SSNUM21": "24",
    "SECSSNUM21": "00124",
    "OBJECTID_1": 76379,
    "DT": "09",
    "CC": "03",
    "fr": "26",
    "SEC": "001",
    "SS": "24"
  },
  "addresses": [
    {
      "id": "pt.ine.add.PTCONT.1905868",
      "street": "ESTR PRINCIPAL",
      "house": "",
      "postcode": "6360-030",
      "city": "CADAFAZ CLB",
      "lon": "-7.3529840673060995",
      "lat": "40.58517257673785"
    },
    {
      "id": "pt.ine.add.PTCONT.1918752",
      "street": "R DA PORTELA",
      "house": "",
      "postcode": "6360-030",
      "city": "CADAFAZ CLB",
      "lon": "-7.3600427818737115",
      "lat": "40.58558024018263"
    },
    {
      "id": "pt.ine.add.PTCONT.1920096",
      "street": "R DO CHÃO DA CORTE",
      "house": "",
      "postcode": "6360-030",
      "city": "CADAFAZ CLB",
      "lon": "-7.360023920366001",
      "lat": "40.58619246459689"
    },
    {
      "id": "pt.ine.add.PTCONT.1923276",
      "street": "R DA CRUZINHA",
      "house": "",
      "postcode": "6360-030",
      "city": "CADAFAZ CLB",
      "lon": "-7.359795491909184",
      "lat": "40.58448896079247"
    },
    {
      "id": "pt.ine.add.PTCONT.1925832",
      "street": "R DA QUINTA",
      "house": "",
      "postcode": "6360-030",
      "city": "CADAFAZ CLB",
      "lon": "-7.359880137045994",
      "lat": "40.584318429422254"
    },
    {
      "id": "pt.ine.add.PTCONT.1927380",
      "street": "R DO CHÃO DA CORTE",
      "house": "",
      "postcode": "6360-030",
      "city": "CADAFAZ CLB",
      "lon": "-7.360039775062097",
      "lat": "40.58584136960865"
    },
    {
      "id": "pt.ine.add.PTCONT.1936330",
      "street": "R DA CRUZINHA",
      "house": "",
      "postcode": "6360-030",
      "city": "CADAFAZ CLB",
      "lon": "-7.359360571789177",
      "lat": "40.58430594511525"
    },
    {
      "id": "pt.ine.add.PTCONT.1939031",
      "street": "R DO CHÃO DA CORTE",
      "house": "",
      "postcode": "6360-030",
      "city": "CADAFAZ CLB",
      "lon": "-7.360125553952651",
      "lat": "40.58659837678325"
    },
    {
      "id": "pt.ine.add.PTCONT.1949042",
      "street": "R MARIA JOSÉ FURTADO DE MENDONÇA",
      "house": "29",
      "postcode": "6360-130",
      "city": "RAPA",
      "lon": "-7.346747238754833",
      "lat": "40.58418474513941"
    },
    {
      "id": "pt.ine.add.PTCONT.1950207",
      "street": "R DA PORTELA",
      "house": "",
      "postcode": "6360-030",
      "city": "CADAFAZ CLB",
      "lon": "-7.359831430513501",
      "lat": "40.58547076360223"
    },
    {
      "id": "pt.ine.add.PTCONT.1958664",
      "street": "CADAFAZ",
      "house": "",
      "postcode": "6360-030",
      "city": "CADAFAZ CLB",
      "lon": "-7.35993719916109",
      "lat": "40.58654308523098"
    },
    {
      "id": "pt.ine.add.PTCONT.1959897",
      "street": "R MARIA JOSÉ FURTADO DE MENDONÇA",
      "house": "37",
      "postcode": "6360-130",
      "city": "RAPA",
      "lon": "-7.346993996242366",
      "lat": "40.58429448658996"
    },
    {
      "id": "pt.ine.add.PTCONT.1960612",
      "street": "R DA PORTELA",
      "house": "",
      "postcode": "6360-030",
      "city": "CADAFAZ CLB",
      "lon": "-7.360418343263112",
      "lat": "40.58681645948225"
    },
    {
      "id": "pt.ine.add.PTCONT.1969862",
      "street": "R DO CAMPO DE FUTEBOL",
      "house": "4",
      "postcode": "6360-130",
      "city": "RAPA",
      "lon": "-7.347032063661663",
      "lat": "40.584069616782436"
    },
    {
      "id": "pt.ine.add.PTCONT.1974777",
      "street": "",
      "house": "",
      "postcode": "6360-030",
      "city": "CADAFAZ CLB",
      "lon": "-7.359044780098744",
      "lat": "40.58915760788642"
    },
    {
      "id": "pt.ine.add.PTCONT.1872132",
      "street": "QTA DA CRUZINHA",
      "house": "",
      "postcode": "6360-030",
      "city": "CADAFAZ CLB",
      "lon": "-7.355212469031273",
      "lat": "40.586538378583604"
    },
    {
      "id": "pt.ine.add.PTCONT.1885373",
      "street": "R MARIA JOSÉ FURTADO DE MENDONÇA",
      "house": "27",
      "postcode": "6360-130",
      "city": "RAPA",
      "lon": "-7.346653492264206",
      "lat": "40.58412107081753"
    },
    {
      "id": "pt.ine.add.PTCONT.1891057",
      "street": "R DO CHÃO DA CORTE",
      "house": "",
      "postcode": "6360-030",
      "city": "CADAFAZ CLB",
      "lon": "-7.359991079679251",
      "lat": "40.58596711588723"
    },
    {
      "id": "pt.ine.add.PTCONT.1893572",
      "street": "R DA QUINTA",
      "house": "",
      "postcode": "6360-030",
      "city": "CADAFAZ CLB",
      "lon": "-7.359905210114077",
      "lat": "40.58419252503207"
    },
    {
      "id": "pt.ine.add.PTCONT.1898384",
      "street": "R MARIA JOSÉ FURTADO DE MENDONÇA",
      "house": "33",
      "postcode": "6360-130",
      "city": "RAPA",
      "lon": "-7.346876628145412",
      "lat": "40.58423065168809"
    }
  ]
}