{
  "data": {
    "distrito": "Braga",
    "concelho": "Barcelos",
    "freguesia": "União das freguesias de Chorente, Góios, Courel, Pedra Furada e Gueral",
    "OBJECTID": 382,
    "BGRI2021": "03029600202",
    "DT21": "03",
    "DTMN21": "0302",
    "DTMNFR21": "030296",
    "DTMNFRSEC21": "030296002",
    "SECNUM21": "002",
    "SSNUM21": "02",
    "SECSSNUM21": "00202",
    "OBJECTID_1": 20701,
    "DT": "03",
    "CC": "02",
    "fr": "96",
    "SEC": "002",
    "SS": "02"
  },
  "addresses": [
    {
      "id": "pt.ine.add.PTCONT.460408",
      "street": "R PRINCIPAL",
      "house": "275",
      "postcode": "4755-120",
      "city": "CHORENTE",
      "lon": "-8.615060879182435",
      "lat": "41.44221743902844"
    },
    {
      "id": "pt.ine.add.PTCONT.484937",
      "street": "CAM VILA",
      "house": "77",
      "postcode": "4755-120",
      "city": "CHORENTE",
      "lon": "-8.615813440609635",
      "lat": "41.44204320969263"
    },
    {
      "id": "pt.ine.add.PTCONT.545334",
      "street": "CAM VILA",
      "house": "37",
      "postcode": "4755-120",
      "city": "CHORENTE",
      "lon": "-8.615597594586676",
      "lat": "41.44198108783934"
    },
    {
      "id": "pt.ine.add.PTCONT.657898",
      "street": "R VILA",
      "house": "115",
      "postcode": "4755-131",
      "city": "CHORENTE",
      "lon": "-8.616239178689476",
      "lat": "41.442977828290545"
    },
    {
      "id": "pt.ine.add.PTCONT.703940",
      "street": "R VILA",
      "house": "31",
      "postcode": "4755-131",
      "city": "CHORENTE",
      "lon": "-8.61547050798263",
      "lat": "41.442593886089455"
    },
    {
      "id": "pt.ine.add.PTCONT.713035",
      "street": "R PRINCIPAL",
      "house": "157",
      "postcode": "4755-120",
      "city": "CHORENTE",
      "lon": "-8.614288832333711",
      "lat": "41.44137430395202"
    },
    {
      "id": "pt.ine.add.PTCONT.742886",
      "street": "R VILA",
      "house": "65",
      "postcode": "4755-131",
      "city": "CHORENTE",
      "lon": "-8.615818645009114",
      "lat": "41.44274549217404"
    },
    {
      "id": "pt.ine.add.PTCONT.772963",
      "street": "R PRINCIPAL",
      "house": "255",
      "postcode": "4755-120",
      "city": "CHORENTE",
      "lon": "-8.614927393417195",
      "lat": "41.44196588890865"
    },
    {
      "id": "pt.ine.add.PTCONT.787056",
      "street": "VILA",
      "house": "",
      "postcode": "4755-397",
      "city": "PEDRA FURADA",
      "lon": "-8.615108674729296",
      "lat": "41.44220823488468"
    },
    {
      "id": "pt.ine.add.PTCONT.812097",
      "street": "R VILA",
      "house": "1",
      "postcode": "4755-131",
      "city": "CHORENTE",
      "lon": "-8.615229729616008",
      "lat": "41.442396809567356"
    },
    {
      "id": "pt.ine.add.PTCONT.812098",
      "street": "R VILA",
      "house": "1",
      "postcode": "4755-131",
      "city": "CHORENTE",
      "lon": "-8.615229729616008",
      "lat": "41.442396809567356"
    }
  ]
}