{
  "data": {
    "distrito": "Leiria",
    "concelho": "Alvaiázere",
    "freguesia": "Almoster",
    "OBJECTID": 562,
    "BGRI2021": "10020100180",
    "DT21": "10",
    "DTMN21": "1002",
    "DTMNFR21": "100201",
    "DTMNFRSEC21": "100201001",
    "SECNUM21": "001",
    "SSNUM21": "80",
    "SECSSNUM21": "00180",
    "OBJECTID_1": 85576,
    "DT": "10",
    "CC": "02",
    "fr": "01",
    "SEC": "001",
    "SS": "80"
  },
  "addresses": [
    {
      "id": "pt.ine.add.PTCONT.1986453",
      "street": "R PRINCIPAL",
      "house": "",
      "postcode": "3250-035",
      "city": "ALMOSTER AVZ",
      "lon": "-8.470556513239398",
      "lat": "39.861895032454875"
    },
    {
      "id": "pt.ine.add.PTCONT.2012757",
      "street": "LAD MACIEIRA",
      "house": "",
      "postcode": "3250-035",
      "city": "ALMOSTER AVZ",
      "lon": "-8.47430723958208",
      "lat": "39.86409963097817"
    },
    {
      "id": "pt.ine.add.PTCONT.2032194",
      "street": "R VALE DA FIGUEIRINHA",
      "house": "",
      "postcode": "3250-035",
      "city": "ALMOSTER AVZ",
      "lon": "-8.471668346005544",
      "lat": "39.86221602258035"
    },
    {
      "id": "pt.ine.add.PTCONT.2056854",
      "street": "LAD MACIEIRA",
      "house": "",
      "postcode": "3250-035",
      "city": "ALMOSTER AVZ",
      "lon": "-8.474128137960816",
      "lat": "39.86569428705"
    },
    {
      "id": "pt.ine.add.PTCONT.2101113",
      "street": "R NSA SRA DE FÁTIMA",
      "house": "",
      "postcode": "3250-032",
      "city": "ALMOSTER AVZ",
      "lon": "-8.463489604175601",
      "lat": "39.860222174458585"
    },
    {
      "id": "pt.ine.add.PTCONT.2103404",
      "street": "LAD MACIEIRA",
      "house": "",
      "postcode": "3250-035",
      "city": "ALMOSTER AVZ",
      "lon": "-8.474109940993417",
      "lat": "39.864379408992285"
    },
    {
      "id": "pt.ine.add.PTCONT.2159530",
      "street": "R NSA SRA DE FÁTIMA",
      "house": "",
      "postcode": "3250-035",
      "city": "ALMOSTER AVZ",
      "lon": "-8.473224288861962",
      "lat": "39.862535700690536"
    },
    {
      "id": "pt.ine.add.PTCONT.2210374",
      "street": "LAD MACIEIRA",
      "house": "",
      "postcode": "3250-035",
      "city": "ALMOSTER AVZ",
      "lon": "-8.474394441827304",
      "lat": "39.864865803083"
    },
    {
      "id": "pt.ine.add.PTCONT.2236236",
      "street": "R CASTELEJO",
      "house": "",
      "postcode": "3250-035",
      "city": "ALMOSTER AVZ",
      "lon": "-8.465831607021977",
      "lat": "39.86361088826512"
    },
    {
      "id": "pt.ine.add.PTCONT.2251926",
      "street": "R VALE DA FIGUEIRINHA",
      "house": "",
      "postcode": "3250-035",
      "city": "ALMOSTER AVZ",
      "lon": "-8.471283787424907",
      "lat": "39.862442303977865"
    }
  ]
}