{
  "data": {
    "distrito": "Lisboa",
    "concelho": "Sobral de Monte Agraço",
    "freguesia": "Santo Quintino",
    "OBJECTID": 300,
    "BGRI2021": "11120100116",
    "DT21": "11",
    "DTMN21": "1112",
    "DTMNFR21": "111201",
    "DTMNFRSEC21": "111201001",
    "SECNUM21": "001",
    "SSNUM21": "16",
    "SECSSNUM21": "00116",
    "OBJECTID_1": 114867,
    "DT": "11",
    "CC": "12",
    "fr": "01",
    "SEC": "001",
    "SS": "16"
  },
  "addresses": [
    {
      "id": "pt.ine.add.PTCONT.2354574",
      "street": "",
      "house": "",
      "postcode": "2590-203",
      "city": "SOBRAL DE MONTE AGRAÇO",
      "lon": "-9.130712523588477",
      "lat": "39.00886151845134"
    },
    {
      "id": "pt.ine.add.PTCONT.2363304",
      "street": "CSL ALHAIS",
      "house": "",
      "postcode": "2590-277",
      "city": "SOBRAL DE MONTE AGRAÇO",
      "lon": "-9.117146675212528",
      "lat": "39.007985918374835"
    },
    {
      "id": "pt.ine.add.PTCONT.2644811",
      "street": "CSL ALHAIS",
      "house": "",
      "postcode": "2590-277",
      "city": "SOBRAL DE MONTE AGRAÇO",
      "lon": "-9.118629473991177",
      "lat": "39.010846780429546"
    },
    {
      "id": "pt.ine.add.PTCONT.2651196",
      "street": "CSL ALHAIS",
      "house": "",
      "postcode": "2590-277",
      "city": "SOBRAL DE MONTE AGRAÇO",
      "lon": "-9.118723575167186",
      "lat": "39.01097208979927"
    },
    {
      "id": "pt.ine.add.PTCONT.2679377",
      "street": "R FONTE",
      "house": "1",
      "postcode": "2590-273",
      "city": "SOBRAL DE MONTE AGRAÇO",
      "lon": "-9.13425465860655",
      "lat": "39.01280345806072"
    },
    {
      "id": "pt.ine.add.PTCONT.2777853",
      "street": "",
      "house": "",
      "postcode": "2590-074",
      "city": "SOBRAL DE MONTE AGRAÇO",
      "lon": "-9.120391201688127",
      "lat": "39.00967892948515"
    },
    {
      "id": "pt.ine.add.PTCONT.2777854",
      "street": "R MOINHO",
      "house": "4",
      "postcode": "2590-230",
      "city": "SOBRAL DE MONTE AGRAÇO",
      "lon": "-9.121197799211188",
      "lat": "39.01454513232592"
    },
    {
      "id": "pt.ine.add.PTCONT.2858121",
      "street": "SIT CASTELO",
      "house": "",
      "postcode": "2590-230",
      "city": "SOBRAL DE MONTE AGRAÇO",
      "lon": "-9.12114886394442",
      "lat": "39.014347382929344"
    },
    {
      "id": "pt.ine.add.PTCONT.3124923",
      "street": "",
      "house": "",
      "postcode": "2590-277",
      "city": "SOBRAL DE MONTE AGRAÇO",
      "lon": "-9.11857799208407",
      "lat": "39.01628771642259"
    },
    {
      "id": "pt.ine.add.PTCONT.3420184",
      "street": "QTA MARTINACHA",
      "house": "",
      "postcode": "2590-074",
      "city": "SOBRAL DE MONTE AGRAÇO",
      "lon": "-9.12099900716756",
      "lat": "39.009385545341026"
    },
    {
      "id": "pt.ine.add.PTCONT.3445889",
      "street": "R MARECHAL GOMES DA COSTA",
      "house": "10",
      "postcode": "2590-277",
      "city": "SOBRAL DE MONTE AGRAÇO",
      "lon": "-9.116970279773433",
      "lat": "39.00775321217392"
    },
    {
      "id": "pt.ine.add.PTCONT.3450822",
      "street": "R MARECHAL GOMES DA COSTA",
      "house": "14",
      "postcode": "2590-277",
      "city": "SOBRAL DE MONTE AGRAÇO",
      "lon": "-9.116630090350954",
      "lat": "39.00819744634977"
    }
  ]
}