{
  "data": {
    "distrito": "Bragança",
    "concelho": "Vimioso",
    "freguesia": "Vimioso",
    "OBJECTID": 95,
    "BGRI2021": "04111400123",
    "DT21": "04",
    "DTMN21": "0411",
    "DTMNFR21": "041114",
    "DTMNFRSEC21": "041114001",
    "SECNUM21": "001",
    "SSNUM21": "23",
    "SECSSNUM21": "00123",
    "OBJECTID_1": 39290,
    "DT": "04",
    "CC": "11",
    "fr": "14",
    "SEC": "001",
    "SS": "23"
  },
  "addresses": [
    {
      "id": "pt.ine.add.PTCONT.858701",
      "street": "TV DO LAR S JOSÉ",
      "house": "",
      "postcode": "5230-300",
      "city": "VIMIOSO",
      "lon": "-6.527971146023894",
      "lat": "41.58719268317856"
    },
    {
      "id": "pt.ine.add.PTCONT.862958",
      "street": "R DO LAR S JOSÉ",
      "house": "2",
      "postcode": "5230-300",
      "city": "VIMIOSO",
      "lon": "-6.52789481171713",
      "lat": "41.58688550541399"
    },
    {
      "id": "pt.ine.add.PTCONT.873667",
      "street": "TV DO LAR S JOSÉ",
      "house": "11",
      "postcode": "5230-300",
      "city": "VIMIOSO",
      "lon": "-6.52791031417508",
      "lat": "41.58722784683838"
    },
    {
      "id": "pt.ine.add.PTCONT.886831",
      "street": "R DR FRANCISCO SÁ CARNEIRO",
      "house": "",
      "postcode": "5230-330",
      "city": "VIMIOSO",
      "lon": "-6.528860039759244",
      "lat": "41.58713306621409"
    },
    {
      "id": "pt.ine.add.PTCONT.891782",
      "street": "R DR TRIGO NEGREIROS",
      "house": "7",
      "postcode": "5230-326",
      "city": "VIMIOSO",
      "lon": "-6.527750733628704",
      "lat": "41.586892496568716"
    },
    {
      "id": "pt.ine.add.PTCONT.905271",
      "street": "TV DO LAR S JOSÉ",
      "house": "",
      "postcode": "5230-300",
      "city": "VIMIOSO",
      "lon": "-6.528587834431732",
      "lat": "41.587471391776525"
    },
    {
      "id": "pt.ine.add.PTCONT.912663",
      "street": "TV DO LAR S JOSÉ",
      "house": "6",
      "postcode": "5230-300",
      "city": "VIMIOSO",
      "lon": "-6.528152080517097",
      "lat": "41.58715019322107"
    },
    {
      "id": "pt.ine.add.PTCONT.914183",
      "street": "R DR TRIGO NEGREIROS",
      "house": "",
      "postcode": "5230-326",
      "city": "VIMIOSO",
      "lon": "-6.527813518279808",
      "lat": "41.58726250820893"
    },
    {
      "id": "pt.ine.add.PTCONT.942169",
      "street": "R DR TRIGO NEGREIROS",
      "house": "15",
      "postcode": "5230-326",
      "city": "VIMIOSO",
      "lon": "-6.528025957622131",
      "lat": "41.58740052418272"
    }
  ]
}